time,x_hat,y_hat,z_hat,Vx_hat,Vy_hat,Vz_hat,ax_hat,ay_hat,az_hat,ax_bias,ay_bias,az_bias,gx_bias,gy_bias,gz_bias,roll,pitch,yaw,est_heading,mag_correction,pr_correction
2.39752,0,0,0.000248756,0,0,0,-5.96046e-08,-2.38419e-07,-0.00138187,-0.047293,-0.01987,0.002095,0.006321,-0.0443,0.003061,0.120944,-0.0772838,0.236318,0.236317,1,1
2.41732,5.31202e-06,-1.58644e-06,0.000248344,0.00064554,-0.000211071,-4.47069e-05,0.0242154,-0.0145899,-0.00224304,-0.047293,-0.01987,0.002095,0.00632125,-0.0443002,0.00306101,0.121218,-0.0753951,0.236331,0.236363,1,1
2.46522,7.47883e-05,6.88616e-06,8.91229e-05,0.00271628,0.000552009,-0.000810028,0.0278894,0.00271207,0.00925255,-0.047293,-0.01987,0.002095,0.00632358,-0.0443017,0.00306106,0.12096,-0.0717809,0.236433,0.236442,1,1
2.51552,0.000355782,0.000152711,2.31753e-05,0.00825374,0.00340648,-0.00109306,0.0719039,0.0171654,-9.53674e-05,-0.047293,-0.01987,0.002095,0.0063311,-0.0443067,0.00306714,0.12543,-0.0618128,0.23455,0.236549,1,1
2.56583,0.00118407,0.00057796,-1.12871e-05,0.0207099,0.00612016,-0.00119544,0.16988,-0.0147173,-0.0032835,-0.047293,-0.01987,0.002095,0.0063473,-0.0443203,0.00307034,0.129803,-0.0526304,0.232787,0.234676,1,1
2.61614,0.00304817,0.00146507,-3.15046e-05,0.0417662,0.0105825,-0.00131711,0.286779,-0.0312378,-0.00445938,-0.047293,-0.01987,0.002095,0.0063765,-0.044348,0.00307176,0.135281,-0.0423393,0.230667,0.232922,1,1
2.66645,0.00640751,0.00287576,-5.48948e-05,0.0701779,0.0148354,-0.00169359,0.38748,-0.063195,-0.00887489,-0.047293,-0.01987,0.00209498,0.00641681,-0.0443917,0.00307208,0.140725,-0.0319641,0.228332,0.230814,1,1
2.71677,0.0117288,0.00488255,-7.77765e-05,0.106703,0.0194556,-0.0013798,0.496171,-0.0861663,0.00706577,-0.047293,-0.01987,0.00209496,0.00646993,-0.044455,0.003071,0.1472,-0.0207572,0.226096,0.228492,1,1
2.76708,0.0193745,0.00703975,-0.00012955,0.150597,0.019783,-0.00311728,0.59979,-0.134118,-0.0317736,-0.047293,-0.01987,0.00209492,0.00653258,-0.0445396,0.00307044,0.154982,-0.00895345,0.223758,0.22627,1,1
2.81739,0.0298205,0.00864667,-0.000242564,0.20449,0.0138858,-0.00490278,0.736658,-0.173676,-0.0298452,-0.047293,-0.01987,0.00209483,0.00660643,-0.0446529,0.00307014,0.162383,0.00279791,0.224603,0.223951,1,1
2.8677,0.0434976,0.00838079,-0.00041889,0.268747,-0.00240413,-0.00704966,0.875035,-0.217318,-0.0313988,-0.047293,-0.01987,0.00209463,0.00668898,-0.0447969,0.00307005,0.17406,0.0171841,0.225311,0.224813,1,1
2.91802,0.0606986,0.00373799,-0.000698771,0.344545,-0.0375586,-0.0106006,1.03764,-0.296609,-0.0494013,-0.047293,-0.0198701,0.00209425,0.00677616,-0.0449689,0.00307096,0.190239,0.0350482,0.226448,0.225548,1,1
2.96833,0.0817031,-0.010079,-0.00118568,0.435847,-0.105361,-0.0176295,1.24138,-0.406908,-0.0971708,-0.0472931,-0.0198702,0.0020935,0.00685963,-0.0451727,0.0030713,0.215306,0.0601096,0.228384,0.226724,1,1
3.01864,0.107132,-0.042417,-0.00208192,0.554316,-0.232427,-0.0296239,1.52431,-0.591689,-0.137841,-0.0472931,-0.0198704,0.00209202,0.00692147,-0.0454245,0.00308157,0.26416,0.104105,0.222299,0.228719,1,1
3.06895,0.137645,-0.113609,-0.00391409,0.725392,-0.477293,-0.0557654,2.03659,-0.983224,-0.255912,-0.0472931,-0.0198709,0.00208895,0.00691857,-0.0457235,0.00308513,0.339288,0.185237,0.226625,0.222748,1,1
3.11927,0.174733,-0.246945,-0.00775662,0.974642,-0.868025,-0.111481,2.8286,-1.26609,-0.513571,-0.0472931,-0.019872,0.00208222,0.00679791,-0.0460007,0.00309904,0.417415,0.317152,0.251239,0.227255,1,1
3.16958,0.228001,-0.290801,-0.0134532,1.18171,-0.966708,-0.168674,4.14223,-1.98199,-1.29139,-0.0472929,-0.0198748,0.00206651,0.00679791,-0.0460007,0.00310398,0.411832,0.313311,0.252564,0.252077,1,0
3.21989,0.292222,-0.338859,-0.0204333,1.41677,-1.07507,-0.212302,4.74588,-2.21285,-1.0878,-0.0472921,-0.01988,0.00204004,0.00679791,-0.0460007,0.00310398,0.411745,0.315494,0.253387,0.253387,0,0
3.2702,0.380204,-0.599366,-0.0354638,1.97071,-1.53767,-0.403395,3.82339,-1.28461,-0.930482,-0.0472899,-0.0198883,0.00200141,0.00634031,-0.0462294,0.00310398,0.579605,0.565329,0.326667,0.254204,0,1
3.32052,0.479668,-0.664679,-0.0512892,2.26939,-1.64942,-0.529307,6.5205,-2.61103,-3.16434,-0.0472836,-0.0199067,0.00192208,0.00634031,-0.0462294,0.00265549,0.98489,0.762419,0.479095,0.328032,1,0
3.37083,0.583727,-0.717631,-0.0714751,2.59214,-1.81619,-0.761975,7.64505,-4.14597,-5.74614,-0.0472707,-0.0199364,0.00180504,0.00634031,-0.0462294,0.00265549,0.986364,0.763821,0.481696,0.481696,0,0
3.42114,0.693729,-0.75418,-0.0954279,2.88359,-1.95896,-0.948032,7.94127,-4.35777,-5.53455,-0.0472463,-0.0199817,0.00164627,0.00634031,-0.0462294,0.00265549,0.987843,0.765214,0.484294,0.484294,0,0
3.47145,0.802973,-0.764012,-0.119149,3.14149,-2.05722,-1.09835,8.29279,-4.48871,-5.81296,-0.0472062,-0.0200445,0.00145393,0.00634031,-0.0462294,0.00265549,0.989313,0.766621,0.486889,0.486889,0,0
3.52177,0.907286,-0.741977,-0.138451,3.315,-2.07634,-1.19693,7.50218,-4.05268,-5.8708,-0.0471493,-0.0201222,0.00124864,0.00634031,-0.0462294,0.00265549,0.990796,0.768015,0.489485,0.489485,0,0
3.57208,1.00507,-0.68898,-0.15272,3.47312,-2.07276,-1.24228,7.91013,-4.35183,-5.86204,-0.0470774,-0.0202098,0.00105339,0.00634031,-0.0462294,0.00265549,0.99229,0.769405,0.492088,0.492088,0,0
3.62239,1.10074,-0.615843,-0.160688,3.60588,-2.05868,-1.24237,7.88619,-4.26995,-5.83351,-0.0469955,-0.0202997,0.000889064,0.00634031,-0.0462294,0.00221164,1.11786,0.83232,0.526856,0.494709,1,0
3.6727,1.1973,-0.535732,-0.16338,3.75501,-2.08021,-1.29018,7.96191,-4.87046,-6.82513,-0.0469101,-0.0203851,0.000768113,0.00634031,-0.0462294,0.00178098,1.21572,0.829132,0.546819,0.529897,1,0
3.72302,1.30206,-0.461511,-0.166273,3.92221,-2.14818,-1.3841,7.79194,-5.42707,-7.37845,-0.0468225,-0.0204657,0.000686326,0.00634031,-0.0462294,0.00178098,1.21775,0.830018,0.549999,0.549999,0,0
3.77321,1.41834,-0.399325,-0.172709,4.11284,-2.23698,-1.49069,7.7289,-5.48299,-7.22739,-0.0467302,-0.0205449,0.000634912,0.00634031,-0.0462294,0.00178098,1.21978,0.830937,0.553178,0.553178,0,0
3.8234,1.54787,-0.349147,-0.183421,4.32743,-2.33565,-1.60939,7.71985,-5.40787,-7.12084,-0.0466294,-0.0206273,0.000606152,0.00634031,-0.0462294,0.00178098,1.22193,0.831666,0.556511,0.556511,0,0
3.87371,1.69157,-0.309032,-0.198696,4.56543,-2.44711,-1.75291,7.78469,-5.45103,-7.36568,-0.046515,-0.020718,0.000594262,0.00634031,-0.0462294,0.00178098,1.22397,0.832535,0.559716,0.559715,0,0
3.92403,1.85003,-0.277411,-0.218358,4.81591,-2.56559,-1.90028,7.76393,-5.41123,-7.32538,-0.0463812,-0.0208224,0.000594992,0.00634031,-0.0462294,0.00178098,1.22609,0.833364,0.562978,0.562978,0,0
3.97434,2.02389,-0.253064,-0.241696,5.07618,-2.68706,-2.04647,7.75824,-5.32793,-7.29293,-0.046222,-0.0209456,0.00060515,0.00634031,-0.0462294,0.00178098,1.22814,0.834204,0.566186,0.566186,0,0
4.02465,2.21378,-0.235135,-0.268108,5.35186,-2.81448,-2.1954,7.85669,-5.40226,-7.43224,-0.0460313,-0.0210932,0.000622183,0.00634031,-0.0462294,0.00178098,1.23024,0.835043,0.569439,0.569439,0,0
4.07496,2.4214,-0.223773,-0.296773,5.63826,-2.93579,-2.33539,7.83947,-5.31874,-7.40815,-0.0458035,-0.0212701,0.000643717,0.00634031,-0.0462294,0.00178098,1.23228,0.835922,0.572632,0.572632,0,0
4.12528,2.64835,-0.219196,-0.32691,5.93684,-3.05785,-2.4678,7.88934,-5.32849,-7.47247,-0.0455331,-0.021481,0.000667126,0.00634031,-0.0462294,0.00178098,1.23437,0.836786,0.575871,0.575871,0,0
4.17559,2.89652,-0.222603,-0.35768,6.24192,-3.18499,-2.58712,7.90323,-5.31971,-7.5014,-0.045216,-0.02173,0.000689597,0.00634031,-0.0462294,0.00178098,1.23647,0.837641,0.579122,0.579122,0,0
4.2259,3.16758,-0.235873,-0.388099,6.55291,-3.31791,-2.68644,7.89635,-5.34304,-7.46756,-0.0448497,-0.0220195,0.000708486,0.00634031,-0.0462294,0.00178098,1.23856,0.838488,0.582372,0.582372,0,0
4.27621,3.46303,-0.260966,-0.416982,6.87671,-3.44657,-2.76939,7.91967,-5.30916,-7.54411,-0.0444346,-0.0223494,0.000721487,0.00634031,-0.0462294,0.00178098,1.24063,0.839329,0.585598,0.585598,0,0
4.32653,3.78482,-0.299787,-0.443513,7.21444,-3.57069,-2.83223,7.93029,-5.29445,-7.54515,-0.0439738,-0.0227178,0.000726459,0.00634031,-0.0462294,0.00178098,1.24275,0.840177,0.588852,0.588852,0,0
4.37684,4.13446,-0.354294,-0.467001,7.55988,-3.70083,-2.8762,7.93835,-5.28922,-7.56642,-0.0434725,-0.0231208,0.000721364,0.00634031,-0.0462294,0.00178098,1.24486,0.841009,0.592111,0.592111,0,0
4.42715,4.51276,-0.426916,-0.487025,7.90875,-3.84431,-2.90001,7.96179,-5.27725,-7.57279,-0.0429381,-0.0235528,0.000704713,0.00634031,-0.0462294,0.00178098,1.24698,0.841828,0.59538,0.59538,0,0
4.47746,4.91961,-0.519911,-0.503112,8.2642,-3.99414,-2.90527,7.9625,-5.26542,-7.59603,-0.0423805,-0.0240057,0.000676046,0.00634031,-0.0462294,0.00178098,1.2491,0.84265,0.598651,0.598651,0,0
4.52778,5.35476,-0.634519,-0.515044,8.63355,-4.14059,-2.89456,7.9804,-5.25708,-7.59488,-0.0418115,-0.02447,0.0006358,0.00634031,-0.0462294,0.00178098,1.25122,0.843462,0.601922,0.601922,0,0
4.57809,5.81783,-0.770941,-0.522958,9.0128,-4.28811,-2.87419,7.99059,-5.23481,-7.61911,-0.0412424,-0.0249364,0.000584763,0.00634031,-0.0462294,0.00178098,1.25336,0.844276,0.60521,0.60521,0,0
4.6284,6.30807,-0.929422,-0.527496,9.39188,-4.45145,-2.84693,7.99849,-5.22941,-7.64023,-0.0406828,-0.0253969,0.000523851,0.00634031,-0.0462294,0.00178098,1.25549,0.845091,0.608503,0.608503,0,0
4.67871,6.82385,-1.11044,-0.529237,9.76894,-4.63125,-2.81251,8.01099,-5.22474,-7.63166,-0.0401414,-0.0258443,0.000454486,0.00634031,-0.0462294,0.00178098,1.25763,0.8459,0.611794,0.611794,0,0
4.72903,7.36331,-1.31368,-0.528513,10.1518,-4.81261,-2.77559,8.02646,-5.19857,-7.66345,-0.0396265,-0.0262714,0.00037875,0.00634031,-0.0462294,0.00178098,1.25979,0.846702,0.615099,0.615099,0,0
4.77934,7.92492,-1.53765,-0.525796,10.5435,-4.98994,-2.74032,8.03969,-5.18929,-7.69214,-0.039145,-0.0266724,0.000298809,0.00634031,-0.0462294,0.00178098,1.26193,0.847494,0.61839,0.61839,0,0
4.82965,8.50778,-1.78084,-0.521845,10.9362,-5.17374,-2.70893,8.0515,-5.17714,-7.70691,-0.0387002,-0.0270442,0.000216262,0.00634031,-0.0462294,0.00178098,1.2641,0.848285,0.621705,0.621705,0,0
4.87996,9.11063,-2.04246,-0.517342,11.322,-5.37376,-2.68067,8.05792,-5.16886,-7.7144,-0.0382931,-0.0273856,0.000132325,0.00634031,-0.0462294,0.00178098,1.26628,0.849066,0.625022,0.625022,0,0
4.93028,9.73194,-2.3219,-0.512606,11.7043,-5.58154,-2.65462,8.0663,-5.14374,-7.72513,-0.0379252,-0.0276955,4.84567e-05,0.00634031,-0.0462294,0.00178098,1.26846,0.849846,0.628344,0.628344,0,0
4.98059,10.3702,-2.61767,-0.507699,12.0915,-5.78484,-2.63155,8.09285,-5.14443,-7.73627,-0.0375979,-0.0279721,-3.36344e-05,0.00634031,-0.0462294,0.00178098,1.27063,0.850608,0.631653,0.631653,0,0
5.0309,11.0247,-2.92802,-0.502774,12.4818,-5.98356,-2.61314,8.10855,-5.12566,-7.74498,-0.0373113,-0.0282153,-0.000112673,0.00634031,-0.0462294,0.00178098,1.27282,0.851388,0.634986,0.634985,0,0
5.08121,11.6952,-3.25184,-0.498174,12.867,-6.19018,-2.59978,8.12554,-5.10953,-7.76776,-0.0370628,-0.0284269,-0.000188111,0.00634031,-0.0462294,0.00178098,1.27503,0.852156,0.638329,0.638329,0,0
5.13153,12.3808,-3.58877,-0.494085,13.2433,-6.40848,-2.58815,8.12253,-5.11177,-7.77435,-0.0368501,-0.0286089,-0.000259494,0.00634031,-0.0462294,0.00178098,1.27723,0.852909,0.641677,0.641677,0,0
5.18184,13.0803,-3.93792,-0.490307,13.6179,-6.62588,-2.57778,8.13539,-5.10216,-7.80345,-0.0366725,-0.0287615,-0.00032589,0.00634031,-0.0462294,0.00178098,1.27944,0.853676,0.645035,0.645035,0,0
5.23215,13.7932,-4.29783,-0.486659,13.9962,-6.83342,-2.56896,8.15628,-5.07924,-7.82015,-0.0365296,-0.0288851,-0.000386314,0.00634031,-0.0462294,0.00178098,1.28164,0.854432,0.648381,0.648381,0,0
5.28234,14.5177,-4.66649,-0.482951,14.3712,-7.03893,-2.56207,8.15099,-5.07116,-7.83617,-0.0364187,-0.0289816,-0.000440403,0.00634031,-0.0462294,0.00178098,1.28385,0.855176,0.651723,0.651723,0,0
5.33254,15.2554,-5.04439,-0.479652,14.7389,-7.25294,-2.55642,8.17918,-5.05456,-7.85094,-0.0363359,-0.0290542,-0.000488371,0.00634031,-0.0462294,0.00178098,1.28607,0.855908,0.65509,0.65509,0,0
5.38285,16.0074,-5.43212,-0.476841,15.1015,-7.47193,-2.5502,8.19059,-5.04215,-7.86644,-0.0362791,-0.0291047,-0.000530135,0.00634031,-0.0462294,0.00178098,1.2883,0.856645,0.658468,0.658468,0,0
5.43316,16.7717,-5.82787,-0.473918,15.4655,-7.68266,-2.54216,8.20604,-5.02299,-7.87571,-0.0362473,-0.0291337,-0.000565097,0.00634031,-0.0462294,0.00178098,1.29055,0.857375,0.66186,0.66186,0,0
5.48347,17.5483,-6.23054,-0.47076,15.8308,-7.88539,-2.53402,8.20304,-5.02519,-7.88256,-0.0362388,-0.0291426,-0.000592986,0.00634031,-0.0462294,0.00178098,1.29279,0.858113,0.665244,0.665244,0,0
5.53379,18.3377,-6.63995,-0.467512,16.191,-8.09077,-2.52655,8.20166,-5.01047,-7.8925,-0.0362498,-0.0291347,-0.000614289,0.00634031,-0.0462294,0.00178098,1.29504,0.858833,0.66864,0.66864,0,0
5.5841,19.1399,-7.05625,-0.464293,16.5446,-8.30357,-2.51897,8.23081,-4.99609,-7.92152,-0.0362766,-0.0291129,-0.000629604,0.00634031,-0.0462294,0.00178098,1.29729,0.859565,0.672033,0.672033,0,0
5.63441,19.9548,-7.47924,-0.460994,16.8962,-8.51381,-2.50972,8.23447,-4.97721,-7.93901,-0.0363176,-0.0290785,-0.000638964,0.00634031,-0.0462294,0.00178098,1.29954,0.860284,0.675434,0.675434,0,0
5.68472,20.7827,-7.90807,-0.45746,17.2512,-8.71382,-2.49971,8.24057,-4.96865,-7.94715,-0.0363718,-0.0290325,-0.000642243,0.00634031,-0.0462294,0.00178098,1.3018,0.86099,0.678829,0.678829,0,0
5.73504,21.6243,-8.34253,-0.453768,17.607,-8.90989,-2.49143,8.25671,-4.95204,-7.97048,-0.0364364,-0.0289771,-0.000639936,0.00634031,-0.0462294,0.00178098,1.30407,0.861703,0.682239,0.682239,0,0
5.78535,22.4802,-8.78319,-0.450135,17.9573,-9.11276,-2.48458,8.26884,-4.94191,-8.00013,-0.0365077,-0.0289156,-0.000633025,0.00634031,-0.0462294,0.00178098,1.30634,0.862406,0.685649,0.685649,0,0
5.83566,23.3506,-9.23058,-0.446631,18.3043,-9.31959,-2.47593,8.28645,-4.93292,-8.00037,-0.0365834,-0.0288499,-0.000622117,0.00634031,-0.0462294,0.00178098,1.30863,0.863105,0.689078,0.689078,0,0
5.88597,24.2359,-9.68435,-0.443034,18.6531,-9.51962,-2.46606,8.27575,-4.92889,-8.00902,-0.0366632,-0.0287802,-0.000607259,0.00634031,-0.0462294,0.00178098,1.31091,0.863794,0.692509,0.692509,0,0
5.93629,25.1367,-10.1442,-0.439295,19.006,-9.71161,-2.45713,8.28675,-4.91613,-8.02482,-0.0367459,-0.0287077,-0.00058872,0.00634031,-0.0462294,0.00178098,1.31321,0.864473,0.695947,0.695947,0,0
5.9866,26.0535,-10.6107,-0.4356,19.359,-9.90637,-2.44985,8.33471,-4.9069,-8.04463,-0.0368289,-0.0286345,-0.000567392,0.00634031,-0.0462294,0.00178098,1.31551,0.865149,0.699381,0.699381,0,0
6.03691,26.9872,-11.0848,-0.432041,19.7065,-10.1077,-2.44317,8.31844,-4.88228,-8.07172,-0.0369097,-0.0285628,-0.000544168,0.00634031,-0.0462294,0.00178098,1.3178,0.865824,0.702809,0.702809,0,0
6.08722,27.938,-11.5668,-0.428593,20.0556,-10.3071,-2.43465,8.34491,-4.86231,-8.07337,-0.0369881,-0.0284929,-0.000519313,0.00634031,-0.0462294,0.00178098,1.32011,0.866495,0.706249,0.70625,0,0
6.13754,28.9061,-12.0561,-0.425054,20.4095,-10.4985,-2.42671,8.34762,-4.86283,-8.1018,-0.0370645,-0.0284244,-0.000492835,0.00634031,-0.0462294,0.00178098,1.32242,0.867162,0.709696,0.709696,0,0
6.18785,29.8922,-12.553,-0.421488,20.7661,-10.6874,-2.41903,8.36915,-4.84692,-8.0959,-0.0371378,-0.0283585,-0.000465247,0.00634031,-0.0462294,0.00178098,1.32473,0.867824,0.713154,0.713154,0,0
6.23816,30.8968,-13.0588,-0.418022,21.1191,-10.8834,-2.41325,8.36901,-4.83692,-8.13349,-0.0372059,-0.0282967,-0.000437427,0.00634031,-0.0462294,0.00178098,1.32704,0.868468,0.7166,0.7166,0,0
6.28847,31.9203,-13.5741,-0.414723,21.4707,-11.0825,-2.4064,8.37579,-4.81123,-8.14458,-0.0372683,-0.0282397,-0.000409818,0.00634031,-0.0462294,0.00178098,1.32936,0.869128,0.720056,0.720056,0,0
6.33879,32.9628,-14.0984,-0.411445,21.8269,-11.2768,-2.39842,8.39304,-4.82136,-8.15594,-0.0373262,-0.0281865,-0.000382311,0.00634031,-0.0462294,0.00178098,1.33169,0.869775,0.723529,0.723529,0,0
6.3891,34.0244,-14.6316,-0.408058,22.1879,-11.465,-2.3915,8.40844,-4.80405,-8.17949,-0.0373798,-0.0281369,-0.00035497,0.00634031,-0.0462294,0.00178098,1.33401,0.870414,0.726987,0.726987,0,0
6.43941,35.1055,-15.1746,-0.404729,22.5481,-11.658,-2.38555,8.41788,-4.80804,-8.19237,-0.037428,-0.0280919,-0.000328388,0.00634031,-0.0462294,0.00178098,1.33635,0.871056,0.730474,0.730474,0,0
6.48972,36.2066,-15.7284,-0.401542,22.9058,-11.8564,-2.37929,8.42555,-4.76507,-8.20641,-0.0374701,-0.0280522,-0.000303085,0.00634031,-0.0462294,0.00178098,1.33871,0.871682,0.733957,0.733958,0,0
6.54004,37.3277,-16.2928,-0.398427,23.266,-12.0535,-2.37176,8.44373,-4.75804,-8.22081,-0.037507,-0.0280169,-0.00027898,0.00634031,-0.0462294,0.00178098,1.34105,0.872292,0.737449,0.737449,0,0
6.59035,38.4686,-16.8671,-0.395204,23.631,-12.244,-2.36407,8.44535,-4.75585,-8.23521,-0.0375402,-0.0279849,-0.000255798,0.00634031,-0.0462294,0.00178098,1.34341,0.872905,0.740942,0.740942,0,0
6.64066,39.6294,-17.4517,-0.391922,23.9974,-12.4338,-2.35742,8.45178,-4.72999,-8.24628,-0.0375695,-0.0279565,-0.000233746,0.00634031,-0.0462294,0.00178098,1.34577,0.873518,0.74443,0.74443,0,0
6.69097,40.8103,-18.0478,-0.388763,24.3609,-12.6309,-2.35183,8.45016,-4.71753,-8.26979,-0.0375938,-0.0279324,-0.000213309,0.00634031,-0.0462294,0.00178098,1.34813,0.874131,0.747928,0.747928,0,0
6.74129,42.0115,-18.6555,-0.385775,24.7255,-12.8299,-2.34546,8.48559,-4.68823,-8.28706,-0.0376136,-0.0279122,-0.000194524,0.00634031,-0.0462294,0.00178098,1.3505,0.874727,0.751444,0.751444,0,0
6.79148,43.2297,-19.2724,-0.382579,25.0936,-13.0234,-2.33773,8.49498,-4.69194,-8.30007,-0.0376307,-0.0278946,-0.000176985,0.00634031,-0.0462294,0.00178098,1.35286,0.875321,0.754932,0.754932,0,0
6.84167,44.4674,-19.8996,-0.379379,25.4642,-13.2136,-2.33187,8.48918,-4.68617,-8.32973,-0.0376457,-0.0278789,-0.000160522,0.00634031,-0.0462294,0.00178098,1.35525,0.875912,0.758467,0.758467,0,0
6.89198,45.728,-20.5398,-0.37654,25.8347,-13.4101,-2.3273,8.50256,-4.68314,-8.3366,-0.0376578,-0.0278658,-0.000145428,0.00634031,-0.0462294,0.00178098,1.35764,0.876494,0.761983,0.761983,0,0
6.9423,47.0086,-21.1921,-0.373829,26.2036,-13.6119,-2.32178,8.51654,-4.66318,-8.34624,-0.0376669,-0.0278556,-0.000131883,0.00634031,-0.0462294,0.00178098,1.36004,0.87707,0.765509,0.765509,0,0
6.99261,48.3089,-21.8555,-0.371096,26.5756,-13.8101,-2.31508,8.53511,-4.63868,-8.36355,-0.0376743,-0.0278469,-0.000119521,0.00634031,-0.0462294,0.00178098,1.36245,0.877642,0.769039,0.769039,0,0
7.04292,49.6285,-22.5292,-0.368235,26.9511,-14.0026,-2.30892,8.53308,-4.62618,-8.38708,-0.0376813,-0.0278388,-0.000107937,0.00634031,-0.0462294,0.00178098,1.36486,0.878204,0.772582,0.772582,0,0
7.09323,50.9675,-23.2139,-0.36539,27.327,-14.1977,-2.30415,8.54694,-4.62542,-8.40795,-0.0376875,-0.0278316,-9.72448e-05,0.00634031,-0.0462294,0.00178098,1.36729,0.878766,0.776137,0.776137,0,0
7.14355,52.3261,-23.9106,-0.362685,27.6997,-14.3987,-2.29911,8.54025,-4.59797,-8.41263,-0.0376919,-0.027826,-8.77173e-05,0.00634031,-0.0462294,0.00178098,1.36971,0.879316,0.779677,0.779677,0,0
7.19386,53.7041,-24.6185,-0.360062,28.0732,-14.6,-2.2931,8.55,-4.58459,-8.42848,-0.0376954,-0.0278213,-7.91662e-05,0.00634031,-0.0462294,0.00178098,1.37212,0.87986,0.783219,0.783219,0,0
7.24417,55.101,-25.3366,-0.357392,28.451,-14.7957,-2.28667,8.56772,-4.57702,-8.44303,-0.0376994,-0.0278165,-7.11051e-05,0.00634031,-0.0462294,0.00178098,1.37453,0.880403,0.78677,0.78677,0,0
7.29448,56.5168,-26.065,-0.35468,28.8311,-14.9892,-2.28178,8.59039,-4.54773,-8.46804,-0.0377039,-0.0278113,-6.34313e-05,0.00634031,-0.0462294,0.00178098,1.37695,0.880942,0.790327,0.790327,0,0
7.3448,57.9522,-26.8051,-0.357517,29.2108,-15.1905,-2.29508,8.58712,-4.5499,-8.47471,-0.0377076,-0.0278069,-5.67352e-05,0.00634031,-0.0462294,0.00178098,1.37937,0.881469,0.793883,0.793883,0,0
7.39511,59.4068,-27.5566,-0.362394,29.5901,-15.395,-2.31116,8.59672,-4.53636,-8.49054,-0.0377107,-0.0278031,-5.07716e-05,0.00634031,-0.0462294,0.00178098,1.38182,0.881992,0.797449,0.797449,0,0
7.44543,60.8805,-28.3182,-0.366062,29.9711,-15.5943,-2.31912,8.59822,-4.51701,-8.50767,-0.0377146,-0.0277988,-4.49675e-05,0.00634031,-0.0462294,0.00178098,1.38425,0.882512,0.801004,0.801004,0,0
7.49574,62.3725,-29.0892,-0.365789,30.354,-15.7889,-2.31254,8.6282,-4.51059,-8.52889,-0.0377198,-0.0277935,-3.89621e-05,0.00634031,-0.0462294,0.00178098,1.38671,0.883021,0.804602,0.804602,0,0
7.54605,63.8832,-29.8709,-0.364874,30.7347,-15.9868,-2.30514,8.62159,-4.48526,-8.54723,-0.0377253,-0.0277879,-3.31819e-05,0.00634031,-0.0462294,0.00178098,1.38916,0.883532,0.808183,0.808183,0,0
7.59636,65.4126,-30.6637,-0.360813,31.1125,-16.1895,-2.28644,8.6347,-4.48192,-8.55422,-0.0377303,-0.0277828,-2.7747e-05,0.00634031,-0.0462294,0.00178098,1.3916,0.884037,0.811758,0.811758,0,0
7.64668,66.9612,-31.4667,-0.356757,31.4924,-16.3904,-2.26993,8.64056,-4.47709,-8.59027,-0.0377358,-0.0277774,-2.25286e-05,0.00634031,-0.0462294,0.00178098,1.39406,0.884538,0.815359,0.815359,0,0
7.69699,68.5284,-32.279,-0.352677,31.8758,-16.585,-2.25435,8.64931,-4.44191,-8.58091,-0.0377426,-0.0277709,-1.71519e-05,0.00634031,-0.0462294,0.00178098,1.39654,0.885035,0.818974,0.818974,0,0
7.7473,70.1142,-33.1012,-0.348689,32.2598,-16.7808,-2.24235,8.66297,-4.42346,-8.60466,-0.03775,-0.0277639,-1.17511e-05,0.00634031,-0.0462294,0.00178098,1.399,0.885519,0.822565,0.822565,0,0
7.79761,71.7191,-33.9344,-0.345007,32.6421,-16.9828,-2.23203,8.67599,-4.42007,-8.61171,-0.0377569,-0.0277574,-6.66891e-06,0.00634031,-0.0462294,0.00178098,1.40146,0.886006,0.826162,0.826162,0,0
7.84793,73.3432,-34.7781,-0.338794,33.0242,-17.1845,-2.21283,8.6852,-4.40622,-8.62761,-0.0377637,-0.027751,-1.69769e-06,0.00634031,-0.0462294,0.00178098,1.40392,0.886493,0.829755,0.829755,0,0
7.89824,74.9863,-35.6309,-0.333137,33.41,-17.3813,-2.19806,8.69042,-4.39913,-8.64971,-0.0377715,-0.0277439,3.4222e-06,0.00634031,-0.0462294,0.00178098,1.40639,0.886959,0.833347,0.833347,0,0
7.94855,76.6482,-36.4932,-0.328043,33.7972,-17.5767,-2.18846,8.69559,-4.37494,-8.67434,-0.0377801,-0.0277361,8.71003e-06,0.00634031,-0.0462294,0.00178098,1.40885,0.887423,0.836941,0.836941,0,0
7.99886,78.3294,-37.3663,-0.323668,34.1831,-17.7783,-2.1824,8.70459,-4.37824,-8.68764,-0.0377881,-0.0277287,1.37967e-05,0.00634031,-0.0462294,0.00178098,1.41134,0.887878,0.840547,0.840547,0,0
8.04918,80.0303,-38.2503,-0.319953,34.5689,-17.9816,-2.17849,8.7096,-4.35402,-8.71231,-0.0377955,-0.027722,1.86049e-05,0.00634031,-0.0462294,0.00178098,1.41382,0.888317,0.844153,0.844153,0,0
8.09949,81.7506,-39.1436,-0.316718,34.9585,-18.1802,-2.17551,8.7348,-4.33431,-8.72869,-0.0378033,-0.0277149,2.34877e-05,0.00634031,-0.0462294,0.00178098,1.41631,0.88877,0.847781,0.847781,0,0
8.1498,83.49,-40.046,-0.313816,35.3496,-18.3762,-2.17353,8.72717,-4.32407,-8.73009,-0.0378119,-0.0277072,2.8604e-05,0.00634031,-0.0462294,0.00178098,1.4188,0.889208,0.851401,0.851401,0,0
8.20011,85.2489,-40.9591,-0.311296,35.74,-18.5763,-2.17311,8.74422,-4.31577,-8.74505,-0.0378201,-0.0276997,3.36324e-05,0.00634031,-0.0462294,0.00178098,1.42131,0.889651,0.855028,0.855028,0,0
8.25043,87.0277,-41.8833,-0.309153,36.1301,-18.7796,-2.17281,8.76108,-4.29027,-8.76257,-0.0378273,-0.0276931,3.83473e-05,0.00634031,-0.0462294,0.00178098,1.42381,0.890083,0.858662,0.858662,0,0
8.30061,88.8218,-42.8149,-0.307038,36.5205,-18.9795,-2.17119,8.75358,-4.28215,-8.77791,-0.0378346,-0.0276866,4.30064e-05,0.00634031,-0.0462294,0.00178098,1.42631,0.890509,0.862289,0.862289,0,0
8.3508,90.6356,-43.7556,-0.305094,36.9144,-19.1753,-2.17077,8.7787,-4.26416,-8.80845,-0.0378425,-0.0276795,4.78729e-05,0.00634031,-0.0462294,0.00178098,1.42881,0.890932,0.865912,0.865912,0,0
8.40099,92.4688,-44.7065,-0.303342,37.3079,-19.3745,-2.17064,8.78351,-4.27203,-8.81413,-0.0378503,-0.0276725,5.27247e-05,0.00634031,-0.0462294,0.00178098,1.43132,0.891341,0.86954,0.86954,0,0
8.45131,94.3266,-45.6711,-0.301932,37.7005,-19.5779,-2.17058,8.77949,-4.24008,-8.82557,-0.037857,-0.0276664,5.72528e-05,0.00634031,-0.0462294,0.00178098,1.43385,0.891743,0.873212,0.873212,0,0
8.50161,96.2035,-46.6457,-0.294693,38.0922,-19.7792,-2.14783,8.78814,-4.22581,-8.84155,-0.0378636,-0.0276604,6.18059e-05,0.00634031,-0.0462294,0.00178098,1.43638,0.892136,0.876874,0.876874,0,0
8.55192,98.101,-47.6295,-0.291239,38.4895,-19.9769,-2.14202,8.81326,-4.22268,-8.85585,-0.0378706,-0.0276542,6.63356e-05,0.00634031,-0.0462294,0.00178098,1.43891,0.892533,0.88053,0.880529,0,0
8.60223,100.018,-48.6233,-0.288156,38.8872,-20.1749,-2.13936,8.81747,-4.1981,-8.88044,-0.0378776,-0.0276479,7.08885e-05,0.00634031,-0.0462294,0.00178098,1.44144,0.89292,0.884196,0.884196,0,0
8.65255,101.956,-49.6287,-0.285551,39.2836,-20.3778,-2.13728,8.82186,-4.18675,-8.87465,-0.0378836,-0.0276425,7.51089e-05,0.00634031,-0.0462294,0.00178098,1.44399,0.893307,0.887873,0.887873,0,0
8.70285,103.914,-50.6446,-0.283301,39.6813,-20.5812,-2.13585,8.83867,-4.17991,-8.90394,-0.0378889,-0.0276377,7.90342e-05,0.00634031,-0.0462294,0.00178098,1.44652,0.893686,0.891523,0.891523,0,0
8.75304,105.887,-51.6673,-0.278137,40.0791,-20.7786,-2.12374,8.83429,-4.14983,-8.92921,-0.0378947,-0.0276325,8.31174e-05,0.00634031,-0.0462294,0.00178098,1.44905,0.894064,0.895172,0.895172,0,0
8.80324,107.88,-52.6996,-0.270776,40.4788,-20.976,-2.10562,8.86754,-4.152,-8.94281,-0.0379011,-0.0276269,8.7354e-05,0.00634031,-0.0462294,0.00178098,1.45159,0.894432,0.898841,0.898841,0,0
8.85343,109.892,-53.7433,-0.261652,40.8752,-21.1778,-2.08424,8.84296,-4.13298,-8.95947,-0.0379066,-0.0276219,9.13552e-05,0.00634031,-0.0462294,0.00178098,1.45413,0.894799,0.902505,0.902505,0,0
8.90361,111.925,-54.798,-0.251221,41.2726,-21.3805,-2.0601,8.87114,-4.10563,-8.97008,-0.0379113,-0.0276178,9.50174e-05,0.00634031,-0.0462294,0.00178098,1.45669,0.895151,0.906181,0.906181,0,0
8.9538,113.978,-55.8621,-0.239697,41.6722,-21.5799,-2.03536,8.86763,-4.10982,-8.9907,-0.0379162,-0.0276134,9.86864e-05,0.00634031,-0.0462294,0.00178098,1.45924,0.895501,0.909854,0.909854,0,0
9.00411,116.057,-56.9381,-0.230478,42.0757,-21.7773,-2.02407,8.87506,-4.07833,-9.00897,-0.0379216,-0.0276086,0.000102404,0.00634031,-0.0462294,0.00178098,1.46181,0.89585,0.913536,0.913536,0,0
9.05443,118.156,-58.0254,-0.223262,42.4792,-21.9786,-2.02175,8.88313,-4.06212,-9.01099,-0.0379264,-0.0276044,0.000105868,0.00634031,-0.0462294,0.00178098,1.46436,0.896189,0.917207,0.917207,0,0
9.10473,120.275,-59.1239,-0.214812,42.8821,-22.183,-2.01424,8.8956,-4.06,-9.0325,-0.0379302,-0.0276011,0.000109009,0.00634031,-0.0462294,0.00178098,1.46693,0.896517,0.920887,0.920887,0,0
9.15504,122.415,-60.2321,-0.208283,43.288,-22.3832,-2.01431,8.90278,-4.02844,-9.05071,-0.037934,-0.0275977,0.000112039,0.00634031,-0.0462294,0.00178098,1.46949,0.896844,0.924578,0.924578,0,0
9.20536,124.577,-61.3496,-0.206387,43.6976,-22.5816,-2.03099,8.91157,-4.02927,-9.05043,-0.0379384,-0.0275939,0.000115115,0.00634031,-0.0462294,0.00178098,1.47206,0.897174,0.928263,0.928263,0,0
9.25566,126.758,-62.4778,-0.211415,44.1094,-22.7829,-2.07232,8.9352,-4.01203,-9.09549,-0.0379423,-0.0275905,0.000117946,0.00634031,-0.0462294,0.00178098,1.47462,0.8975,0.931951,0.931951,0,0
9.30597,128.961,-63.6176,-0.216087,44.519,-22.9868,-2.10335,8.92241,-3.99174,-9.1048,-0.0379454,-0.0275878,0.00012053,0.00634031,-0.0462294,0.00178098,1.47717,0.897815,0.935634,0.935634,0,0
9.35628,131.184,-64.7673,-0.223179,44.9307,-23.1891,-2.13557,8.9312,-3.99254,-9.10445,-0.0379484,-0.0275852,0.000123003,0.00634031,-0.0462294,0.00178098,1.47974,0.898114,0.939336,0.939336,0,0
9.4066,133.429,-65.9262,-0.231949,45.3453,-23.388,-2.16851,8.95478,-3.97316,-9.13547,-0.0379521,-0.027582,0.000125645,0.00634031,-0.0462294,0.00178098,1.48232,0.898401,0.943035,0.943035,0,0
9.4569,135.693,-67.0956,-0.238842,45.7579,-23.589,-2.18791,8.95031,-3.95828,-9.14415,-0.0379559,-0.0275787,0.000128359,0.00634031,-0.0462294,0.00178098,1.48489,0.898691,0.946735,0.946735,0,0
9.50721,137.979,-68.2767,-0.247102,46.1698,-23.7929,-2.20862,8.9531,-3.9333,-9.16843,-0.0379589,-0.0275762,0.000130772,0.00634031,-0.0462294,0.00178098,1.48748,0.898982,0.950444,0.950444,0,0
9.55752,140.285,-69.4681,-0.253249,46.5824,-23.995,-2.21556,8.96451,-3.91183,-9.17824,-0.0379617,-0.0275737,0.000133117,0.00634031,-0.0462294,0.00178098,1.49005,0.899262,0.954149,0.954149,0,0
9.60784,142.612,-70.6685,-0.257397,46.9968,-24.1942,-2.21323,8.97665,-3.90921,-9.19986,-0.0379654,-0.0275706,0.000135692,0.00634031,-0.0462294,0.00178098,1.49262,0.89953,0.957849,0.957849,0,0
9.65814,144.96,-71.8791,-0.259824,47.4104,-24.3946,-2.20515,8.97562,-3.88923,-9.2162,-0.0379693,-0.0275673,0.000138355,0.00634031,-0.0462294,0.00178098,1.49522,0.899808,0.961572,0.961572,0,0
9.70845,147.328,-73.1016,-0.26096,47.8226,-24.5996,-2.19229,8.97591,-3.88469,-9.21658,-0.0379724,-0.0275647,0.000140758,0.00634031,-0.0462294,0.00178098,1.49781,0.900075,0.965292,0.965292,0,0
9.75876,149.717,-74.3346,-0.264152,48.2378,-24.8041,-2.18908,9.00007,-3.88206,-9.24566,-0.0379749,-0.0275626,0.000142934,0.00634031,-0.0462294,0.00178098,1.50041,0.900336,0.969006,0.969006,0,0
9.80896,152.122,-75.5737,-0.265736,48.6533,-25.0046,-2.18082,8.99469,-3.87071,-9.28237,-0.0379783,-0.0275597,0.000145299,0.00634031,-0.0462294,0.00178098,1.50301,0.900586,0.972722,0.972722,0,0
9.85914,154.547,-76.8227,-0.266231,49.0695,-25.2053,-2.16962,9.00962,-3.84229,-9.28597,-0.037982,-0.0275566,0.000147783,0.00634031,-0.0462294,0.00178098,1.5056,0.90083,0.976447,0.976447,0,0
9.90933,156.993,-78.0837,-0.265957,49.4851,-25.4097,-2.15685,9.02072,-3.82051,-9.29568,-0.037985,-0.0275541,0.000150029,0.00634031,-0.0462294,0.00178098,1.5082,0.901057,0.980169,0.980169,0,0
9.95964,159.467,-79.3584,-0.26524,49.9035,-25.6153,-2.1434,9.04116,-3.82284,-9.31707,-0.0379875,-0.0275521,0.000152074,0.00634031,-0.0462294,0.00178098,1.51081,0.901284,0.983901,0.983901,0,0
10.01,161.962,-80.642,-0.263878,50.3232,-25.8159,-2.12934,9.02642,-3.7857,-9.32805,-0.0379906,-0.0275495,0.000154273,0.00634031,-0.0462294,0.00178098,1.51343,0.901509,0.987635,0.987635,0,0
10.0603,164.477,-81.9354,-0.2621,50.7441,-26.0169,-2.11677,9.04206,-3.77595,-9.34371,-0.0379943,-0.0275465,0.000156608,0.00634031,-0.0462294,0.00178098,1.51605,0.901734,0.991377,0.991377,0,0
10.1106,167.013,-83.2408,-0.260165,51.1633,-26.2219,-2.10534,9.02512,-3.76119,-9.34477,-0.0379972,-0.0275441,0.00015872,0.00634031,-0.0462294,0.00178098,1.51867,0.901938,0.995124,0.995124,0,0
10.1609,169.571,-84.5572,-0.258212,51.585,-26.4264,-2.09565,9.06329,-3.73398,-9.37746,-0.0379994,-0.0275422,0.000160597,0.00634031,-0.0462294,0.00178098,1.52128,0.902145,0.998864,0.998864,0,0
10.2112,172.151,-85.8825,-0.256237,52.0084,-26.6283,-2.08622,9.05633,-3.74143,-9.37609,-0.0380023,-0.0275399,0.000162596,0.00634031,-0.0462294,0.00178098,1.52391,0.902362,1.00262,1.00262,0,0
10.2615,174.752,-87.2174,-0.254229,52.4329,-26.8296,-2.07933,9.06662,-3.72116,-9.40002,-0.0380057,-0.0275371,0.000164753,0.00634031,-0.0462294,0.00178098,1.52655,0.902554,1.00638,1.00638,0,0
10.3117,177.367,-88.561,-0.252238,52.8553,-27.0342,-2.07434,9.06104,-3.70792,-9.42259,-0.0380084,-0.0275349,0.000166716,0.00634031,-0.0462294,0.00178098,1.52916,0.902738,1.01012,1.01012,0,0
10.3619,180.005,-89.9157,-0.25051,53.2777,-27.2388,-2.07048,9.05058,-3.68279,-9.43905,-0.0380104,-0.0275333,0.000168436,0.00634031,-0.0462294,0.00178098,1.53177,0.902925,1.01385,1.01385,0,0
10.4121,182.664,-91.2794,-0.248965,53.7036,-27.4399,-2.06731,9.08167,-3.66575,-9.45611,-0.0380128,-0.0275313,0.000170254,0.00634031,-0.0462294,0.00178098,1.53438,0.903097,1.01758,1.01758,0,0
10.4623,185.344,-92.6527,-0.247532,54.1317,-27.6406,-2.06573,9.10886,-3.65553,-9.4794,-0.0380159,-0.0275289,0.000172243,0.00634031,-0.0462294,0.00178098,1.53701,0.903272,1.02132,1.02132,0,0
10.5125,188.045,-94.0376,-0.246265,54.5591,-27.845,-2.06397,9.11279,-3.64418,-9.47354,-0.0380183,-0.027527,0.000174067,0.00634031,-0.0462294,0.00178098,1.53963,0.903437,1.02506,1.02506,0,0
10.5628,190.775,-95.4371,-0.24525,54.9876,-28.051,-2.06341,9.10633,-3.63251,-9.50991,-0.03802,-0.0275256,0.000175646,0.00634031,-0.0462294,0.00178098,1.54224,0.903587,1.0288,1.0288,0,0
10.6131,193.527,-96.8458,-0.244214,55.4181,-28.2539,-2.06166,9.10966,-3.6227,-9.51795,-0.0380222,-0.0275239,0.000177314,0.00634031,-0.0462294,0.00178098,1.54486,0.903758,1.03255,1.03255,0,0
10.6634,196.3,-98.2639,-0.24311,55.8498,-28.4559,-2.05962,9.11684,-3.60588,-9.51986,-0.0380251,-0.0275216,0.000179169,0.00634031,-0.0462294,0.00178098,1.5475,0.903902,1.03631,1.03631,0,0
10.7137,199.095,-99.6937,-0.242012,56.2806,-28.6607,-2.05869,9.11778,-3.58043,-9.54391,-0.0380274,-0.0275198,0.00018088,0.00634031,-0.0462294,0.00178098,1.55013,0.904042,1.04008,1.04008,0,0
10.764,201.911,-101.135,-0.241017,56.7121,-28.8666,-2.05743,9.12423,-3.56512,-9.55986,-0.038029,-0.0275185,0.000182342,0.00634031,-0.0462294,0.00178098,1.55276,0.904177,1.04383,1.04383,0,0
10.8143,204.75,-102.585,-0.240035,57.1459,-29.069,-2.05614,9.1337,-3.54453,-9.58362,-0.0380311,-0.027517,0.000183883,0.00634031,-0.0462294,0.00178098,1.55538,0.904305,1.04757,1.04757,0,0
10.8647,207.611,-104.045,-0.239033,57.5813,-29.2708,-2.05534,9.14871,-3.53417,-9.59939,-0.0380337,-0.0275148,0.000185617,0.00634031,-0.0462294,0.00178098,1.55802,0.904423,1.05134,1.05134,0,0
10.915,210.493,-105.517,-0.238099,58.0161,-29.4762,-2.05544,9.15117,-3.52573,-9.62157,-0.0380359,-0.0275131,0.00018722,0.00634031,-0.0462294,0.00178098,1.56066,0.904539,1.05511,1.05511,0,0
10.9653,213.397,-107,-0.237267,58.4517,-29.6824,-2.05467,9.16116,-3.50352,-9.63144,-0.0380374,-0.0275121,0.000188572,0.00634031,-0.0462294,0.00178098,1.56331,0.904653,1.05887,1.05887,0,0
11.0156,216.324,-108.492,-0.236412,58.8891,-29.8855,-2.05466,9.15702,-3.48641,-9.67562,-0.0380393,-0.0275106,0.000190001,0.00634031,-0.0462294,0.00178098,1.56596,0.904758,1.06264,1.06264,0,0
11.0659,219.273,-109.993,-0.235545,59.3275,-30.0878,-2.05315,9.16165,-3.47339,-9.65565,-0.0380418,-0.0275087,0.000191629,0.00634031,-0.0462294,0.00178098,1.5686,0.904856,1.06641,1.06641,0,0
11.1162,222.243,-111.507,-0.234686,59.7665,-30.2927,-2.05262,9.18624,-3.4451,-9.68118,-0.0380439,-0.0275071,0.000193131,0.00634031,-0.0462294,0.00178098,1.57124,0.904947,1.07018,1.07018,0,0
11.1665,225.236,-113.031,-0.233886,60.2052,-30.4994,-2.05109,9.17375,-3.44257,-9.68758,-0.0380452,-0.0275061,0.000194387,0.00634031,-0.0462294,0.00178098,1.57389,0.905033,1.07396,1.07396,0,0
11.2168,228.251,-114.565,-0.233056,60.6464,-30.7032,-2.0489,9.18852,-3.43189,-9.70362,-0.0380469,-0.0275048,0.000195721,0.00634031,-0.0462294,0.00178098,1.57654,0.905112,1.07773,1.07773,0,0
11.2672,231.289,-116.109,-0.232138,61.0887,-30.9062,-2.04785,9.19362,-3.41784,-9.73365,-0.0380493,-0.027503,0.000197255,0.00634031,-0.0462294,0.00178098,1.5792,0.905171,1.08151,1.08151,0,0
11.3173,234.341,-117.66,-0.231122,61.5292,-31.1118,-2.04697,9.19067,-3.39761,-9.74962,-0.0380513,-0.0275015,0.00019866,0.00634031,-0.0462294,0.00178098,1.58185,0.905231,1.08528,1.08528,0,0
11.3675,237.415,-119.223,-0.230268,61.9713,-31.318,-2.04605,9.21191,-3.37455,-9.76735,-0.0380525,-0.0275007,0.000199825,0.00634031,-0.0462294,0.00178098,1.58447,0.905296,1.08902,1.08902,0,0
11.4177,240.513,-120.795,-0.229453,62.4149,-31.522,-2.04419,9.20813,-3.37693,-9.77362,-0.0380541,-0.0274995,0.000201079,0.00634031,-0.0462294,0.00178098,1.5871,0.905351,1.09278,1.09278,0,0
11.468,243.64,-122.38,-0.228707,62.8608,-31.7255,-2.04368,9.2167,-3.35593,-9.79737,-0.0380564,-0.0274977,0.000202532,0.00634031,-0.0462294,0.00178098,1.58974,0.9054,1.09655,1.09655,0,0
11.5184,246.788,-123.977,-0.227942,63.3071,-31.9322,-2.04299,9.23497,-3.33809,-9.80721,-0.0380582,-0.0274964,0.000203852,0.00634031,-0.0462294,0.00178098,1.59238,0.905438,1.10031,1.10031,0,0
11.5687,249.96,-125.586,-0.227174,63.753,-32.1395,-2.042,9.21914,-3.32006,-9.82904,-0.0380594,-0.0274956,0.00020494,0.00634031,-0.0462294,0.00178098,1.59503,0.905474,1.10408,1.10408,0,0
11.619,253.155,-127.204,-0.226391,64.2021,-32.3439,-2.04008,9.24612,-3.30694,-9.83912,-0.038061,-0.0274945,0.000206128,0.00634031,-0.0462294,0.00178098,1.59767,0.905504,1.10785,1.10785,0,0
11.6693,256.372,-128.831,-0.225522,64.6522,-32.548,-2.03936,9.25065,-3.29266,-9.8691,-0.0380632,-0.0274928,0.000207506,0.00634031,-0.0462294,0.00178098,1.60032,0.905527,1.11163,1.11163,0,0
11.7196,259.611,-130.47,-0.224694,65.1017,-32.7548,-2.03781,9.24927,-3.26955,-9.85684,-0.038065,-0.0274915,0.000208735,0.00634031,-0.0462294,0.00178098,1.60298,0.905541,1.1154,1.1154,0,0
11.7699,262.874,-132.12,-0.230685,65.553,-32.9593,-2.06645,9.25635,-3.2498,-9.89474,-0.038066,-0.0274909,0.000209682,0.00634031,-0.0462294,0.00178098,1.60563,0.905552,1.11917,1.11917,0,0
11.8202,266.16,-133.78,-0.23197,66.0052,-33.1639,-2.06777,9.25526,-3.24656,-9.90896,-0.0380676,-0.0274898,0.000210805,0.00634031,-0.0462294,0.00178098,1.60829,0.905557,1.12296,1.12296,0,0
11.8705,269.468,-135.449,-0.232583,66.4573,-33.368,-2.06589,9.24388,-3.22029,-9.9105,-0.0380697,-0.0274882,0.000212114,0.00634031,-0.0462294,0.00178098,1.61093,0.905561,1.12672,1.12672,0,0
11.9207,272.791,-137.126,-0.239425,66.9095,-33.5722,-2.09227,9.26067,-3.20363,-9.93449,-0.0380712,-0.0274871,0.000213193,0.00634031,-0.0462294,0.00178098,1.61357,0.905564,1.13049,1.13049,0,0
11.9709,276.137,-138.813,-0.248092,67.3625,-33.7765,-2.11962,9.26324,-3.19349,-9.94248,-0.0380721,-0.0274866,0.000214079,0.00634031,-0.0462294,0.00178098,1.61622,0.905547,1.13425,1.13425,0,0
12.0211,279.507,-140.51,-0.257928,67.8172,-33.9785,-2.14669,9.26355,-3.18603,-9.97858,-0.0380735,-0.0274856,0.000215103,0.00634031,-0.0462294,0.00178098,1.61887,0.905542,1.13803,1.13803,0,0
12.0713,282.898,-142.217,-0.261656,68.2726,-34.1832,-2.14008,9.28615,-3.15964,-9.96847,-0.0380755,-0.0274842,0.00021636,0.00634031,-0.0462294,0.00178098,1.62151,0.905518,1.14178,1.14178,0,0
12.1215,286.312,-143.937,-0.260277,68.7274,-34.3932,-2.11311,9.29003,-3.14527,-9.99839,-0.0380768,-0.0274833,0.000217473,0.00634031,-0.0462294,0.00178098,1.62415,0.905487,1.14554,1.14554,0,0
12.1718,289.758,-145.672,-0.258415,69.1839,-34.6033,-2.08875,9.27982,-3.13755,-10.0122,-0.0380776,-0.0274828,0.000218395,0.00634031,-0.0462294,0.00178098,1.6268,0.905445,1.14932,1.14932,0,0
12.2221,293.227,-147.416,-0.252652,69.6422,-34.8115,-2.05259,9.28735,-3.11601,-10.036,-0.0380791,-0.0274818,0.000219518,0.00634031,-0.0462294,0.00178098,1.62944,0.905406,1.15308,1.15308,0,0
12.2724,296.719,-149.17,-0.247395,70.1013,-35.0194,-2.02669,9.29347,-3.09888,-10.0378,-0.038081,-0.0274804,0.000220762,0.00634031,-0.0462294,0.00178098,1.63208,0.905356,1.15685,1.15685,0,0
12.3228,300.233,-150.937,-0.239442,70.5605,-35.2308,-1.99498,9.30082,-3.07738,-10.0615,-0.0380822,-0.0274797,0.000221797,0.00634031,-0.0462294,0.00178098,1.63473,0.9053,1.16062,1.16062,0,0
12.3731,303.772,-152.714,-0.23301,71.0213,-35.4407,-1.976,9.30838,-3.07854,-10.0761,-0.0380829,-0.0274793,0.000222655,0.00634031,-0.0462294,0.00178098,1.63738,0.905228,1.16439,1.16439,0,0
12.4234,307.334,-154.5,-0.227926,71.4839,-35.6464,-1.96688,9.30791,-3.0513,-10.0855,-0.0380843,-0.0274783,0.000223695,0.00634031,-0.0462294,0.00178098,1.64004,0.905144,1.16816,1.16816,0,0
12.4737,310.919,-156.297,-0.22407,71.9467,-35.8529,-1.96628,9.30889,-3.04238,-10.1076,-0.038086,-0.0274771,0.000224819,0.00634031,-0.0462294,0.00178098,1.64267,0.905078,1.17192,1.17192,0,0
12.524,314.526,-158.105,-0.221353,72.4096,-36.0608,-1.97167,9.30939,-3.01067,-10.1387,-0.0380869,-0.0274766,0.000225703,0.00634031,-0.0462294,0.00178098,1.64533,0.905007,1.1757,1.1757,0,0
12.5743,318.158,-159.925,-0.216114,72.8739,-36.2697,-1.9624,9.31581,-3.01617,-10.1315,-0.0380876,-0.0274762,0.000226507,0.00634031,-0.0462294,0.00178098,1.64796,0.904922,1.17946,1.17946,0,0
12.6246,321.814,-161.753,-0.212153,73.3398,-36.4746,-1.96116,9.31747,-2.98321,-10.1485,-0.0380891,-0.0274752,0.000227516,0.00634031,-0.0462294,0.00178098,1.65059,0.904825,1.1832,1.1832,0,0
12.6749,325.493,-163.591,-0.209322,73.8056,-36.6814,-1.96587,9.31592,-2.98,-10.1626,-0.0380906,-0.0274741,0.000228568,0.00634031,-0.0462294,0.00178098,1.65322,0.904726,1.18696,1.18696,0,0
12.7253,329.195,-165.443,-0.207476,74.272,-36.8894,-1.9745,9.32502,-2.9526,-10.1941,-0.0380913,-0.0274738,0.000229373,0.00634031,-0.0462294,0.00178098,1.65588,0.90462,1.19072,1.19072,0,0
12.7756,332.921,-167.303,-0.213395,74.7406,-37.092,-2.01551,9.33838,-2.941,-10.2105,-0.0380919,-0.0274735,0.000230081,0.00634031,-0.0462294,0.00178098,1.65851,0.904509,1.19447,1.19447,0,0
12.8258,336.662,-169.167,-0.218222,75.2088,-37.2932,-2.04236,9.32839,-2.90943,-10.2191,-0.0380933,-0.0274725,0.000231025,0.00634031,-0.0462294,0.00178098,1.66115,0.904387,1.19823,1.19823,0,0
12.876,340.426,-171.043,-0.225615,75.6784,-37.4968,-2.07474,9.35747,-2.91202,-10.2287,-0.0380946,-0.0274717,0.000231959,0.00634031,-0.0462294,0.00178098,1.66378,0.904262,1.20199,1.20199,0,0
12.9261,344.213,-172.931,-0.234843,76.1481,-37.7014,-2.10805,9.35494,-2.88589,-10.2519,-0.0380951,-0.0274714,0.000232656,0.00634031,-0.0462294,0.00178098,1.66641,0.904138,1.20574,1.20574,0,0
12.9765,348.034,-174.832,-0.245384,76.6205,-37.9048,-2.1385,9.35693,-2.87555,-10.2598,-0.0380958,-0.0274711,0.000233369,0.00634031,-0.0462294,0.00178098,1.66904,0.904007,1.2095,1.2095,0,0
13.0268,351.879,-176.743,-0.25648,77.0944,-38.1082,-2.1651,9.36646,-2.8706,-10.2823,-0.0380973,-0.0274701,0.000234303,0.00634031,-0.0462294,0.00178098,1.67167,0.903871,1.21326,1.21326,0,0
13.0771,355.748,-178.665,-0.267827,77.5683,-38.3137,-2.18741,9.3674,-2.83742,-10.2992,-0.0380985,-0.0274693,0.000235184,0.00634031,-0.0462294,0.00178098,1.6743,0.903728,1.21701,1.21701,0,0
13.1274,359.64,-180.599,-0.282808,78.043,-38.5196,-2.22057,9.37465,-2.8383,-10.314,-0.038099,-0.0274691,0.000235819,0.00634031,-0.0462294,0.00178098,1.67692,0.903575,1.22074,1.22074,0,0
13.1777,363.557,-182.542,-0.293335,78.5187,-38.7261,-2.22452,9.36208,-2.81267,-10.3144,-0.0380999,-0.0274686,0.000236564,0.00634031,-0.0462294,0.00178098,1.67955,0.90342,1.22449,1.22449,0,0
13.228,367.498,-184.496,-0.303579,78.9956,-38.9321,-2.22731,9.36815,-2.79073,-10.3381,-0.0381015,-0.0274675,0.000237517,0.00634031,-0.0462294,0.00178098,1.68218,0.90325,1.22824,1.22824,0,0
13.2783,371.462,-186.462,-0.31011,79.4737,-39.1437,-2.21264,9.39019,-2.78286,-10.3552,-0.0381027,-0.0274668,0.000238369,0.00634031,-0.0462294,0.00178098,1.68478,0.903072,1.23199,1.23199,0,0
13.3286,375.451,-188.44,-0.313682,79.9529,-39.3569,-2.18689,9.39408,-2.76654,-10.3709,-0.0381032,-0.0274666,0.000239019,0.00634031,-0.0462294,0.00178098,1.6874,0.902894,1.23572,1.23572,0,0
13.379,379.464,-190.427,-0.314917,80.4337,-39.5676,-2.15636,9.39085,-2.74033,-10.3938,-0.0381043,-0.0274659,0.000239823,0.00634031,-0.0462294,0.00178098,1.69001,0.902714,1.23947,1.23947,0,0
13.4293,383.502,-192.424,-0.314504,80.9152,-39.7791,-2.12558,9.3926,-2.72985,-10.4017,-0.038106,-0.0274648,0.000240803,0.00634031,-0.0462294,0.00178098,1.69262,0.902529,1.24321,1.24321,0,0
13.4795,387.553,-194.43,-0.309379,81.3959,-39.9954,-2.08064,9.39264,-2.72058,-10.4236,-0.038107,-0.0274642,0.000241601,0.00634031,-0.0462294,0.00178098,1.69525,0.902328,1.24695,1.24695,0,0
13.5297,391.63,-196.447,-0.304515,81.8778,-40.2092,-2.04692,9.39824,-2.69853,-10.4472,-0.0381075,-0.0274641,0.00024222,0.00634031,-0.0462294,0.00178098,1.69788,0.902125,1.25068,1.25068,0,0
13.5798,395.731,-198.472,-0.300114,82.3615,-40.4188,-2.02281,9.40543,-2.67537,-10.4569,-0.0381087,-0.0274633,0.000243034,0.00634031,-0.0462294,0.00178098,1.7005,0.901917,1.25441,1.25441,0,0
13.63,399.856,-200.508,-0.296339,82.8458,-40.6291,-2.00748,9.41612,-2.66906,-10.4656,-0.0381102,-0.0274623,0.000243938,0.00634031,-0.0462294,0.00178098,1.7031,0.901708,1.25812,1.25812,0,0
13.6802,404.005,-202.557,-0.293281,83.3305,-40.8409,-1.99889,9.4196,-2.65283,-10.4813,-0.0381108,-0.027462,0.000244594,0.00634031,-0.0462294,0.00178098,1.70571,0.901492,1.26186,1.26186,0,0
13.7305,408.189,-204.62,-0.290984,83.8179,-41.0501,-1.99514,9.42858,-2.6236,-10.4988,-0.0381114,-0.0274619,0.000245171,0.00634031,-0.0462294,0.00178098,1.70833,0.901261,1.26559,1.26559,0,0
13.7809,412.397,-206.692,-0.289131,84.3066,-41.2574,-1.99491,9.4283,-2.61426,-10.5208,-0.0381127,-0.027461,0.000245976,0.00634031,-0.0462294,0.00178098,1.71093,0.901028,1.26931,1.26931,0,0
13.8312,416.63,-208.775,-0.287735,84.7953,-41.4672,-1.99752,9.42614,-2.6108,-10.5348,-0.038114,-0.0274602,0.000246791,0.00634031,-0.0462294,0.00178098,1.71354,0.900789,1.27304,1.27304,0,0
13.8815,420.888,-210.871,-0.286767,85.285,-41.6777,-2.00133,9.4349,-2.58148,-10.5522,-0.0381144,-0.0274601,0.000247357,0.00634031,-0.0462294,0.00178098,1.71615,0.900543,1.27678,1.27678,0,0
13.9318,425.171,-212.977,-0.286081,85.7755,-41.8864,-2.005,9.42358,-2.57392,-10.5654,-0.0381151,-0.0274598,0.000247944,0.00634031,-0.0462294,0.00178098,1.71876,0.9003,1.28052,1.28052,0,0
13.9821,429.478,-215.091,-0.285556,86.2676,-42.0945,-2.0098,9.43409,-2.56243,-10.5961,-0.0381165,-0.0274588,0.000248759,0.00634031,-0.0462294,0.00178098,1.72137,0.900052,1.28425,1.28425,0,0
14.0324,433.81,-217.217,-0.285221,86.7603,-42.3048,-2.0139,9.44272,-2.5379,-10.5917,-0.0381176,-0.0274582,0.000249495,0.00634031,-0.0462294,0.00178098,1.72398,0.899785,1.28798,1.28798,0,0
14.0827,438.167,-219.356,-0.284999,87.254,-42.5157,-2.01701,9.4458,-2.52144,-10.6075,-0.0381179,-0.0274582,0.000250007,0.00634031,-0.0462294,0.00178098,1.72655,0.899522,1.29168,1.29168,0,0
14.1329,442.539,-221.499,-0.284643,87.748,-42.723,-2.01938,9.44312,-2.48914,-10.6378,-0.0381187,-0.0274578,0.000250634,0.00634031,-0.0462294,0.00178098,1.72914,0.899252,1.29538,1.29538,0,0
14.1832,446.946,-223.655,-0.284455,88.2436,-42.932,-2.02208,9.43905,-2.49167,-10.644,-0.0381201,-0.0274568,0.00025145,0.00634031,-0.0462294,0.00178098,1.73171,0.898973,1.29908,1.29908,0,0
14.2336,451.378,-225.826,-0.284274,88.7403,-43.1436,-2.02484,9.45283,-2.47307,-10.6684,-0.0381209,-0.0274565,0.0002521,0.00634031,-0.0462294,0.00178098,1.7343,0.898681,1.30279,1.30279,0,0
14.2839,455.836,-228.007,-0.284086,89.2377,-43.3549,-2.02586,9.44489,-2.45867,-10.6752,-0.0381211,-0.0274565,0.000252587,0.00634031,-0.0462294,0.00178098,1.73689,0.898382,1.3065,1.3065,0,0
14.3341,460.308,-230.192,-0.283687,89.7362,-43.5631,-2.02578,9.46215,-2.43292,-10.6937,-0.0381221,-0.027456,0.000253269,0.00634031,-0.0462294,0.00178098,1.73949,0.898086,1.31022,1.31022,0,0
14.3842,464.804,-232.387,-0.283295,90.2355,-43.7735,-2.02631,9.46887,-2.43322,-10.7088,-0.0381234,-0.0274552,0.000254054,0.00634031,-0.0462294,0.00178098,1.74205,0.897778,1.31391,1.31391,0,0
14.4344,469.326,-234.596,-0.282955,90.7356,-43.9857,-2.02649,9.47524,-2.40958,-10.7183,-0.0381238,-0.0274551,0.000254607,0.00634031,-0.0462294,0.00178098,1.74463,0.89747,1.31762,1.31762,0,0
14.4848,473.885,-236.82,-0.2827,91.2383,-44.1968,-2.02692,9.4759,-2.3939,-10.7479,-0.0381242,-0.027455,0.000255096,0.00634031,-0.0462294,0.00178098,1.74722,0.897156,1.32133,1.32133,0,0
14.5351,478.468,-239.051,-0.289664,91.7406,-44.4006,-2.06246,9.47853,-2.37721,-10.7637,-0.0381253,-0.0274543,0.000255771,0.00634031,-0.0462294,0.00178098,1.74979,0.896839,1.32502,1.32502,0,0
14.5854,483.076,-241.293,-0.298678,92.2422,-44.606,-2.09973,9.46117,-2.35913,-10.7693,-0.0381263,-0.0274537,0.000256434,0.00634031,-0.0462294,0.00178098,1.75236,0.896515,1.32872,1.32872,0,0
14.6357,487.711,-243.55,-0.30174,92.7471,-44.8193,-2.09891,9.47293,-2.34617,-10.7861,-0.0381266,-0.0274538,0.000256901,0.00634031,-0.0462294,0.00178098,1.75491,0.896171,1.33241,1.33241,0,0
14.686,492.371,-245.816,-0.307171,93.2535,-45.0282,-2.10978,9.48612,-2.32709,-10.8106,-0.0381272,-0.0274536,0.000257414,0.00634031,-0.0462294,0.00178098,1.75745,0.895831,1.33608,1.33608,0,0
14.7363,497.056,-248.089,-0.314431,93.7601,-45.2355,-2.12761,9.47935,-2.30666,-10.8249,-0.0381284,-0.0274528,0.000258133,0.00634031,-0.0462294,0.00178098,1.76002,0.895478,1.33977,1.33977,0,0
14.7866,501.767,-250.376,-0.32313,94.2673,-45.444,-2.14875,9.48674,-2.27677,-10.8423,-0.0381292,-0.0274524,0.000258727,0.00634031,-0.0462294,0.00178098,1.76257,0.89513,1.34346,1.34346,0,0
14.8369,506.504,-252.675,-0.33288,94.776,-45.653,-2.16888,9.49685,-2.2698,-10.8513,-0.0381293,-0.0274525,0.000259131,0.00634031,-0.0462294,0.00178098,1.76513,0.89477,1.34715,1.34715,0,0
14.8873,511.267,-254.982,-0.339458,95.2867,-45.8642,-2.1687,9.48135,-2.26947,-10.8702,-0.0381302,-0.0274521,0.00025972,0.00634031,-0.0462294,0.00178098,1.76768,0.894399,1.35084,1.35084,0,0
14.9376,516.055,-257.3,-0.347107,95.7974,-46.0747,-2.17441,9.47795,-2.24194,-10.8784,-0.0381314,-0.0274513,0.000260444,0.00634031,-0.0462294,0.00178098,1.77022,0.894027,1.35452,1.35452,0,0
14.9879,520.868,-259.631,-0.351955,96.3095,-46.2891,-2.16582,9.47718,-2.20219,-10.9022,-0.0381318,-0.0274512,0.00026097,0.00634031,-0.0462294,0.00178098,1.77276,0.893651,1.35818,1.35818,0,0
15.0382,525.71,-261.974,-0.354613,96.8241,-46.5042,-2.14761,9.48719,-2.19513,-10.9112,-0.0381321,-0.0274513,0.000261415,0.00634031,-0.0462294,0.00178098,1.7753,0.893265,1.36185,1.36185,0,0
15.0884,530.565,-264.319,-0.355411,97.3394,-46.7188,-2.12507,9.49362,-2.19512,-10.9263,-0.0381331,-0.0274507,0.00026211,0.00634031,-0.0462294,0.00178098,1.77783,0.892879,1.36549,1.36549,0,0
15.1386,535.445,-266.678,-0.351344,97.8566,-46.9383,-2.08501,9.50047,-2.16523,-10.9435,-0.0381341,-0.0274502,0.000262846,0.00634031,-0.0462294,0.00178098,1.78035,0.892478,1.36913,1.36913,0,0
15.1888,540.352,-269.05,-0.343703,98.3753,-47.1608,-2.03679,9.50241,-2.1485,-10.959,-0.0381342,-0.0274504,0.000263325,0.00634031,-0.0462294,0.00178098,1.78288,0.892082,1.37279,1.37279,0,0
15.239,545.286,-271.432,-0.333522,98.8955,-47.382,-1.98677,9.49828,-2.15099,-10.9651,-0.0381347,-0.0274503,0.000263855,0.00634031,-0.0462294,0.00178098,1.7854,0.891688,1.37643,1.37643,0,0
15.2892,550.246,-273.821,-0.329103,99.4135,-47.5939,-1.97884,9.49687,-2.11138,-10.9887,-0.0381358,-0.0274496,0.000264572,0.00634031,-0.0462294,0.00178098,1.78791,0.89129,1.38006,1.38006,0,0
15.3395,555.242,-276.229,-0.326052,99.9326,-47.8073,-1.98091,9.4963,-2.09547,-11.0181,-0.0381364,-0.0274494,0.000265154,0.00634031,-0.0462294,0.00178098,1.79043,0.890884,1.38371,1.38371,0,0
15.3898,560.265,-278.649,-0.320313,100.454,-48.024,-1.96781,9.50496,-2.09443,-11.0194,-0.0381364,-0.0274497,0.000265548,0.00634031,-0.0462294,0.00178098,1.79296,0.890456,1.38736,1.38736,0,0
15.4401,565.316,-281.077,-0.319876,100.975,-48.2322,-1.98478,9.49855,-2.06785,-11.0413,-0.0381371,-0.0274494,0.00026609,0.00634031,-0.0462294,0.00178098,1.79547,0.890028,1.391,1.391,0,0
15.4904,570.391,-283.516,-0.316196,101.499,-48.4451,-1.98243,9.52342,-2.04462,-11.0613,-0.0381382,-0.0274488,0.000266784,0.00634031,-0.0462294,0.00178098,1.79797,0.889594,1.39463,1.39463,0,0
15.5407,575.493,-285.967,-0.317476,102.021,-48.6557,-2.00531,9.52035,-2.04092,-11.0751,-0.0381384,-0.0274488,0.000267225,0.00634031,-0.0462294,0.00178098,1.80047,0.889154,1.39827,1.39827,0,0
15.591,580.622,-288.43,-0.315087,102.548,-48.8698,-2.00354,9.5312,-2.0273,-11.092,-0.0381385,-0.027449,0.000267611,0.00634031,-0.0462294,0.00178098,1.80296,0.888715,1.40188,1.40188,0,0
15.6413,585.779,-290.902,-0.309563,103.076,-49.0859,-1.98686,9.50951,-2.01688,-11.103,-0.0381396,-0.0274484,0.000268249,0.00634031,-0.0462294,0.00178098,1.80545,0.888266,1.40549,1.40549,0,0
15.6917,590.961,-293.386,-0.301649,103.605,-49.3049,-1.96382,9.51658,-1.98048,-11.1278,-0.0381405,-0.0274479,0.000268875,0.00634031,-0.0462294,0.00178098,1.80795,0.887809,1.40912,1.40912,0,0
15.7418,596.157,-295.877,-0.295802,104.133,-49.5213,-1.95622,9.51694,-1.96969,-11.1355,-0.0381406,-0.0274481,0.000269236,0.00634031,-0.0462294,0.00178098,1.81042,0.887349,1.41271,1.41271,0,0
15.792,601.381,-298.377,-0.291819,104.661,-49.7331,-1.9592,9.50798,-1.95564,-11.1416,-0.0381411,-0.027448,0.000269678,0.00634031,-0.0462294,0.00178098,1.81289,0.886882,1.41631,1.41631,0,0
15.8424,606.644,-300.892,-0.285601,105.192,-49.9481,-1.95104,9.5093,-1.93866,-11.1569,-0.0381423,-0.0274473,0.000270339,0.00634031,-0.0462294,0.00178098,1.81535,0.886418,1.41989,1.41989,0,0
15.8925,611.92,-303.415,-0.281242,105.721,-50.162,-1.95376,9.51663,-1.91395,-11.1522,-0.0381428,-0.0274471,0.000270824,0.00634031,-0.0462294,0.00178098,1.81783,0.885935,1.42349,1.42349,0,0
15.9427,617.223,-305.948,-0.278543,106.252,-50.3738,-1.96432,9.52456,-1.90111,-11.183,-0.0381428,-0.0274474,0.000271154,0.00634031,-0.0462294,0.00178098,1.82029,0.885456,1.42708,1.42708,0,0
15.993,622.566,-308.495,-0.277141,106.784,-50.5833,-1.97962,9.5231,-1.88491,-11.2122,-0.0381436,-0.027447,0.000271692,0.00634031,-0.0462294,0.00178098,1.82275,0.884966,1.43068,1.43068,0,0
16.0434,627.935,-311.054,-0.276573,107.318,-50.7946,-1.99614,9.53351,-1.87111,-11.2292,-0.0381446,-0.0274465,0.000272302,0.00634031,-0.0462294,0.00178098,1.82521,0.88447,1.43427,1.43427,0,0
16.0937,633.332,-313.627,-0.272777,107.854,-51.011,-1.99226,9.5296,-1.83741,-11.2446,-0.0381447,-0.0274467,0.000272684,0.00634031,-0.0462294,0.00178098,1.82766,0.883965,1.43784,1.43784,0,0
16.144,638.757,-316.209,-0.270164,108.392,-51.2243,-1.99451,9.53904,-1.82986,-11.2537,-0.0381449,-0.0274467,0.000273071,0.00634031,-0.0462294,0.00178098,1.83011,0.883452,1.44143,1.44143,0,0
16.1943,644.207,-318.799,-0.268433,108.93,-51.4365,-2.00164,9.53647,-1.81978,-11.2752,-0.038146,-0.0274461,0.000273689,0.00634031,-0.0462294,0.00178098,1.83255,0.882942,1.44501,1.44501,0,0
16.2446,649.685,-321.403,-0.267459,109.468,-51.6507,-2.01145,9.53738,-1.80255,-11.2906,-0.0381466,-0.0274459,0.000274202,0.00634031,-0.0462294,0.00178098,1.835,0.882435,1.44859,1.44859,0,0
16.2949,655.191,-324.019,-0.267049,110.008,-51.8649,-2.02076,9.53743,-1.79176,-11.2982,-0.0381466,-0.0274462,0.00027451,0.00634031,-0.0462294,0.00178098,1.83742,0.881908,1.45215,1.45215,0,0
16.3452,660.724,-326.643,-0.26691,110.549,-52.0774,-2.02943,9.52542,-1.77846,-11.3179,-0.0381473,-0.0274459,0.000274983,0.00634031,-0.0462294,0.00178098,1.83986,0.881375,1.45571,1.45571,0,0
16.3955,666.283,-329.278,-0.26692,111.09,-52.2904,-2.03782,9.52102,-1.7449,-11.3331,-0.0381483,-0.0274453,0.00027559,0.00634031,-0.0462294,0.00178098,1.84228,0.880835,1.45926,1.45926,0,0
16.4459,671.871,-331.927,-0.267115,111.633,-52.5063,-2.04479,9.53968,-1.74031,-11.344,-0.0381485,-0.0274454,0.000275973,0.00634031,-0.0462294,0.00178098,1.84469,0.880304,1.46283,1.46283,0,0
16.4962,677.487,-334.585,-0.267324,112.178,-52.7205,-2.04923,9.54385,-1.71593,-11.3531,-0.0381487,-0.0274456,0.000276303,0.00634031,-0.0462294,0.00178098,1.84713,0.879766,1.4664,1.4664,0,0
16.5465,683.129,-337.252,-0.267397,112.723,-52.9335,-2.05247,9.52575,-1.69247,-11.365,-0.0381497,-0.027445,0.000276877,0.00634031,-0.0462294,0.00178098,1.84953,0.879209,1.46993,1.46993,0,0
16.5968,688.798,-339.932,-0.267421,113.269,-53.1493,-2.05623,9.5328,-1.67917,-11.3957,-0.0381504,-0.0274447,0.000277406,0.00634031,-0.0462294,0.00178098,1.85193,0.878656,1.47347,1.47347,0,0
16.6471,694.497,-342.625,-0.267471,113.818,-53.3658,-2.05882,9.54263,-1.66498,-11.4127,-0.0381503,-0.027445,0.000277706,0.00634031,-0.0462294,0.00178098,1.85434,0.878093,1.47701,1.47701,0,0
16.6973,700.209,-345.32,-0.267328,114.367,-53.5802,-2.06038,9.54953,-1.65148,-11.4436,-0.0381508,-0.0274449,0.000278142,0.00634031,-0.0462294,0.00178098,1.85674,0.877527,1.48054,1.48054,0,0
16.7475,705.948,-348.025,-0.267155,114.917,-53.7949,-2.0612,9.5469,-1.6234,-11.4371,-0.0381518,-0.0274443,0.000278747,0.00634031,-0.0462294,0.00178098,1.85912,0.876956,1.48406,1.48406,0,0
16.7978,711.729,-350.75,-0.267084,115.468,-54.0122,-2.06324,9.54431,-1.60686,-11.466,-0.0381521,-0.0274444,0.000279141,0.00634031,-0.0462294,0.00178098,1.86151,0.876369,1.48758,1.48758,0,0
16.8481,717.539,-353.487,-0.266955,116.021,-54.2285,-2.0636,9.53465,-1.593,-11.4717,-0.0381521,-0.0274447,0.000279443,0.00634031,-0.0462294,0.00178098,1.86389,0.875787,1.49109,1.49109,0,0
16.8983,723.362,-356.224,-0.266603,116.574,-54.4439,-2.06325,9.53087,-1.58931,-11.4853,-0.038153,-0.0274442,0.000279989,0.00634031,-0.0462294,0.00178098,1.86626,0.875201,1.49459,1.49459,0,0
16.9486,729.227,-358.981,-0.26638,117.129,-54.6612,-2.06463,9.54438,-1.56159,-11.5038,-0.0381537,-0.0274439,0.000280523,0.00634031,-0.0462294,0.00178098,1.86863,0.874608,1.49809,1.49809,0,0
16.9989,735.119,-361.752,-0.266173,117.687,-54.879,-2.06517,9.55731,-1.54019,-11.5147,-0.0381537,-0.0274442,0.000280815,0.00634031,-0.0462294,0.00178098,1.871,0.874012,1.5016,1.5016,0,0
17.0492,741.042,-364.53,-0.265897,118.244,-55.0948,-2.06539,9.53518,-1.52405,-11.5322,-0.0381541,-0.0274442,0.00028122,0.00634031,-0.0462294,0.00178098,1.87338,0.87341,1.50512,1.50512,0,0
17.0994,746.977,-367.313,-0.265457,118.801,-55.3098,-2.06601,9.52968,-1.49025,-11.5471,-0.0381551,-0.0274436,0.000281813,0.00634031,-0.0462294,0.00178098,1.87574,0.872798,1.5086,1.5086,0,0
17.1498,752.955,-370.115,-0.265257,119.361,-55.5277,-2.0677,9.53858,-1.48234,-11.5564,-0.0381554,-0.0274437,0.000282211,0.00634031,-0.0462294,0.00178098,1.87809,0.872188,1.51209,1.51209,0,0
17.2001,758.961,-372.929,-0.265086,119.923,-55.7457,-2.0688,9.54995,-1.49145,-11.58,-0.0381553,-0.027444,0.000282505,0.00634031,-0.0462294,0.00178098,1.88044,0.87157,1.51557,1.51557,0,0
17.2504,764.996,-375.751,-0.264829,120.485,-55.9615,-2.069,9.53795,-1.45423,-11.5789,-0.0381562,-0.0274436,0.000283039,0.00634031,-0.0462294,0.00178098,1.88279,0.870934,1.51904,1.51904,0,0
17.3006,771.044,-378.578,-0.264441,121.047,-56.1794,-2.06977,9.5437,-1.44687,-11.6021,-0.0381569,-0.0274433,0.000283567,0.00634031,-0.0462294,0.00178098,1.88512,0.870313,1.52252,1.52252,0,0
17.3508,777.121,-381.42,-0.26417,121.61,-56.3974,-2.07108,9.54379,-1.42307,-11.6248,-0.0381567,-0.0274437,0.000283849,0.00634031,-0.0462294,0.00178098,1.88745,0.869679,1.52598,1.52598,0,0
17.4011,783.25,-384.28,-0.264089,122.177,-56.6149,-2.07261,9.54915,-1.42207,-11.6403,-0.0381571,-0.0274437,0.000284238,0.00634031,-0.0462294,0.00178098,1.88978,0.869033,1.52944,1.52944,0,0
17.4513,789.384,-387.139,-0.263684,122.742,-56.8311,-2.07374,9.52462,-1.37633,-11.6585,-0.0381581,-0.0274431,0.000284813,0.00634031,-0.0462294,0.00178098,1.89212,0.868394,1.53291,1.53291,0,0
17.5017,795.56,-390.02,-0.263521,123.309,-57.0504,-2.07546,9.53308,-1.37465,-11.6604,-0.0381583,-0.0274433,0.000285189,0.00634031,-0.0462294,0.00178098,1.89445,0.867745,1.53638,1.53638,0,0
17.552,801.767,-392.911,-0.263356,123.878,-57.2682,-2.0768,9.54225,-1.3535,-11.6851,-0.0381582,-0.0274436,0.000285464,0.00634031,-0.0462294,0.00178098,1.89677,0.867085,1.53985,1.53985,0,0
17.6022,807.986,-395.804,-0.26303,124.448,-57.4846,-2.07756,9.54175,-1.33597,-11.7002,-0.0381591,-0.0274432,0.000285984,0.00634031,-0.0462294,0.00178098,1.89907,0.866433,1.5433,1.5433,0,0
17.6523,814.234,-398.709,-0.262766,125.018,-57.7026,-2.07978,9.54139,-1.31202,-11.7227,-0.0381597,-0.0274429,0.000286488,0.00634031,-0.0462294,0.00178098,1.90138,0.865768,1.54675,1.54675,0,0
17.7027,820.527,-401.635,-0.262719,125.591,-57.9227,-2.08166,9.54643,-1.31724,-11.7307,-0.0381596,-0.0274433,0.000286752,0.00634031,-0.0462294,0.00178098,1.90367,0.865097,1.55019,1.55019,0,0
17.753,826.849,-404.569,-0.262547,126.165,-58.1404,-2.08274,9.52714,-1.28794,-11.7491,-0.03816,-0.0274433,0.000287141,0.00634031,-0.0462294,0.00178098,1.90596,0.864424,1.55362,1.55362,0,0
17.8033,833.199,-407.513,-0.262313,126.739,-58.3592,-2.08392,9.52633,-1.27695,-11.7564,-0.0381609,-0.0274428,0.000287706,0.00634031,-0.0462294,0.00178098,1.90823,0.863737,1.55704,1.55704,0,0
17.8536,839.578,-410.472,-0.262107,127.316,-58.5787,-2.08564,9.54201,-1.23482,-11.7764,-0.0381611,-0.027443,0.000288056,0.00634031,-0.0462294,0.00178098,1.91054,0.863039,1.56048,1.56048,0,0
17.9039,845.986,-413.441,-0.261922,127.894,-58.7974,-2.08654,9.53766,-1.23092,-11.79,-0.038161,-0.0274433,0.000288333,0.00634031,-0.0462294,0.00178098,1.91283,0.862344,1.56393,1.56393,0,0
17.9542,852.424,-416.418,-0.26168,128.472,-59.0155,-2.08792,9.52398,-1.21785,-11.809,-0.0381619,-0.0274429,0.000288862,0.00634031,-0.0462294,0.00178098,1.91512,0.861651,1.56737,1.56737,0,0
18.0044,858.876,-419.404,-0.253469,129.058,-59.2462,-2.0475,9.52646,-1.19309,-11.8179,-0.0381625,-0.0274427,0.000289375,0.00634031,-0.0462294,0.00178098,1.91739,0.860932,1.57077,1.57077,0,0
