time,x_hat,y_hat,z_hat,Vx_hat,Vy_hat,Vz_hat,ax_hat,ay_hat,az_hat,ax_bias,ay_bias,az_bias,gx_bias,gy_bias,gz_bias,roll,pitch,yaw,yaw_residual
182000,-3.7848e-06,-0.000452062,0.567171,-0.0019976,0.000978174,0.0286407,0.0158017,-0.36151,-0.00710201,-0.047293,-0.01987,0.002095,0.006321,-0.0443,0.003061,-0.0177088,-0.00331241,-0.0519338,-0.000845106
182051,-5.0645e-05,-0.000518447,0.569448,0.000193637,-0.00370874,0.0350342,-0.0839075,0.0283189,0.0187931,-0.047293,-0.01987,0.002095,0.006321,-0.0443,0.00306101,-0.0156966,0.00563159,-0.0518025,-0.00133196
182101,-0.00109667,-0.000295783,0.564664,-0.0186393,0.00256875,-0.0212284,0.0999449,-0.0515617,-0.0105829,-0.047293,-0.01987,0.002095,0.00632101,-0.0443,0.003061,-0.0195073,-0.00493321,-0.0522189,0.000754921
182152,-0.00135992,-0.000694558,0.56157,-0.0120884,-0.00318782,-0.0344466,-0.0800755,0.0264066,0.0490665,-0.047293,-0.01987,0.00209501,0.006321,-0.0443,0.003061,-0.0175827,0.0034057,-0.0515778,-0.000185641
182202,-0.00400065,-0.00154299,0.559927,-0.0296997,-0.0111515,-0.0339696,0.0607403,-0.000796118,-0.000770569,-0.047293,-0.01987,0.00209501,0.00632101,-0.0443,0.00306101,-0.0169872,-0.00239845,-0.051716,-8.2167e-05
182252,-0.00585973,-0.00155616,0.559091,-0.0336651,-0.00790559,-0.0294461,-0.0174283,-0.0226309,-0.000291824,-0.047293,-0.01987,0.002095,0.00632101,-0.0443,0.00306097,-0.0193013,-0.000797969,-0.0516532,0.00110468
182303,-0.00638659,-0.00258546,0.55426,-0.0269691,-0.0110766,-0.0437292,-0.0300151,0.0111481,0.0195284,-0.047293,-0.01987,0.00209502,0.00632101,-0.0443,0.00306102,-0.0184571,0.00229088,-0.0519884,-0.00148359
182353,-0.00690889,-0.00708083,0.551251,-0.0215888,-0.0325207,-0.0460849,-0.0295618,0.0128364,0.0194645,-0.047293,-0.01987,0.00209502,0.00632099,-0.0443,0.00306098,-0.0175372,0.00561442,-0.0508192,0.00101909
182403,-0.0172463,-0.00324314,0.549335,-0.0660534,-0.0108635,-0.0447151,0.0908221,-0.0327608,-0.000457764,-0.047293,-0.01987,0.00209502,0.00632105,-0.0443,0.00306105,-0.0197286,-0.00370818,-0.0522804,-0.00186482
182454,-0.0282729,-0.00369407,0.548116,-0.0980404,-0.012314,-0.0396826,0.0425003,0.0319971,0.0393667,-0.047293,-0.01987,0.00209501,0.00632108,-0.0443,0.00306107,-0.0159487,-0.00756672,-0.0522993,-0.000430735
182504,-0.0343207,-0.00664542,0.547312,-0.104526,-0.0238602,-0.0382094,-0.0688583,-0.0407822,-0.04037,-0.047293,-0.01987,0.00209499,0.00632107,-0.0443,0.00306107,-0.0205253,-0.000641587,-0.0523866,-0.000309618
182555,-0.0357355,0.000506443,0.546699,-0.0964934,0.00811858,-0.0371847,-0.0383822,0.0122063,-0.050271,-0.047293,-0.01987,0.00209497,0.0063211,-0.0443,0.00306103,-0.0193809,0.00307114,-0.0516279,0.00147375
182605,-0.0635128,0.00138634,0.546227,-0.166924,0.00159419,-0.0348167,0.0987537,0.0245234,-0.0210838,-0.047293,-0.01987,0.00209494,0.00632121,-0.0443,0.00306104,-0.0158251,-0.00624696,-0.0519789,-0.000241192
182655,-0.0688216,0.00130545,0.54594,-0.162112,0.000452057,-0.029256,-0.0964643,-0.0391501,0.0494404,-0.047293,-0.01987,0.0020949,0.00632119,-0.0443,0.00306102,-0.0203679,0.0032386,-0.0455964,0.00306901
182706,-0.0893864,0.0259936,0.540979,-0.205332,0.0659424,-0.037448,0.0602685,0.0265309,-0.0208015,-0.047293,-0.01987,0.00209502,0.00632148,-0.0443,0.00306109,-0.0165909,-0.00258684,-0.0564543,-0.00424352
182756,-0.120918,0.0138861,0.539308,-0.254693,0.0183735,-0.0370981,-0.0273254,0.0141691,-0.000993729,-0.047293,-0.01987,0.00209501,0.00632141,-0.0443,0.00306109,-0.01538,0.000720443,-0.0409705,0.00853404
182806,-0.11029,0.0304898,0.533714,-0.207929,0.0631049,-0.0433884,-0.0480151,-0.0571933,0.0100107,-0.047293,-0.01987,0.00209521,0.00632151,-0.0443,0.00306117,-0.0212935,0.00503268,-0.0578185,-0.00879136
182857,-0.178455,0.0676435,0.531256,-0.348153,0.120905,-0.042439,0.119467,0.0425413,0.0286207,-0.047293,-0.01987,0.00209523,0.0063222,-0.0443,0.00306111,-0.0147929,-0.00538789,-0.0503857,0.00471839
182907,-0.189667,0.0575859,0.529311,-0.331115,0.0871535,-0.0417102,-0.0672864,-0.0315312,0.00928307,-0.047293,-0.01987,0.00209522,0.00632195,-0.0443,0.0030611,-0.0187817,0.000969308,-0.0514136,0.000662176
182958,-0.20536,0.0766683,0.529553,-0.336031,0.115697,-0.0400461,-0.0145886,-0.0259303,-0.039854,-0.047293,-0.01987,0.00209501,0.00632215,-0.0443,0.00306113,-0.0212012,0.00252467,-0.0529572,-0.00106779
183008,-0.255073,0.0775516,0.526252,-0.395681,0.0966955,-0.0400574,0.0247043,0.0474365,0.0390615,-0.047293,-0.01987,0.00209515,0.00632222,-0.0443,0.00306114,-0.0161237,0.000752762,-0.0520703,-0.000422152
183058,-0.302388,0.104344,0.521832,-0.453627,0.125982,-0.043436,0.0334866,-0.023749,-0.000490189,-0.047293,-0.01987,0.00209544,0.00632272,-0.0443,0.00306114,-0.0177151,-0.00183983,-0.0514894,-0.000222119
183109,-0.328765,0.117289,0.519747,-0.464733,0.135959,-0.0418947,-0.0410561,-0.00372325,0.0294933,-0.047293,-0.01987,0.00209543,0.00632285,-0.0443,0.00306112,-0.0181632,0.0025197,-0.0522278,0.000954954
183159,-0.354194,0.156811,0.519554,-0.480101,0.187835,-0.0409234,0.0312384,-0.0141609,-0.0303049,-0.047293,-0.01987,0.00209512,0.00632339,-0.0443,0.00306111,-0.0189243,5.60023e-05,-0.0526724,0.00056204
183209,-0.384713,0.166621,0.519442,-0.492462,0.185536,-0.0361466,-0.0522695,-0.00080188,0.0497398,-0.047293,-0.01987,0.00209478,0.00632341,-0.0443,0.00306104,-0.0192752,0.00543989,-0.0543107,0.00194105
183260,-0.441461,0.222654,0.517979,-0.555726,0.243865,-0.0357414,0.08048,-0.00543332,-0.000546455,-0.047293,-0.01987,0.00209471,0.00632443,-0.0443,0.00306101,-0.0187745,-0.000961838,-0.05495,0.00159654
183310,-0.49967,0.272485,0.518148,-0.61355,0.287536,-0.0325722,0.00916729,0.0239345,0.0191908,-0.047293,-0.01987,0.00209427,0.00632528,-0.0442999,0.00306092,-0.0159313,-0.000193957,-0.0566956,0.00314531
183361,-0.566849,0.295196,0.515638,-0.667301,0.285327,-0.0335507,-0.00595429,-0.0235612,-0.000470161,-0.047293,-0.01987,0.0020945,0.00632574,-0.0442999,0.00306085,-0.0182894,0.00126651,-0.0573709,0.00406489
183411,-0.562598,0.37895,0.513469,-0.645939,0.388979,-0.0330539,0.0179697,-0.0314409,0.0200872,-0.047293,-0.01987,0.00209465,0.00632669,-0.0442998,0.00306076,-0.0210705,0.000517599,-0.0582042,0.00562629
183461,-0.0182745,0.0141244,0.510119,-0.0968836,0.245051,-0.0363033,0.00502167,0.0457013,-0.0308914,-0.047293,-0.01987,0.00209513,0.00632722,-0.0442998,0.00306056,-0.0164199,0.00133376,-0.0536594,0.00468811
183512,-0.0263628,0.0270088,0.506079,-0.124462,0.24142,-0.0375367,-6.63605e-05,-0.00874992,0.0193806,-0.047293,-0.01987,0.00209594,0.00632805,-0.0442997,0.00306038,-0.0175775,0.00312963,-0.0531405,0.00453028
183562,-0.0145268,0.0197643,0.502372,-0.108845,0.256831,-0.0387581,0.025993,-0.0389677,0.0100403,-0.047293,-0.01987,0.00209661,0.00632859,-0.0442997,0.00306036,-0.0211798,0.000687115,-0.0521946,0.000475256
183612,-0.0238057,0.03295,0.498091,-0.140699,0.252689,-0.0399738,-0.00291727,0.0582726,0.0188847,-0.047293,-0.0198701,0.00209766,0.0063297,-0.0442996,0.00306034,-0.0158479,0.00356693,-0.0520996,0.000511495
183663,-0.02207,0.0295405,0.494148,-0.16116,0.248683,-0.0416961,0.0498863,-0.0473391,-0.000282288,-0.047293,-0.0198701,0.00209853,0.00633136,-0.0442994,0.00306032,-0.0209831,0.000976795,-0.0519161,0.000343172
183713,-0.0305021,0.0451337,0.490779,-0.169762,0.276869,-0.0413425,-0.0122307,0.0169838,0.0297422,-0.047293,-0.0198701,0.00209924,0.00633194,-0.0442994,0.00306036,-0.0193291,0.00299109,-0.0521322,-0.000666769
183764,-0.0334453,0.0403502,0.487649,-0.205362,0.250179,-0.0427207,0.0680378,0.0257622,-0.0109901,-0.047293,-0.0198701,0.00209978,0.00633442,-0.0442991,0.00306028,-0.0178036,0.000459764,-0.0512712,0.00159654
183814,-0.042722,0.054862,0.484942,-0.203831,0.265375,-0.0431811,-0.0299784,-0.0339984,0.000101089,-0.047293,-0.0198701,0.00210014,0.00633443,-0.0442991,0.00306024,-0.0211716,0.00313926,-0.0516152,0.000726072
183864,-0.0406711,0.0472247,0.481379,-0.201699,0.23524,-0.0438317,0.0395001,0.0257516,0.00944138,-0.047293,-0.0198701,0.00210104,0.00633564,-0.0442989,0.00306024,-0.0189533,0.00104574,-0.0518424,-1.34309e-06
183915,-0.0596369,0.0599519,0.478303,-0.24508,0.23045,-0.0440201,0.0293879,0.0344912,0.00895691,-0.047293,-0.0198701,0.00210173,0.00633787,-0.0442986,0.00306027,-0.0172741,0.001949,-0.0515473,-0.000625285
183965,-0.0498127,0.0417897,0.475476,-0.196752,0.146334,-0.0406187,-0.0533259,0.00344366,0.079484,-0.047293,-0.0198701,0.00210221,0.00633677,-0.0442987,0.00306037,-0.0166951,0.00587532,-0.0511961,-0.0019261
184016,-0.0626643,0.056128,0.473069,-0.214235,0.182154,-0.0433271,0.11258,-0.0430176,-0.0506268,-0.047293,-0.0198701,0.0021025,0.00633809,-0.0442986,0.00306043,-0.0211033,-0.00415833,-0.0512517,-0.00140181
184066,-0.054985,0.0381681,0.470692,-0.18461,0.105569,-0.0440213,-0.0714808,0.040376,-0.0109167,-0.047293,-0.0198701,0.00210257,0.00633821,-0.0442985,0.00306035,-0.0180066,0.00374769,-0.0525612,0.00122508
184116,-0.0681884,0.0491026,0.468644,-0.206543,0.131672,-0.043411,0.0433334,-0.0156198,0.00963211,-0.047293,-0.0198701,0.00210242,0.00633957,-0.0442983,0.0030602,-0.0202739,0.00102432,-0.0532737,0.00252208
184167,-0.05942,0.0373603,0.466699,-0.183109,0.0976778,-0.042292,0.00783832,0.00874039,0.0197296,-0.047293,-0.0198701,0.00210206,0.00634041,-0.0442982,0.0030602,-0.019998,0.00137241,-0.0517093,0.000106899
184217,-0.074234,0.0441832,0.465046,-0.205921,0.102941,-0.0424728,0.022049,0.0247224,-0.0106783,-0.047293,-0.0198701,0.0021015,0.00634195,-0.0442979,0.0030603,-0.0190537,0.00130293,-0.0509529,-0.00146786
184267,-0.0647129,0.0325984,0.463429,-0.18349,0.0702102,-0.0416613,-0.0100545,-0.00253078,0.009758,-0.047293,-0.0198701,0.00210071,0.00634301,-0.0442978,0.00306026,-0.0204253,0.00365411,-0.0526897,0.00097355
184318,-0.0768272,0.0413864,0.46205,-0.201101,0.0951715,-0.0417059,0.0440959,0.0177206,-0.0105581,-0.047293,-0.0198701,0.0020997,0.00634402,-0.0442976,0.00306014,-0.0190131,0.000448337,-0.0539315,0.00266084
184368,-0.0720024,0.0289469,0.460701,-0.195485,0.0533364,-0.0407595,-0.00632223,0.0369491,0.00898361,-0.047293,-0.0198701,0.00209847,0.00634681,-0.0442971,0.00306015,-0.019134,0.00467814,-0.0544242,0.00330934
184419,-0.0867026,0.0356389,0.459579,-0.218656,0.0684638,-0.0396772,0.0325165,-0.0140386,0.00988483,-0.047293,-0.01987,0.00209703,0.0063483,-0.0442969,0.00306016,-0.021981,0.0030143,-0.0534054,0.00198754
184469,-0.0745403,0.0261223,0.456909,-0.192268,0.0499555,-0.0401342,0.0292506,0.0439826,-0.000762939,-0.047293,-0.0198701,0.00209803,0.00634944,-0.0442967,0.00306,-0.0186116,0.00155987,-0.0539014,0.0024558
184519,-0.0931893,0.0276927,0.453784,-0.221172,0.0410612,-0.0407904,0.0243079,0.0311624,-0.00102615,-0.047293,-0.0198701,0.00210011,0.00635228,-0.0442961,0.00305975,-0.0197573,0.00220727,-0.0549337,0.00380191
184570,-0.0785647,0.0219218,0.450758,-0.194979,0.0381833,-0.0418649,0.0379587,-0.0186339,-0.00992298,-0.047293,-0.0198701,0.00210182,0.00635301,-0.0442961,0.00305951,-0.0216633,-0.000904808,-0.0543004,0.00328788
184620,-0.0923875,0.0283512,0.448753,-0.218292,0.0583928,-0.0423169,0.0107017,0.041629,-0.010705,-0.047293,-0.0198701,0.00210161,0.00635424,-0.0442959,0.00305928,-0.0185643,-0.000471307,-0.0539878,0.00275048
184670,-0.0825765,0.0158053,0.446809,-0.19416,0.0166255,-0.0422268,-0.0261051,0.0234064,-0.00083065,-0.047293,-0.0198701,0.00210106,0.00635661,-0.0442954,0.00305904,-0.0205833,0.00425651,-0.0538732,0.00206908
184721,-0.0937378,0.0247066,0.444319,-0.213946,0.0512545,-0.0439212,0.0688835,-0.00255298,-0.0302591,-0.047293,-0.0198701,0.00210183,0.00635689,-0.0442955,0.00305893,-0.0194794,-0.00212679,-0.0530435,0.000995008
184771,-0.0805343,0.0147078,0.441211,-0.184099,0.0246564,-0.0439741,-0.0413477,0.0433861,0.00888824,-0.047293,-0.0198702,0.00210393,0.00635821,-0.0442953,0.00305887,-0.0175469,0.00326444,-0.0523497,0.000404445
184822,-0.09983,0.0207357,0.437723,-0.228269,0.0392722,-0.04462,0.0682786,-0.0216138,-0.000452042,-0.047293,-0.0198702,0.00210738,0.00636141,-0.0442948,0.00305858,-0.0235373,-0.0011764,-0.0540151,0.00228461
184872,-0.082912,0.0140811,0.433686,-0.191845,0.0293189,-0.0456052,-0.0125661,0.0314805,-0.000123978,-0.047293,-0.0198703,0.00211217,0.00636162,-0.0442948,0.00305854,-0.0201905,0.000659318,-0.0524141,0.000622837
184922,-0.0975013,0.013157,0.429339,-0.206021,0.0199788,-0.0466802,-0.00424467,0.0381906,-0.000871658,-0.047293,-0.0198704,0.00211835,0.0063636,-0.0442943,0.00305838,-0.0200423,0.00225436,-0.0541405,0.0024403
184973,-0.0855388,0.00594441,0.425201,-0.186062,0.00128104,-0.0466063,-0.000715321,-0.00309473,0.0199451,-0.047293,-0.0198705,0.00212386,0.00636579,-0.0442939,0.00305809,-0.023798,0.00361025,-0.055066,0.00337228
185023,-0.101169,0.0105719,0.421413,-0.216879,0.0181515,-0.0468494,0.0556103,0.0505616,0.00925636,-0.047293,-0.0198706,0.00212872,0.00636778,-0.0442937,0.0030581,-0.0205316,-8.90795e-05,-0.0517415,-9.26574e-05
185074,-0.0889882,0.00121156,0.417164,-0.190352,-0.007561,-0.0483046,-0.0014517,0.0411867,-0.0109062,-0.047293,-0.0198708,0.00213512,0.00637025,-0.0442932,0.00305811,-0.0209036,0.00106185,-0.0518709,-0.000135334
185124,-0.104767,0.0046171,0.413221,-0.220993,0.00391497,-0.0485432,0.0184805,0.0141865,0.00967979,-0.047293,-0.0198709,0.00214079,0.00637223,-0.044293,0.0030581,-0.0216374,0.000771729,-0.0520887,8.1865e-05
185174,-0.0906801,0.0040162,0.409435,-0.204638,0.0110749,-0.049236,0.0464744,0.0297336,-0.000570297,-0.047293,-0.019871,0.00214572,0.00637342,-0.044293,0.0030583,-0.0188202,-0.00216869,-0.050494,-0.00147787
185225,-0.105725,0.00566909,0.405952,-0.226485,0.013888,-0.0497396,-0.0327013,0.0261581,-0.000920296,-0.047293,-0.019871,0.00214991,0.00637504,-0.0442928,0.00305823,-0.0185723,0.00213435,-0.0525107,0.000488846
185275,-0.0872534,0.00528288,0.402572,-0.1922,0.0202991,-0.0502169,0.0272496,-0.0194078,-0.000162125,-0.0472931,-0.0198711,0.00215333,0.00637439,-0.0442931,0.00305792,-0.0180563,0.000301861,-0.054514,0.00206026
185325,-0.095541,0.0132429,0.398868,-0.200447,0.0430697,-0.050338,0.0106322,0.00659328,0.00931454,-0.0472931,-0.0198712,0.00215865,0.00637338,-0.0442935,0.00305756,-0.0143323,0.000411923,-0.0548089,0.00232705
185376,-0.0817333,0.00963894,0.395346,-0.176783,0.0356463,-0.0503587,0.0102578,-0.0199965,0.00912285,-0.0472931,-0.0198713,0.00216312,0.00637436,-0.0442934,0.00305676,-0.0171476,0.000202824,-0.0569791,0.00471338
185426,-0.0887867,0.0170443,0.392085,-0.181751,0.0514187,-0.0502248,-0.0230594,-0.0405059,0.0100002,-0.0472931,-0.0198714,0.00216677,0.00637322,-0.0442937,0.00305586,-0.018565,0.00340249,-0.057523,0.00519451
185477,-0.0746828,0.0170179,0.388963,-0.160587,0.0573048,-0.050068,0.051318,0.00922279,0.00918388,-0.0472931,-0.0198714,0.00216956,0.00637324,-0.044294,0.00305493,-0.0159134,0.000134325,-0.0580268,0.00532207
185527,-0.08954,0.0186985,0.386136,-0.184573,0.0504188,-0.049244,-0.0209866,0.00750793,0.0189772,-0.0472931,-0.0198715,0.00217153,0.0063757,-0.0442936,0.00305407,-0.0188221,0.00271554,-0.0586825,0.00589832
185577,-0.0766826,0.0198931,0.383389,-0.17107,0.0579729,-0.0494013,0.0329646,-0.0174635,-0.000198364,-0.0472931,-0.0198715,0.00217266,0.00637594,-0.0442938,0.00305323,-0.0190367,0.00205376,-0.0584893,0.00569066
185628,-0.0892556,0.032016,0.38084,-0.198995,0.0812547,-0.0494812,0.0289464,0.0249481,-0.000937462,-0.0472931,-0.0198715,0.00217296,0.00637613,-0.0442941,0.0030516,-0.0147037,0.00265045,-0.0601403,0.00726804
185678,-0.0816778,0.0275383,0.378396,-0.196363,0.068653,-0.0494912,0.0111105,-0.0366374,-0.00058651,-0.0472931,-0.0198715,0.00217239,0.00637881,-0.0442939,0.00304982,-0.0210763,0.00349494,-0.0609837,0.00804767
185728,-0.0903613,0.0452996,0.376099,-0.211685,0.105221,-0.0489235,0.0507156,-0.0162926,0.0101643,-0.0472931,-0.0198715,0.00217099,0.0063765,-0.0442945,0.00304775,-0.0170468,0.00331277,-0.0619515,0.00906285
185779,-0.078146,0.0442941,0.373919,-0.196882,0.108739,-0.0483695,0.0202324,0.00600822,0.00911999,-0.0472931,-0.0198714,0.00216871,0.00637665,-0.0442947,0.00304527,-0.0151125,0.00506956,-0.0639421,0.0109099
185829,-0.10132,0.0594088,0.371952,-0.254073,0.121228,-0.0466817,0.0663043,-0.015711,0.0289135,-0.0472931,-0.0198714,0.0021656,0.00637992,-0.0442946,0.00304293,-0.0187334,0.00431728,-0.0671601,0.013986
185880,-0.0845858,0.0917886,0.368843,-0.271905,0.212522,-0.0508317,0.147093,-0.0378235,-0.080492,-0.0472931,-0.0198714,0.00216919,0.00637369,-0.0442959,0.00304038,-0.0086818,0.0095112,-0.0680147,0.0147458
185930,-0.0963654,0.126199,0.3663,-0.290265,0.267852,-0.0557779,0.167478,-0.0373125,-0.102754,-0.0472931,-0.0198714,0.00216769,0.00636976,-0.0442965,0.00303753,-0.00461323,0.00243963,-0.068533,0.0154708
185980,-0.077175,0.118665,0.36374,-0.242398,0.259494,-0.0567586,0.0411257,-0.148137,-0.0214901,-0.0472931,-0.0198713,0.00216505,0.00636652,-0.0442969,0.00303396,-0.0148672,0.001212,-0.0699135,0.0168687
186031,-0.0795298,0.158552,0.361256,-0.241383,0.325582,-0.0579498,0.0637564,-0.079388,-0.0300493,-0.0472931,-0.0198713,0.00216127,0.006359,-0.0442977,0.00302911,-0.0125071,0.00514616,-0.070456,0.0174936
186081,-0.0672119,0.14259,0.358844,-0.210198,0.300342,-0.0593335,-0.0122008,0.00303617,-0.0312309,-0.0472931,-0.0198712,0.00215626,0.00635855,-0.0442978,0.0030237,-0.0117692,0.00857455,-0.0717644,0.0188425
186132,-0.0788803,0.178766,0.356488,-0.234836,0.340384,-0.0609369,0.103952,-0.102876,-0.0409527,-0.0472931,-0.0198711,0.00215004,0.00635598,-0.0442979,0.00301822,-0.019291,0.00886399,-0.0750206,0.0219563
186182,-0.0603887,0.172776,0.353729,-0.194125,0.346559,-0.0593061,0.0827536,-0.0265968,0.0297098,-0.047293,-0.019871,0.00214707,0.00635056,-0.0442983,0.00301241,-0.0156086,0.00759113,-0.076476,0.0233894
186232,-0.0764752,0.198283,0.351253,-0.220786,0.356229,-0.0570699,0.0613882,-0.011127,0.0389662,-0.047293,-0.0198709,0.00214281,0.00635207,-0.044298,0.00300468,-0.0199015,0.00807208,-0.078682,0.025745
186283,-0.0647422,0.192874,0.349343,-0.203904,0.357817,-0.057606,0.124723,-0.0251888,-0.0206003,-0.047293,-0.0198707,0.00213246,0.0063488,-0.0442979,0.00299594,-0.0208854,0.00668708,-0.0809283,0.0279778
186333,-0.0776931,0.212945,0.346677,-0.215136,0.362216,-0.0555495,-0.0114917,0.0667101,0.0389795,-0.047293,-0.0198707,0.00213074,0.00634969,-0.0442977,0.00298986,-0.0164381,0.0106326,-0.0824786,0.0293363
186383,-0.066095,0.215338,0.343805,-0.207686,0.381634,-0.0509811,0.182133,-0.0124607,0.0877819,-0.047293,-0.0198707,0.00213274,0.00634472,-0.0442973,0.00298256,-0.0185669,0.00993079,-0.0821074,0.0291947
186434,-0.0624408,0.187921,0.34167,-0.18482,0.328148,-0.0480018,-0.0218979,0.035016,0.0596857,-0.047293,-0.0198707,0.00212822,0.00634751,-0.0442972,0.00297236,-0.0176181,0.00966139,-0.0839645,0.0310796
186484,-0.070136,0.220483,0.339433,-0.192411,0.36289,-0.0433667,0.131984,-0.0168569,0.088685,-0.047293,-0.0198707,0.00212789,0.00634365,-0.044297,0.00295995,-0.0189709,0.0052406,-0.0857544,0.0329836
186535,-0.0625487,0.213601,0.337799,-0.182064,0.359701,-0.0435998,0.0888158,-0.00184725,-0.0108042,-0.047293,-0.0198705,0.00212091,0.00633993,-0.0442965,0.0029453,-0.0213285,0.00645006,-0.0857745,0.0331548
186585,-0.0704943,0.249649,0.336291,-0.19458,0.398956,-0.0431807,0.0719412,0.0129693,-0.000547409,-0.047293,-0.0198704,0.00211286,0.00633529,-0.0442962,0.00292788,-0.0207732,0.00857728,-0.0874781,0.0349418
186635,-0.0641102,0.228464,0.334294,-0.175469,0.3667,-0.0451707,0.0429247,0.0191276,-0.040472,-0.047293,-0.0198703,0.00210942,0.0063344,-0.0442959,0.00290742,-0.0212443,0.00806639,-0.0898126,0.0370389
186686,-0.0712343,0.262989,0.332008,-0.184465,0.401507,-0.0440508,0.0779497,0.0117399,0.0194139,-0.047293,-0.0198703,0.00211063,0.00632975,-0.0442956,0.00288327,-0.0205729,0.00816341,-0.0921555,0.0394443
186736,-0.0615764,0.25596,0.330259,-0.170557,0.406719,-0.0423863,0.131879,0.0403166,0.028182,-0.047293,-0.0198702,0.00210446,0.00632244,-0.0442951,0.00285594,-0.016995,0.006766,-0.0927071,0.0402244
186786,-0.0704637,0.290927,0.328705,-0.184448,0.433607,-0.0415359,0.0413926,-0.0272034,0.00963688,-0.047293,-0.0198701,0.00209715,0.00631863,-0.0442946,0.00282243,-0.022538,0.0091936,-0.0958263,0.0434178
186837,-0.0584816,0.274653,0.32668,-0.157357,0.425392,-0.0425951,0.10972,0.0200937,-0.0208712,-0.047293,-0.0198701,0.00209494,0.00631113,-0.0442946,0.00278572,-0.0147377,0.00669583,-0.0944376,0.0422691
186887,-0.0669783,0.30757,0.32525,-0.168517,0.447112,-0.0417753,0.0432782,0.000495016,0.00883389,-0.047293,-0.0198699,0.00208495,0.00630791,-0.0442943,0.00274397,-0.0167393,0.00747064,-0.0956325,0.0435081
186938,-0.0583864,0.286899,0.323423,-0.149585,0.423749,-0.0402547,0.067096,-0.0420285,0.0296326,-0.0472929,-0.0198698,0.00208038,0.00630263,-0.0442939,0.00269844,-0.0213477,0.00777986,-0.0959635,0.0438558
186988,-0.0610097,0.324813,0.321366,-0.151399,0.462391,-0.0401851,0.10498,0.00925771,-0.000764847,-0.0472929,-0.0198698,0.00208133,0.00629527,-0.0442939,0.00265167,-0.013826,0.00651329,-0.0954534,0.043284
187038,-0.0543157,0.304001,0.320148,-0.137843,0.440631,-0.0399989,0.0713783,-0.00132634,-0.00147533,-0.0472929,-0.0198695,0.00206696,0.0062898,-0.0442934,0.00259943,-0.0166169,0.00747177,-0.0976589,0.0454226
187089,-0.0607496,0.336056,0.318669,-0.145258,0.457017,-0.0392206,0.0448717,-0.061633,0.0101309,-0.0472929,-0.0198694,0.00205858,0.00628619,-0.0442932,0.00254033,-0.0222158,0.00769719,-0.101653,0.0493358
187139,-0.0489138,0.311115,0.316716,-0.116113,0.439583,-0.0394047,0.117062,0.0360916,-0.00127697,-0.0472929,-0.0198693,0.0020561,0.00627937,-0.0442932,0.0024774,-0.0114942,0.00697236,-0.102234,0.0501884
187190,-0.0565029,0.344522,0.315008,-0.131243,0.455319,-0.0392229,0.0227552,-0.0298677,-0.00103378,-0.0472929,-0.0198693,0.00205222,0.00627625,-0.0442926,0.0024078,-0.0201712,0.0091591,-0.105494,0.0533982
187240,-0.0437439,0.320686,0.312783,-0.10265,0.439805,-0.039458,0.145032,-0.0276892,-0.000745773,-0.0472929,-0.0198693,0.00205442,0.00626854,-0.0442925,0.00233668,-0.0157623,0.00877592,-0.10625,0.0540408
187290,-0.0451027,0.357305,0.310772,-0.108408,0.469715,-0.0394046,0.0823213,-0.0143328,-0.00110245,-0.0472929,-0.0198693,0.00205504,0.00626205,-0.0442923,0.0022603,-0.0128976,0.0135752,-0.109747,0.0574616
187341,-0.0345353,0.33336,0.308674,-0.0854668,0.450314,-0.041092,0.143228,-0.0701158,-0.0316811,-0.0472929,-0.0198693,0.00205395,0.00625497,-0.044292,0.00218028,-0.0171188,0.0136834,-0.112321,0.0598472
187391,-0.0336887,0.365817,0.306674,-0.0818137,0.472874,-0.0425333,0.126618,-0.0472128,-0.0309401,-0.0472929,-0.0198692,0.00205121,0.00624961,-0.044292,0.00209958,-0.0133866,0.015039,-0.113161,0.0606705
187441,-0.0344029,0.402848,0.304792,-0.0856795,0.49679,-0.0404062,0.111481,-0.0411409,0.0385876,-0.0472929,-0.0198692,0.00204679,0.00624416,-0.0442917,0.00201669,-0.0146468,0.0181316,-0.11569,0.0631002
187492,-0.0326221,0.442581,0.302622,-0.0838739,0.523637,-0.0404173,0.179698,-0.0575894,-0.0022049,-0.0472929,-0.0198692,0.00204909,0.00623801,-0.0442914,0.00193355,-0.0158603,0.0181981,-0.11633,0.0638436
187542,-0.0310407,0.485645,0.301329,-0.0832025,0.55378,-0.0391101,0.18209,-0.0456836,0.0178108,-0.0472928,-0.0198689,0.00203264,0.00623166,-0.044291,0.00184929,-0.0145765,0.0216234,-0.117814,0.0654088
187593,-0.0299239,0.528942,0.300135,-0.0811428,0.579876,-0.0383081,0.19505,-0.0502818,0.00738335,-0.0472928,-0.0198686,0.0020148,0.00622622,-0.0442906,0.00176596,-0.0151359,0.0221691,-0.118191,0.0659562
187643,-0.0254263,0.566603,0.298607,-0.0687153,0.599414,-0.0377065,0.199824,-0.0554614,0.00745392,-0.0472927,-0.0198684,0.00200442,0.0062221,-0.0442904,0.00168456,-0.0118021,0.0214583,-0.117533,0.0654241
187693,-0.0184904,0.609257,0.297122,-0.0573643,0.623913,-0.0385598,0.220534,-0.0709541,-0.0234222,-0.0472927,-0.0198682,0.00199248,0.00621699,-0.04429,0.00160568,-0.0122204,0.0236226,-0.116727,0.0648008
187744,-0.01216,0.648938,0.295744,-0.0459998,0.640258,-0.0358653,0.179625,-0.101259,0.0479755,-0.0472926,-0.0198679,0.00197902,0.00621325,-0.0442896,0.00152982,-0.0157848,0.0256332,-0.116595,0.064685
187794,0.000534894,0.686617,0.294365,-0.0227181,0.661886,-0.0387698,0.272236,-0.0583105,-0.0642538,-0.0472926,-0.0198676,0.00196403,0.00620908,-0.0442893,0.00145668,-0.00877207,0.0259091,-0.115418,0.0636533
187844,0.00691107,0.725939,0.293019,-0.0113252,0.673411,-0.0390785,0.191286,-0.0968516,-0.0128593,-0.0472925,-0.0198673,0.0019474,0.0062064,-0.0442889,0.00138016,-0.0133822,0.0232542,-0.118357,0.0669588
187895,0.0200983,0.762855,0.291346,0.00719989,0.687276,-0.0374806,0.206497,-0.0935013,0.0274839,-0.0472925,-0.0198672,0.00193885,0.00620333,-0.0442883,0.001305,-0.014771,0.0251168,-0.11778,0.0664776
187945,0.0373127,0.803534,0.289777,0.0283487,0.70886,-0.0368893,0.281316,-0.0384219,0.00517368,-0.0472924,-0.019867,0.00192856,0.00619939,-0.0442873,0.00123269,-0.0129471,0.0255341,-0.1162,0.0650104
187996,0.0526871,0.847073,0.288351,0.0433311,0.726668,-0.0351924,0.241875,-0.0712716,0.0263109,-0.0472924,-0.0198667,0.00191661,0.00619582,-0.0442862,0.00116143,-0.0193836,0.0256446,-0.115395,0.0642944
188046,0.0708896,0.885521,0.287026,0.065227,0.744038,-0.0340374,0.287458,-0.032922,0.0157328,-0.0472923,-0.0198665,0.0019031,0.0061928,-0.0442851,0.00109511,-0.0160027,0.0237663,-0.111916,0.0608381
188096,0.0878307,0.926652,0.285832,0.0806585,0.759823,-0.0327873,0.228004,-0.0385476,0.0168476,-0.0472922,-0.0198662,0.00188808,0.00618995,-0.0442839,0.00102994,-0.0175193,0.0248931,-0.111053,0.0600165
188147,0.107512,0.969006,0.284731,0.0972059,0.776855,-0.0319862,0.258091,-0.0469996,0.00646305,-0.0472921,-0.0198659,0.00187164,0.00618681,-0.0442824,0.00096582,-0.0213679,0.02575,-0.110167,0.0591613
188197,0.123325,1.00923,0.283722,0.110063,0.790491,-0.0311732,0.201097,-0.00243805,0.00804901,-0.047292,-0.0198656,0.00185383,0.00618471,-0.0442813,0.00090401,-0.0186175,0.0272981,-0.1084,0.0573994
188247,0.144352,1.05106,0.282811,0.124609,0.807624,-0.0293108,0.235901,-0.0125491,0.0268354,-0.0472919,-0.0198653,0.00183474,0.00618184,-0.0442795,0.000843685,-0.0196848,0.0317202,-0.105847,0.0549959
188298,0.166339,1.09105,0.281931,0.142143,0.823402,-0.0309934,0.286831,-0.0182333,-0.0443764,-0.0472918,-0.0198649,0.00181438,0.0061792,-0.0442776,0.000785503,-0.0191276,0.0325267,-0.10409,0.0532435
188348,0.195888,1.13427,0.281383,0.161897,0.845688,-0.0171045,0.357573,0.0055291,0.262993,-0.0472917,-0.0198645,0.00179309,0.00617536,-0.0442747,0.000728725,-0.0228207,0.0352567,-0.102374,0.0515488
188399,0.213188,1.17728,0.281338,0.175997,0.857744,-0.0118035,0.298771,0.00550232,0.095665,-0.0472915,-0.0198641,0.00177144,0.00617353,-0.044273,0.000674597,-0.021355,0.027487,-0.100427,0.0495594
188449,0.247905,1.21292,0.281443,0.200691,0.878711,-0.00939775,0.420859,0.00804007,0.0316343,-0.0472914,-0.0198637,0.00174964,0.00616993,-0.0442694,0.000622549,-0.0198772,0.0338809,-0.0988376,0.0479718
188499,0.271479,1.25638,0.281667,0.212353,0.891726,-0.00891092,0.269781,-0.0118314,-0.00361347,-0.0472912,-0.0198633,0.00172777,0.0061675,-0.0442668,0.000568757,-0.0248555,0.0352027,-0.10057,0.0497292
188550,0.29022,1.29229,0.281733,0.229464,0.90102,-0.0136908,0.331529,0.00795865,-0.105322,-0.047291,-0.0198629,0.00170575,0.00616636,-0.0442648,0.000515279,-0.0151637,0.0330582,-0.101336,0.0503295
188600,0.316487,1.32907,0.281778,0.24634,0.911566,-0.0108407,0.361219,-0.0373707,0.0428181,-0.0472908,-0.0198625,0.00168347,0.00616413,-0.0442614,0.000462307,-0.0183138,0.0356659,-0.100462,0.0494378
188650,0.339458,1.36007,0.281783,0.265715,0.917716,-0.0136057,0.38979,-0.071035,-0.0673571,-0.0472907,-0.0198621,0.00166097,0.00616275,-0.0442582,0.000411125,-0.0168473,0.0399011,-0.0988096,0.0477217
188701,0.361436,1.39225,0.281786,0.281982,0.925063,-0.0113384,0.359038,-0.0297692,0.0331039,-0.0472905,-0.0198617,0.00163819,0.00616144,-0.0442549,0.000359444,-0.0135833,0.0469944,-0.0989231,0.0478366
188751,0.382657,1.4238,0.281787,0.302344,0.929013,-0.0132767,0.460261,-0.0833038,-0.0513573,-0.0472902,-0.0198613,0.00161515,0.00616028,-0.0442512,0.000308808,-0.0154227,0.0445851,-0.097182,0.0460483
188802,0.398426,1.45825,0.281768,0.317371,0.930699,-0.0121136,0.369011,-0.0847455,0.0133276,-0.04729,-0.0198609,0.00159184,0.00615977,-0.0442483,0.000260841,-0.0159713,0.0445581,-0.0946534,0.0434578
188852,0.41678,1.48712,0.28183,0.33741,0.934531,-0.00910085,0.483518,-0.0584731,0.0479631,-0.0472898,-0.0198605,0.00156838,0.006159,-0.0442439,0.000215382,-0.0144646,0.0465078,-0.0930147,0.041664
188902,0.433315,1.51931,0.281982,0.35306,0.937022,-0.00897652,0.418942,-0.0674546,-0.00922012,-0.0472896,-0.01986,0.00154485,0.00615836,-0.0442399,0.000172655,-0.0164397,0.0489285,-0.0905262,0.0391479
188953,0.444706,1.55075,0.282032,0.370492,0.937695,-0.0110205,0.448845,-0.0904753,-0.0499926,-0.0472893,-0.0198596,0.00152122,0.00615834,-0.044236,0.000130504,-0.0147637,0.0504455,-0.0897709,0.0387357
189003,0.457475,1.5771,0.282116,0.391091,0.940538,-0.00668886,0.542962,-0.0629201,0.0747862,-0.047289,-0.0198592,0.0014975,0.00615802,-0.0442304,8.83859e-05,-0.0127369,0.0566373,-0.0898801,0.0389152
189053,0.469566,1.60375,0.282325,0.41234,0.942171,-0.00543482,0.57876,-0.0871201,0.0124216,-0.0472888,-0.0198588,0.00147383,0.00615766,-0.0442242,4.56934e-05,-0.0150215,0.0602392,-0.0907292,0.0398568
189104,0.478551,1.63365,0.282517,0.433636,0.943814,-0.0062581,0.581889,-0.0860139,-0.0274858,-0.0472885,-0.0198583,0.00145025,0.00615758,-0.0442184,4.43599e-06,-0.0149308,0.0597594,-0.0897322,0.0388907
189154,0.486199,1.66663,0.282691,0.452358,0.94523,-0.00597938,0.537782,-0.0920897,-0.00468636,-0.0472882,-0.0198579,0.00142671,0.00615758,-0.0442128,-3.52337e-05,-0.0158376,0.0603858,-0.0887012,0.0379017
189205,0.490992,1.69726,0.282792,0.474681,0.948479,-0.00694753,0.633915,-0.0814155,-0.0305195,-0.0472879,-0.0198575,0.00140318,0.00615755,-0.0442058,-7.31512e-05,-0.0141727,0.0631795,-0.0876564,0.0369028
189255,0.496647,1.7302,0.282897,0.49443,0.951972,-0.00678129,0.603148,-0.0740616,-0.00890923,-0.0472876,-0.0198571,0.00137958,0.00615732,-0.0441985,-0.000111197,-0.0158827,0.0661747,-0.0882473,0.0376013
189305,0.499433,1.76734,0.282883,0.515165,0.95584,-0.0102332,0.616566,-0.0899805,-0.0794296,-0.0472872,-0.0198567,0.00135583,0.00615727,-0.0441914,-0.000148045,-0.0144342,0.0666292,-0.0878731,0.0372713
189356,0.5004,1.80657,0.282753,0.536115,0.961194,-0.0107474,0.635493,-0.0846481,-0.0208435,-0.0472869,-0.0198562,0.00133177,0.00615716,-0.0441837,-0.000182752,-0.0112422,0.0696179,-0.0866202,0.0360428
189406,0.502191,1.84881,0.282613,0.555811,0.964633,-0.0116945,0.620712,-0.124141,-0.0299988,-0.0472865,-0.0198558,0.00130733,0.00615692,-0.044176,-0.000215533,-0.0140377,0.0701996,-0.0853101,0.0347498
189456,0.502916,1.89325,0.282427,0.57498,0.968977,-0.0126026,0.626362,-0.126407,-0.0297642,-0.0472861,-0.0198554,0.00128247,0.00615658,-0.0441675,-0.000247356,-0.0169264,0.0733242,-0.085722,0.0348843
189507,0.499172,1.93903,0.282165,0.599039,0.97861,-0.0124102,0.763321,-0.079407,-0.00951958,-0.0472857,-0.0198549,0.00125716,0.006156,-0.0441567,-0.000278702,-0.011944,0.0794358,-0.0860981,0.0353359
189557,0.498237,1.98573,0.281965,0.620585,0.985444,-0.0130333,0.739373,-0.106957,-0.0283833,-0.0472852,-0.0198545,0.00123133,0.00615515,-0.0441456,-0.000310364,-0.017824,0.0815263,-0.0863092,0.0358213
189608,0.495541,2.03744,0.281708,0.646169,0.995958,-0.0134647,0.823412,-0.0763805,-0.0244198,-0.0472847,-0.019854,0.00120503,0.00615424,-0.0441337,-0.000338235,-0.0148596,0.0818215,-0.083101,0.032503
189658,0.495181,2.09241,0.281488,0.671006,1.00567,-0.0133258,0.80671,-0.0813233,-0.0133924,-0.0472842,-0.0198535,0.00117823,0.00615324,-0.044122,-0.000364046,-0.0136974,0.0788946,-0.0816241,0.0308104
189708,0.493922,2.14926,0.281268,0.694027,1.01469,-0.014554,0.803123,-0.111769,-0.0430536,-0.0472837,-0.019853,0.00115095,0.00615201,-0.0441087,-0.000389552,-0.0185411,0.0819796,-0.0819552,0.0311821
189759,0.495276,2.21129,0.28103,0.716786,1.02595,-0.0147017,0.768338,-0.0712103,-0.0196171,-0.0472832,-0.0198526,0.00112321,0.00615087,-0.0440961,-0.000412922,-0.0138805,0.0862237,-0.0806157,0.0297733
189809,0.495538,2.27493,0.280757,0.742922,1.0372,-0.0166941,0.876223,-0.0851,-0.0595636,-0.0472826,-0.0198521,0.0010949,0.00614942,-0.0440813,-0.000435509,-0.0141929,0.0868938,-0.0800815,0.0292426
189859,0.338489,1.05904,0.279553,0.754506,0.696592,-0.016865,0.841997,-0.128542,-0.0260611,-0.0472819,-0.0198515,0.00106365,0.006148,-0.0440666,-0.000456604,-0.0196411,0.0878179,-0.0787345,0.0278288
189910,0.367298,1.0997,0.279281,0.78814,0.704701,-0.016767,0.837207,-0.0631174,-0.0151157,-0.0472813,-0.0198509,0.00103187,0.00614676,-0.0440526,-0.000475624,-0.0113708,0.088131,-0.0766148,0.0255843
189960,0.396888,1.1409,0.279058,0.822311,0.710071,-0.0167698,0.886075,-0.11654,-0.0203991,-0.0472806,-0.0198503,0.000999562,0.00614525,-0.0440367,-0.000494032,-0.0158815,0.087566,-0.0753755,0.0246709
190011,0.428805,1.18322,0.278905,0.854338,0.71497,-0.0155423,0.833199,-0.10676,0.00517941,-0.0472799,-0.0198498,0.000966886,0.00614388,-0.0440211,-0.000513296,-0.0189766,0.0889282,-0.0767504,0.0260936
190061,0.463085,1.2278,0.278652,0.89107,0.723215,-0.0202359,0.910598,-0.0553002,-0.112182,-0.0472791,-0.0198492,0.000933757,0.0061426,-0.0440038,-0.000530347,-0.00882446,0.0938259,-0.0739195,0.0232976
190111,0.498361,1.27219,0.278346,0.92475,0.726939,-0.0207068,0.88106,-0.118892,-0.0302076,-0.0472783,-0.0198486,0.000899975,0.00614114,-0.0439862,-0.000549224,-0.0162636,0.0953555,-0.076163,0.0256678
190162,0.341206,0.812638,0.278,0.919128,0.599159,-0.0213783,0.964796,-0.134236,-0.036787,-0.0472774,-0.019848,0.000865367,0.00614008,-0.0439675,-0.000565478,-0.0140235,0.0987141,-0.0733496,0.0223323
190212,0.384023,0.848087,0.277641,0.958763,0.60234,-0.0222463,0.931117,-0.0909225,-0.0341692,-0.0472765,-0.0198473,0.000830101,0.00613923,-0.0439497,-0.000578974,-0.00746819,0.0996678,-0.0697716,0.0185858
190262,0.306433,0.631171,0.277314,0.970166,0.537836,-0.0245975,0.982853,-0.155941,-0.0702124,-0.0472756,-0.0198467,0.000794103,0.00613816,-0.0439289,-0.000592267,-0.0148497,0.10316,-0.0688445,0.0180148
190313,0.353467,0.662212,0.276852,1.01392,0.538188,-0.0248117,1.00392,-0.133402,-0.0207977,-0.0472746,-0.0198461,0.00075737,0.00613768,-0.0439084,-0.000605408,-0.00970397,0.107608,-0.0688434,0.0179742
190363,0.402241,0.693362,0.276427,1.05749,0.538999,-0.0250638,1.01881,-0.115024,-0.0232639,-0.0472735,-0.0198454,0.000719894,0.00613709,-0.0438866,-0.000616576,-0.00847892,0.111269,-0.0662645,0.0153075
190414,0.453011,0.724758,0.275944,1.10481,0.537056,-0.0282472,1.10535,-0.170713,-0.0831175,-0.0472724,-0.0198447,0.000681628,0.00613656,-0.0438628,-0.00062772,-0.0153405,0.111401,-0.0662671,0.0153273
190464,0.50375,0.755506,0.276272,1.14612,0.535198,-0.0276615,1.03659,-0.127965,-0.0138216,-0.0472703,-0.0198435,0.000612076,0.00613654,-0.0438402,-0.00063895,-0.0112561,0.114267,-0.0670643,0.0159524
190514,0.557357,0.786511,0.276137,1.19403,0.535271,-0.030406,1.15976,-0.107809,-0.0789566,-0.0472686,-0.0198426,0.00055823,0.00613632,-0.0438135,-0.000647608,-0.0108578,0.117106,-0.0636415,0.0124036
190565,0.455031,0.615755,0.276248,1.20002,0.482643,-0.0306396,1.11964,-0.154835,-0.0338192,-0.0472668,-0.0198417,0.000504447,0.00613638,-0.0437872,-0.000656499,-0.0144938,0.11998,-0.0637349,0.0126758
190615,0.512276,0.641901,0.276058,1.24693,0.480682,-0.0317014,1.12896,-0.119825,-0.0443439,-0.047265,-0.0198408,0.000450441,0.00613668,-0.0437606,-0.000665866,-0.0122552,0.12114,-0.0646489,0.0136255
190666,0.448577,0.53147,0.27607,1.26535,0.445601,-0.0344127,1.20631,-0.118234,-0.084343,-0.0472631,-0.0198399,0.000396405,0.00613693,-0.0437304,-0.000673698,-0.0139615,0.124027,-0.0630259,0.0115777
190716,0.50804,0.554917,0.276159,1.31231,0.44176,-0.0369612,1.18362,-0.138151,-0.0810347,-0.0472606,-0.0198388,0.000326795,0.00613732,-0.0437002,-0.000681425,-0.0185423,0.126053,-0.0631065,0.0116564
190766,0.46369,0.476052,0.276462,1.33313,0.415655,-0.0373971,1.21181,-0.0842791,-0.0437183,-0.047258,-0.0198376,0.000257716,0.00613796,-0.0436687,-0.000688349,-0.0135616,0.128963,-0.0623858,0.0108791
190817,0.527359,0.497574,0.275988,1.38591,0.414217,-0.0417266,1.29122,-0.098216,-0.115135,-0.0472559,-0.0198368,0.000203858,0.0061384,-0.0436333,-0.000695312,-0.018121,0.131825,-0.0625754,0.0110968
190867,0.49568,0.438186,0.275729,1.41054,0.392786,-0.0418883,1.23889,-0.0993191,-0.0367393,-0.0472538,-0.0198359,0.000149698,0.00613902,-0.0435985,-0.000702304,-0.0210432,0.135605,-0.0628129,0.011325
190917,0.562587,0.457731,0.275161,1.46607,0.393753,-0.0460902,1.37064,-0.0402507,-0.115221,-0.0472515,-0.019835,9.48225e-05,0.00613979,-0.0435593,-0.000707678,-0.0158124,0.13848,-0.0605151,0.00890383
190968,0.537234,0.410659,0.275251,1.4925,0.375608,-0.0473988,1.32193,-0.0848202,-0.0683851,-0.0472485,-0.0198339,2.46841e-05,0.00614046,-0.0435203,-0.000714248,-0.0198831,0.141296,-0.0625004,0.0109735
191018,0.606524,0.428607,0.274992,1.54654,0.37345,-0.0508811,1.395,-0.0825795,-0.108292,-0.0472454,-0.0198328,-4.55093e-05,0.00614133,-0.043479,-0.000719798,-0.0200728,0.141512,-0.0610224,0.00940212
191069,0.586862,0.389965,0.274525,1.57727,0.360296,-0.0537703,1.40107,-0.0387506,-0.0994205,-0.0472428,-0.019832,-0.000100765,0.00614215,-0.0434354,-0.000725444,-0.0178967,0.145185,-0.0614244,0.00980648
191119,0.658536,0.406758,0.274606,1.62813,0.358037,-0.0547843,1.38975,-0.0694891,-0.0674105,-0.0472388,-0.0198307,-0.000186105,0.00614288,-0.0433915,-0.000731256,-0.0227072,0.147056,-0.0617359,0.01012
191169,0.639144,0.373372,0.275491,1.65585,0.343958,-0.0572136,1.47376,-0.0584144,-0.109385,-0.0472339,-0.0198292,-0.00028492,0.00614385,-0.0433449,-0.000736255,-0.0187446,0.147095,-0.0603376,0.0086244
191220,0.711816,0.388509,0.276435,1.70203,0.341146,-0.0570123,1.38077,-0.0588828,-0.0556307,-0.0472283,-0.0198275,-0.000396533,0.00614463,-0.0432996,-0.000740972,-0.01927,0.148851,-0.059875,0.00813708
191270,0.693734,0.359532,0.277773,1.72883,0.326721,-0.0598352,1.52725,-0.092851,-0.127604,-0.0472226,-0.0198259,-0.000505531,0.00614545,-0.0432474,-0.000745578,-0.0241946,0.153066,-0.05953,0.00794539
191320,0.767949,0.373449,0.279073,1.77597,0.324518,-0.0612348,1.46486,-0.0497754,-0.0973711,-0.047216,-0.0198241,-0.000626346,0.00614615,-0.0431964,-0.000749454,-0.0238267,0.157257,-0.0583826,0.00674066
191371,0.751805,0.348152,0.280256,1.80192,0.315244,-0.0639391,1.53395,-0.0161688,-0.12885,-0.0472102,-0.0198226,-0.000729841,0.00614661,-0.0431424,-0.000753033,-0.0235273,0.158802,-0.0581194,0.00628719
191421,0.83093,0.362135,0.280456,1.85468,0.314552,-0.0656667,1.53216,-0.0479353,-0.0976315,-0.0472051,-0.0198213,-0.00081742,0.00614692,-0.0430861,-0.000756516,-0.0284503,0.16383,-0.0580018,0.00616106
191472,0.815479,0.339759,0.281641,1.88244,0.307354,-0.066685,1.62471,-0.00435547,-0.10235,-0.0471991,-0.0198198,-0.000916991,0.00614706,-0.0430258,-0.00075911,-0.0236126,0.168729,-0.056199,0.00463566
191522,0.896823,0.353467,0.282269,1.93609,0.30975,-0.0660046,1.60071,0.0132586,-0.0585403,-0.0471931,-0.0198184,-0.00101431,0.00614681,-0.0429674,-0.000761556,-0.0266892,0.165803,-0.055958,0.00441727
191572,0.881234,0.333692,0.284011,1.96244,0.30263,-0.0673444,1.67079,-0.0212415,-0.120043,-0.0471861,-0.0198169,-0.00112231,0.00614634,-0.0429036,-0.000763335,-0.0331315,0.166211,-0.0549847,0.00322947
191623,0.965441,0.347469,0.284578,2.01625,0.307268,-0.0716788,1.6304,0.0443906,-0.163944,-0.04718,-0.0198156,-0.00121413,0.00614559,-0.0428401,-0.000764087,-0.0246885,0.167551,-0.0532465,0.0014151
191673,0.951748,0.33039,0.285667,2.03966,0.303643,-0.0720701,1.60275,0.0275333,-0.0992479,-0.0471739,-0.0198143,-0.00130336,0.00614441,-0.0427752,-0.000765318,-0.0329799,0.169736,-0.0541241,0.0023652
191724,1.03756,0.344508,0.286606,2.09345,0.307535,-0.075337,1.69621,0.0213866,-0.154249,-0.0471668,-0.0198129,-0.00140335,0.00614292,-0.0427057,-0.00076606,-0.034063,0.171788,-0.0533013,0.00149879
191774,1.02254,0.329294,0.288136,2.11558,0.30644,-0.0765634,1.66237,0.0659286,-0.128825,-0.0471597,-0.0198115,-0.00149996,0.00614106,-0.042636,-0.000766394,-0.0307141,0.17474,-0.0525239,0.000703661
191824,1.10892,0.343771,0.289893,2.16332,0.312741,-0.0782951,1.65984,0.0741427,-0.139043,-0.0471507,-0.0198098,-0.00161839,0.00613877,-0.0425646,-0.000767076,-0.0370109,0.176646,-0.0534358,0.00149807
191875,1.08827,0.329855,0.29337,2.18036,0.311709,-0.080804,1.77158,0.067366,-0.188187,-0.0471399,-0.0198079,-0.00175625,0.00613604,-0.0424874,-0.000768122,-0.038903,0.178322,-0.0543365,0.00241813
191925,1.17177,0.344503,0.296905,2.22394,0.318842,-0.0812507,1.74721,0.0972039,-0.143517,-0.0471272,-0.0198057,-0.00191167,0.006133,-0.0424106,-0.00076809,-0.0331166,0.180017,-0.051742,-7.83523e-05
191975,1.15032,0.332353,0.300724,2.23791,0.318784,-0.0807034,1.76419,0.0842985,-0.136864,-0.0471158,-0.0198037,-0.00204756,0.00612945,-0.0423302,-0.000768803,-0.0392804,0.18341,-0.053535,0.00179824
192026,1.23627,0.348106,0.304053,2.28503,0.325257,-0.0831665,1.81944,0.0772565,-0.186447,-0.0471036,-0.0198017,-0.00218817,0.00612562,-0.0422471,-0.000769054,-0.0353994,0.185929,-0.0526534,0.000689594
192076,1.2125,0.337205,0.308723,2.29595,0.325909,-0.0815583,1.79489,0.103912,-0.132197,-0.0470907,-0.0197996,-0.00233243,0.00612145,-0.0421637,-0.000769906,-0.0336078,0.189227,-0.0543379,0.0024341
192127,1.29799,0.3537,0.312872,2.34215,0.3307,-0.0838213,1.88378,0.0466972,-0.198923,-0.0470769,-0.0197975,-0.00247957,0.00611682,-0.0420744,-0.000770756,-0.0392222,0.192479,-0.0541783,0.00245699
192177,1.27486,0.344058,0.317314,2.35614,0.330453,-0.0821565,1.85981,0.0857017,-0.132899,-0.0470647,-0.0197956,-0.00260749,0.00611207,-0.0419864,-0.000771499,-0.0387873,0.19502,-0.0539793,0.00224575
192227,1.36372,0.361408,0.321101,2.40518,0.338513,-0.0853309,1.91151,0.116299,-0.215328,-0.0470516,-0.0197936,-0.00273834,0.00610694,-0.0418951,-0.000771703,-0.0354916,0.195779,-0.0527783,0.000656931
192278,1.33948,0.352701,0.325804,2.41866,0.336531,-0.0861099,1.90003,0.0576018,-0.191446,-0.0470389,-0.0197918,-0.00286132,0.00610157,-0.0418028,-0.000772614,-0.0424627,0.197331,-0.0550589,0.0030044
192328,1.44076,0.368131,0.328057,2.48592,0.339539,-0.0913246,1.93524,0.0993401,-0.208473,-0.0470255,-0.0197898,-0.00298649,0.0060962,-0.0417105,-0.000773211,-0.0393914,0.199303,-0.0537584,0.00197014
192378,1.4256,0.357535,0.331304,2.51703,0.336577,-0.0938537,1.95102,0.122098,-0.182157,-0.0470124,-0.0197879,-0.00310542,0.0060962,-0.0417105,-0.000773679,-0.0382841,0.202997,-0.0533796,0.00158223
192429,1.5301,0.37319,0.333581,2.58579,0.338457,-0.098813,2.00009,0.0785373,-0.21152,-0.0469983,-0.019786,-0.0032274,0.0060962,-0.0417105,-0.000774273,-0.0417109,0.206575,-0.0538011,0.00201449
192479,1.51357,0.363025,0.336892,2.6178,0.335132,-0.104727,2.03802,0.117633,-0.260842,-0.0469847,-0.019784,-0.00334315,0.0060962,-0.0417105,-0.000774246,-0.0359483,0.21463,-0.0517452,-9.09885e-05
192530,1.62324,0.37893,0.338467,2.69173,0.33698,-0.10862,2.09043,0.0756493,-0.189973,-0.0469711,-0.0197822,-0.00345275,0.0060962,-0.0417105,-0.000774602,-0.0414434,0.219053,-0.0530611,0.00125584
192580,1.60707,0.369146,0.341261,2.72812,0.333423,-0.114577,2.15129,0.111341,-0.264936,-0.0469578,-0.0197803,-0.0035569,0.0060962,-0.0417105,-0.000774543,-0.0385526,0.220968,-0.0516319,-0.000204237
192630,1.72221,0.385273,0.342216,2.80501,0.336096,-0.119491,2.14012,0.0885978,-0.210839,-0.0469446,-0.0197785,-0.00365555,0.0060962,-0.0417105,-0.000774608,-0.0378773,0.224539,-0.0520553,0.000218956
192681,1.70808,0.375803,0.34391,2.84624,0.331515,-0.126596,2.23145,0.0843984,-0.282955,-0.0469328,-0.0197769,-0.00374179,0.0060962,-0.0417105,-0.000774805,-0.0425167,0.226453,-0.0524744,0.000653593
192731,1.83471,0.392208,0.342425,2.93241,0.336591,-0.132723,2.17741,0.124302,-0.209115,-0.0469229,-0.0197756,-0.00380943,0.0060962,-0.0417105,-0.000775154,-0.0446565,0.23113,-0.0531257,0.00114116
192782,1.82568,0.383086,0.341867,2.98203,0.335086,-0.141772,2.30667,0.134425,-0.301064,-0.0469142,-0.0197744,-0.00386787,0.0060962,-0.0417105,-0.000775421,-0.0431294,0.233305,-0.0528478,0.000856249
192832,1.9581,0.399886,0.339839,3.07093,0.340922,-0.149002,2.25121,0.135203,-0.236662,-0.0469042,-0.019773,-0.00393156,0.0060962,-0.0417105,-0.00077624,-0.0464292,0.23787,-0.0544331,0.0024763
192882,1.94787,0.391087,0.338953,3.11872,0.339351,-0.156394,2.33907,0.128408,-0.277638,-0.0468952,-0.0197718,-0.00398685,0.0060962,-0.0417105,-0.000776713,-0.043011,0.241758,-0.0533888,0.00140819
192933,2.08596,0.408328,0.336443,3.21078,0.345569,-0.165364,2.33727,0.13737,-0.278008,-0.0468849,-0.0197704,-0.00404672,0.0060962,-0.0417105,-0.000776735,-0.0448051,0.242875,-0.0522495,6.4222e-05
192983,2.07019,0.399929,0.336549,3.25147,0.344575,-0.171093,2.36953,0.136407,-0.275269,-0.0468735,-0.0197688,-0.00411045,0.0060962,-0.0417105,-0.000777345,-0.0481664,0.247237,-0.0539585,0.00181111
193033,2.20966,0.417813,0.334855,3.34117,0.3523,-0.179646,2.41036,0.162747,-0.29617,-0.0468609,-0.0197671,-0.00417644,0.0060962,-0.0417105,-0.000777863,-0.0458431,0.251529,-0.0538992,0.00157222
193084,2.19064,0.409897,0.335231,3.38111,0.353107,-0.187178,2.46564,0.166173,-0.331511,-0.0468485,-0.0197653,-0.00423951,0.0060962,-0.0417105,-0.000778647,-0.0463331,0.254904,-0.0547191,0.00240978
193134,2.3357,0.428498,0.332988,3.47308,0.360094,-0.194639,2.4707,0.140994,-0.280162,-0.0468359,-0.0197635,-0.00429871,0.0060962,-0.0417105,-0.000780036,-0.0505256,0.259068,-0.0564815,0.00438818
193185,2.31332,0.42106,0.333652,3.51212,0.361295,-0.203869,2.55944,0.168916,-0.386787,-0.0468224,-0.0197616,-0.00435973,0.0060962,-0.0417105,-0.000781061,-0.0461093,0.26238,-0.0555273,0.00341353
193235,2.45525,0.440816,0.333481,3.59567,0.369253,-0.210058,2.52075,0.153565,-0.30398,-0.0468058,-0.0197592,-0.00442842,0.0060962,-0.0417105,-0.000782317,-0.049923,0.266131,-0.0563639,0.00444516
193285,2.42155,0.434264,0.337055,3.62156,0.369352,-0.215527,2.59144,0.142514,-0.373937,-0.0467878,-0.0197565,-0.00450044,0.0060962,-0.0417105,-0.000783423,-0.0516384,0.268004,-0.0562006,0.00427708
193336,2.56469,0.455065,0.337589,3.70447,0.37903,-0.221062,2.59785,0.182489,-0.314472,-0.0467699,-0.0197539,-0.0045646,0.0060962,-0.0417105,-0.000784791,-0.0493892,0.268925,-0.0577506,0.0058566
193386,2.52904,0.448995,0.341374,3.73009,0.380531,-0.225622,2.6537,0.17111,-0.371509,-0.0467517,-0.019751,-0.00462723,0.0060962,-0.0417105,-0.000785949,-0.0535865,0.271625,-0.0575488,0.00564775
193436,2.678,0.47068,0.341264,3.81633,0.38939,-0.232779,2.64587,0.164358,-0.347448,-0.0467346,-0.0197484,-0.00467891,0.0060962,-0.0417105,-0.000786736,-0.055777,0.274489,-0.0564573,0.00453242
193487,2.82725,0.493321,0.341598,3.90034,0.401928,-0.240094,2.66346,0.237233,-0.365241,-0.0467167,-0.0197456,-0.0047257,0.0060962,-0.0417105,-0.00078773,-0.0519103,0.277933,-0.0589222,0.00704202
193537,2.97667,0.516933,0.342323,3.98403,0.411047,-0.248398,2.71702,0.168499,-0.39943,-0.0466981,-0.0197427,-0.00476676,0.0060962,-0.0417105,-0.000788509,-0.0568218,0.280552,-0.0585475,0.00665864
193588,3.12871,0.541309,0.342774,4.06752,0.421723,-0.25402,2.71862,0.200429,-0.348024,-0.0466796,-0.0197398,-0.00479968,0.0060962,-0.0417105,-0.000789024,-0.0527994,0.286713,-0.0574368,0.00552663
193638,3.05404,0.531268,0.345995,4.08576,0.422512,-0.260649,2.82671,0.204411,-0.443303,-0.0466629,-0.0197371,-0.0048281,0.0060962,-0.0417105,-0.00078934,-0.0505341,0.290423,-0.0561712,0.0042375
193688,3.21734,0.556001,0.344233,4.17975,0.429966,-0.270139,2.7997,0.138804,-0.401818,-0.0466472,-0.0197345,-0.0048482,0.0060962,-0.0417105,-0.000789784,-0.054603,0.294039,-0.0584892,0.00659856
193739,3.1512,0.545683,0.345374,4.20487,0.428703,-0.277032,2.85211,0.168707,-0.428519,-0.0466329,-0.019732,-0.00486517,0.0060962,-0.0417105,-0.00079017,-0.0518208,0.296183,-0.0580151,0.00593766
193789,3.32554,0.570588,0.34157,4.30876,0.437829,-0.285818,2.89263,0.174026,-0.368373,-0.0466193,-0.0197296,-0.00487539,0.0060962,-0.0417105,-0.000790636,-0.053738,0.299215,-0.0584986,0.00642904
193840,3.264,0.560167,0.341642,4.33701,0.435438,-0.292813,2.88358,0.148877,-0.427071,-0.046606,-0.0197271,-0.00488406,0.0060962,-0.0417105,-0.000791247,-0.0550351,0.298718,-0.0596947,0.00728974
193890,3.44428,0.585696,0.337454,4.44201,0.445827,-0.301774,2.92788,0.198855,-0.379713,-0.0465926,-0.0197246,-0.00488692,0.0060962,-0.0417105,-0.000791857,-0.0512551,0.302666,-0.0584186,0.00598845
193940,3.38649,0.575138,0.336498,4.47355,0.443993,-0.310674,2.92943,0.161005,-0.463272,-0.0465803,-0.0197222,-0.00488827,0.0060962,-0.0417105,-0.000792809,-0.0552554,0.302221,-0.0596601,0.00760421
193991,3.57497,0.601079,0.331105,4.58249,0.452693,-0.324133,2.97674,0.164331,-0.467081,-0.0465677,-0.0197197,-0.00488393,0.0060962,-0.0417105,-0.000794012,-0.0529765,0.306983,-0.0602841,0.00823673
194041,3.52226,0.590102,0.328402,4.6157,0.452653,-0.329157,2.9104,0.197838,-0.37416,-0.0465568,-0.0197174,-0.004879,0.0060962,-0.0417105,-0.000795106,-0.0518185,0.304192,-0.0587419,0.00666722
194091,3.72085,0.616328,0.32133,4.72628,0.462307,-0.344882,2.94529,0.183098,-0.500476,-0.0465456,-0.0197151,-0.00486863,0.0060962,-0.0417105,-0.000796215,-0.0623236,0.303887,-0.0582701,0.00618729
194142,3.66701,0.605549,0.318498,4.75578,0.463904,-0.353644,2.90309,0.230882,-0.466097,-0.0465344,-0.0197126,-0.00485702,0.0060962,-0.0417105,-0.00079716,-0.0595047,0.305353,-0.0570477,0.00512251
194192,3.87274,0.632491,0.310365,4.86474,0.476678,-0.369227,2.90768,0.244742,-0.500134,-0.0465235,-0.0197102,-0.00484051,0.0060962,-0.0417105,-0.000797721,-0.0573009,0.307756,-0.0550224,0.00306329
194243,3.81934,0.621813,0.306616,4.89553,0.47848,-0.379069,2.9541,0.237674,-0.493854,-0.0465127,-0.0197076,-0.00482269,0.0060962,-0.0417105,-0.000798415,-0.0620816,0.312589,-0.0559057,0.00396189
194293,4.02734,0.650066,0.298993,5.00666,0.491642,-0.390689,3.05029,0.250817,-0.451067,-0.0465007,-0.0197048,-0.00479706,0.0060962,-0.0417105,-0.000799177,-0.062467,0.31723,-0.0567761,0.0048469
194343,3.96992,0.639836,0.295926,5.03264,0.492793,-0.402386,2.97648,0.22804,-0.562542,-0.0464889,-0.0197018,-0.0047701,0.0060962,-0.0417105,-0.000799895,-0.0610026,0.317498,-0.0573637,0.00544342
194394,4.18264,0.66907,0.287972,5.14506,0.506354,-0.417011,3.11933,0.258724,-0.527315,-0.0464767,-0.0196988,-0.00473602,0.0060962,-0.0417105,-0.000800559,-0.0622297,0.322914,-0.0582695,0.00636229
194444,4.12364,0.65894,0.284669,5.17386,0.508217,-0.426177,3.09998,0.248445,-0.530855,-0.0464646,-0.0196956,-0.00470057,0.0060962,-0.0417105,-0.000801316,-0.0651143,0.324663,-0.0616555,0.00997743
194494,4.34121,0.689159,0.276496,5.28468,0.521549,-0.440128,3.13057,0.255013,-0.530612,-0.0464522,-0.0196923,-0.00465748,0.0060962,-0.0417105,-0.000801766,-0.0624016,0.325688,-0.0613,0.00961289
194545,4.56347,0.720052,0.267543,5.396,0.5344,-0.456314,3.13607,0.246678,-0.574927,-0.04644,-0.0196891,-0.00460888,0.0060962,-0.0417105,-0.000801961,-0.0620289,0.328531,-0.060146,0.00843844
194595,4.79277,0.751345,0.25705,5.51314,0.546099,-0.471609,3.20559,0.225555,-0.544979,-0.0464288,-0.0196861,-0.00455755,0.0060962,-0.0417105,-0.000802001,-0.061407,0.332248,-0.060883,0.00918564
194646,5.02665,0.783279,0.245968,5.62767,0.557977,-0.485466,3.15856,0.230573,-0.518476,-0.0464176,-0.0196832,-0.00450081,0.0060962,-0.0417105,-0.000801914,-0.0642999,0.335799,-0.0643217,0.0126761
194696,5.26501,0.815841,0.234225,5.74823,0.570151,-0.503006,3.2873,0.237958,-0.595438,-0.0464066,-0.0196803,-0.00443858,0.0060962,-0.0417105,-0.000801789,-0.0616033,0.339564,-0.0640581,0.0124081
194746,5.50541,0.849322,0.222641,5.86646,0.582569,-0.517802,3.2976,0.244208,-0.557517,-0.0463951,-0.0196773,-0.00436722,0.0060962,-0.0417105,-0.000801717,-0.0638697,0.343984,-0.0656344,0.0136522
194797,5.75025,0.883398,0.210515,5.98416,0.592725,-0.532809,3.29621,0.200764,-0.565442,-0.0463836,-0.0196744,-0.00429022,0.0060962,-0.0417105,-0.000801843,-0.0684046,0.346704,-0.0661592,0.0141817
194847,5.9968,0.91834,0.198563,6.10099,0.606625,-0.55047,3.33634,0.277513,-0.636004,-0.0463717,-0.0196713,-0.00420346,0.0060962,-0.0417105,-0.000802264,-0.0585862,0.34763,-0.0655985,0.0137854
194897,6.24767,0.953883,0.186024,6.21816,0.615774,-0.565991,3.35357,0.184591,-0.597459,-0.0463599,-0.0196683,-0.0041109,0.0060962,-0.0417105,-0.00080314,-0.0680996,0.350992,-0.0679298,0.0161456
194948,6.50013,0.990153,0.173722,6.33636,0.626885,-0.580999,3.43232,0.226201,-0.605288,-0.0463476,-0.0196652,-0.00400802,0.0060962,-0.0417105,-0.000804291,-0.062696,0.355278,-0.0675216,0.015375
194998,6.75418,1.02721,0.16169,6.45167,0.638742,-0.59573,3.43101,0.243901,-0.617441,-0.0463348,-0.0196621,-0.00389467,0.0060962,-0.0417105,-0.000805653,-0.0589116,0.355103,-0.0667555,0.0145975
195049,7.00973,1.06497,0.150016,6.56205,0.647425,-0.607616,3.38614,0.183486,-0.57757,-0.0463217,-0.0196589,-0.0037708,0.0060962,-0.0417105,-0.000807155,-0.0693899,0.353899,-0.0668072,0.0146516
195099,7.26675,1.10337,0.138744,6.67274,0.660073,-0.617169,3.44362,0.266106,-0.547398,-0.0463083,-0.0196557,-0.00363642,0.0060962,-0.0417105,-0.000808713,-0.0633609,0.3552,-0.0670191,0.0148698
195149,7.52803,1.1422,0.12708,6.78407,0.669819,-0.630037,3.46011,0.21079,-0.61651,-0.046295,-0.0196526,-0.00349671,0.0060962,-0.0417105,-0.000810039,-0.0671724,0.355736,-0.0653285,0.0133339
195200,7.79069,1.18164,0.11578,6.8907,0.681671,-0.641868,3.41616,0.256293,-0.612064,-0.0462814,-0.0196495,-0.00334637,0.0060962,-0.0417105,-0.000811288,-0.0659152,0.357734,-0.0665312,0.0145543
195250,8.0547,1.22166,0.104772,6.99849,0.692771,-0.654769,3.48709,0.244453,-0.649411,-0.0462676,-0.0196464,-0.00318549,0.0060962,-0.0417105,-0.000812295,-0.0660992,0.359687,-0.066802,0.015004
195300,8.32016,1.26216,0.094078,7.10379,0.70234,-0.665697,3.4828,0.216915,-0.625327,-0.0462536,-0.0196433,-0.0030142,0.0060962,-0.0417105,-0.000812958,-0.0706946,0.362408,-0.0671654,0.0153685
195351,8.58702,1.30314,0.0836897,7.20621,0.714865,-0.677865,3.46853,0.278963,-0.664949,-0.0462393,-0.0196402,-0.00283269,0.0060962,-0.0417105,-0.000813173,-0.0620516,0.363464,-0.0646817,0.0128458
195401,8.85824,1.34444,0.0728189,7.31115,0.726526,-0.6877,3.51606,0.263529,-0.619584,-0.0462254,-0.0196373,-0.00264694,0.0060962,-0.0417105,-0.000813104,-0.0677461,0.365331,-0.0632555,0.011397
195452,9.13668,1.38581,0.0607214,7.41911,0.735984,-0.70094,3.53195,0.220223,-0.676458,-0.0462122,-0.0196346,-0.00246284,0.0060962,-0.0417105,-0.000812825,-0.0720185,0.365482,-0.0627477,0.0110575
195502,9.41348,1.4278,0.0497588,7.52251,0.751467,-0.712444,3.53228,0.344528,-0.671494,-0.0461983,-0.0196319,-0.00226221,0.0060962,-0.0417105,-0.000812493,-0.0581487,0.366424,-0.060494,0.00877318
195552,9.69174,1.47023,0.039192,7.62418,0.760992,-0.721037,3.53976,0.228259,-0.628217,-0.0461844,-0.0196292,-0.0020518,0.0060962,-0.0417105,-0.000812047,-0.0738493,0.367868,-0.0629492,0.0110837
195603,9.97447,1.51274,0.0282225,7.72852,0.771525,-0.73098,3.5895,0.250431,-0.656531,-0.0461707,-0.0196267,-0.00183818,0.0060962,-0.0417105,-0.000811686,-0.0698373,0.369557,-0.0617683,0.00988683
195653,10.2617,1.55547,0.0168783,7.83068,0.785732,-0.741268,3.54365,0.326521,-0.665147,-0.0461573,-0.0196244,-0.00162143,0.0060962,-0.0417105,-0.000811474,-0.0622065,0.369517,-0.0604642,0.00856432
195703,10.5532,1.59836,0.00515997,7.93511,0.794149,-0.751587,3.5883,0.214108,-0.668025,-0.0461442,-0.0196221,-0.00140165,0.0060962,-0.0417105,-0.000811394,-0.0824645,0.372667,-0.0640322,0.0121759
195754,10.8433,1.6415,-0.00536961,8.03596,0.807954,-0.761363,3.60185,0.328845,-0.686139,-0.0461307,-0.0196199,-0.00116635,0.0060962,-0.0417105,-0.000811526,-0.0690395,0.372566,-0.0617213,0.0100099
195804,11.1322,1.685,-0.0147283,8.13341,0.822164,-0.769628,3.61242,0.345229,-0.683172,-0.0461167,-0.0196178,-0.0009165,0.0060962,-0.0417105,-0.000811779,-0.0695093,0.374932,-0.0594958,0.00775489
195855,11.42,1.72865,-0.0229705,8.22775,0.831424,-0.77767,3.62249,0.255889,-0.704256,-0.0461024,-0.0196157,-0.000653099,0.0060962,-0.0417105,-0.000812192,-0.0799598,0.376051,-0.060822,0.00874385
195905,11.7159,1.77221,-0.0325037,8.32477,0.84641,-0.785541,3.61728,0.375465,-0.685531,-0.0460889,-0.0196138,-0.000396199,0.0060962,-0.0417105,-0.000812586,-0.0675285,0.375751,-0.0591653,0.00706729
195955,12.0138,1.81579,-0.0416462,8.42152,0.856579,-0.792622,3.64162,0.28848,-0.68213,-0.0460755,-0.019612,-0.000132604,0.0060962,-0.0417105,-0.000813019,-0.075899,0.377016,-0.0593759,0.00745806
196006,12.3139,1.85922,-0.050405,8.51601,0.867867,-0.799308,3.62318,0.320402,-0.685891,-0.0460621,-0.0196103,0.000137131,0.0060962,-0.0417105,-0.000813269,-0.0719667,0.379281,-0.056817,0.00486716
196056,12.6163,1.90246,-0.0588288,8.60982,0.878114,-0.806764,3.63456,0.308863,-0.71229,-0.0460488,-0.0196088,0.000412469,0.0060962,-0.0417105,-0.000813493,-0.0764398,0.37948,-0.0578106,0.00587329
196106,12.9239,1.94546,-0.0677224,8.70506,0.88962,-0.813543,3.64537,0.340015,-0.696258,-0.0460359,-0.0196074,0.000686529,0.0060962,-0.0417105,-0.000813629,-0.0766778,0.379683,-0.0588421,0.00691661
196157,13.2369,1.98827,-0.0770556,8.80155,0.903242,-0.8213,3.65459,0.387219,-0.713885,-0.0460234,-0.0196062,0.000959325,0.0060962,-0.0417105,-0.000813623,-0.0734251,0.381825,-0.0573015,0.00500211
196207,13.5523,2.03077,-0.0860536,8.89911,0.912613,-0.82871,3.70226,0.308941,-0.718674,-0.046011,-0.019605,0.00123719,0.0060962,-0.0417105,-0.000813473,-0.0803626,0.382746,-0.0595035,0.00722965
196258,13.8732,2.07294,-0.0955122,8.99737,0.924804,-0.836842,3.70076,0.368235,-0.731396,-0.0459991,-0.019604,0.00151327,0.0060962,-0.0417105,-0.000813254,-0.0720298,0.384804,-0.0581769,0.00606283
196308,14.1967,2.11478,-0.104639,9.09412,0.937855,-0.844983,3.69657,0.390765,-0.743407,-0.0459872,-0.0196031,0.00179382,0.0060962,-0.0417105,-0.000813038,-0.0732531,0.385044,-0.0568054,0.00467476
196358,14.5228,2.15615,-0.113443,9.19138,0.946981,-0.851978,3.73118,0.31736,-0.731913,-0.0459755,-0.0196023,0.00207824,0.0060962,-0.0417105,-0.000812808,-0.0809784,0.386894,-0.0566307,0.00467452
196409,14.8518,2.19704,-0.121918,9.28715,0.961191,-0.858534,3.72345,0.42423,-0.734026,-0.045964,-0.0196017,0.00236589,0.0060962,-0.0417105,-0.000812652,-0.0707494,0.386146,-0.0554079,0.00343737
196459,15.1839,2.23746,-0.130048,9.38298,0.972294,-0.864396,3.74541,0.367768,-0.730671,-0.0459526,-0.0196011,0.00265612,0.0060962,-0.0417105,-0.000812379,-0.0817507,0.385834,-0.059857,0.00793847
196509,15.5219,2.27743,-0.138604,9.47821,0.983367,-0.870241,3.71377,0.370485,-0.727317,-0.0459417,-0.0196006,0.00294226,0.0060962,-0.0417105,-0.000812213,-0.0789868,0.385843,-0.060564,0.0086523
196560,15.863,2.31681,-0.146732,9.57251,0.995748,-0.873045,3.71526,0.404495,-0.676805,-0.0459309,-0.0196003,0.00323019,0.0060962,-0.0417105,-0.000812205,-0.0744479,0.385103,-0.0592486,0.00767311
196610,16.2074,2.35547,-0.154471,9.66607,1.00433,-0.880145,3.71783,0.337705,-0.772378,-0.0459204,-0.0196,0.00351924,0.0060962,-0.0417105,-0.000812331,-0.0782982,0.394729,-0.0595947,0.00802168
196661,16.5552,2.39327,-0.161983,9.76206,1.01274,-0.884853,3.78217,0.344954,-0.734028,-0.0459101,-0.0195999,0.00380884,0.0060962,-0.0417105,-0.000812567,-0.0752097,0.397317,-0.0601453,0.00822505
196711,16.9066,2.4301,-0.169259,9.86045,1.01911,-0.892555,3.84446,0.315696,-0.803148,-0.0458999,-0.0195998,0.00409848,0.0060962,-0.0417105,-0.000812868,-0.0754791,0.397281,-0.0602937,0.00837526
196761,14.8462,2.07972,-0.157125,9.46914,0.945701,-0.88075,3.78253,0.333741,-0.745568,-0.0458914,-0.0195998,0.00432982,0.0060962,-0.0417105,-0.000813153,-0.0747046,0.399362,-0.0595888,0.00783953
196812,15.2123,2.11446,-0.167146,9.57892,0.953299,-0.890989,3.84446,0.332816,-0.80479,-0.0458832,-0.0196001,0.00455799,0.0060962,-0.0417105,-0.00081336,-0.074003,0.400582,-0.0587399,0.00698122
196862,13.6074,1.84131,-0.16138,9.29463,0.896073,-0.885118,3.82394,0.313361,-0.751708,-0.0458759,-0.0196005,0.00474948,0.0060962,-0.0417105,-0.000813473,-0.0773491,0.401873,-0.0588689,0.00693473
196913,13.9826,1.8739,-0.172991,9.41211,0.905147,-0.896614,3.87147,0.360628,-0.807007,-0.0458689,-0.0196011,0.00493936,0.0060962,-0.0417105,-0.000813471,-0.0731007,0.402397,-0.0571072,0.00515255
196963,12.6947,1.65421,-0.171792,9.20214,0.861335,-0.896584,3.86934,0.346569,-0.795227,-0.0458626,-0.0196021,0.00510212,0.0060962,-0.0417105,-0.000813369,-0.0741817,0.404614,-0.0574922,0.0055407
