time,x_hat,y_hat,z_hat,Vx_hat,Vy_hat,Vz_hat,ax_hat,ay_hat,az_hat,ax_bias,ay_bias,az_bias,gx_bias,gy_bias,gz_bias,roll,pitch,yaw,yaw_residual
182000,4.32131e-05,-0.000450008,0.567171,-0.00301065,0.000596486,0.028634,0.034583,-0.360198,-0.00710201,-0.047293,-0.01987,0.002095,0.00821909,-0.0438168,0.0051645,-0.0182673,-0.00133341,0.000744273,-0.0528881
182051,-6.00706e-05,-0.000527877,0.569448,-0.00111837,-0.00374832,0.0350526,-0.0658349,0.0293649,0.0189285,-0.0472925,-0.019875,0.0018202,0.00763307,-0.0443514,0.333198,-0.0152993,0.00537519,0.00225958,-0.0539049
182101,-0.0011778,-0.000512541,0.564653,-0.0199602,-0.000893357,-0.0217928,0.100082,-0.0499758,-0.0103025,-0.0472943,-0.0198663,0.00693191,0.00713493,-0.0416669,0.532546,-0.0201719,-0.00481505,-0.0148749,-0.0368015
182152,-0.00135948,-0.000995409,0.561542,-0.0116265,-0.00581258,-0.0353678,-0.0797201,0.0298317,0.0442219,-0.0472986,-0.0198805,0.00936787,0.0071968,-0.043062,0.57339,-0.0175559,0.00341561,-0.0407754,-0.0110606
182202,-0.00356072,-0.00234912,0.559889,-0.0257821,-0.0164986,-0.0349478,0.0608078,-0.000522532,-0.00804234,-0.0472985,-0.0198781,0.00915392,0.00563269,-0.0412318,0.517655,-0.016916,-0.00231392,-0.0694546,0.0176233
182252,-0.00509835,-0.00269924,0.559056,-0.0284768,-0.0135665,-0.0301678,-0.0170341,-0.0231851,-0.00734997,-0.0472971,-0.0198467,0.00694617,0.00599905,-0.0409835,0.393955,-0.0192972,-0.000868766,-0.0962278,0.0445665
182303,-0.00516742,-0.00386585,0.554125,-0.020428,-0.0163889,-0.046684,-0.0301881,0.0123838,0.0146761,-0.0472995,-0.0200266,0.01844,0.00569516,-0.042252,0.283553,-0.0186974,0.00228479,-0.114275,0.0626136
182353,-0.00536282,-0.00830227,0.551035,-0.0159125,-0.0370025,-0.0500827,-0.0285433,0.0168606,0.00311661,-0.047299,-0.0200837,0.0218472,0.00317125,-0.0440775,0.192428,-0.0179005,0.00599708,-0.129312,0.0773183
182403,-0.0128392,-0.00564484,0.549102,-0.0493914,-0.0159853,-0.0483394,0.0920262,-0.0368555,-0.020237,-0.0472989,-0.0200238,0.01842,0.00668262,-0.0350795,0.154863,-0.0186723,-0.00365619,-0.138106,0.0860957
182454,-0.0194911,-0.00547604,0.547972,-0.068693,-0.0116465,-0.0414187,0.0442055,0.017702,0.0230694,-0.0472917,-0.0198671,0.0096565,0.00763093,-0.0293523,0.116552,-0.0154897,-0.00736567,-0.145002,0.0929788
182504,-0.0237391,-0.00780652,0.547395,-0.0740988,-0.0209421,-0.0366395,-0.0710056,-0.0390804,-0.0479403,-0.0472826,-0.0196418,-0.0027265,0.00682254,-0.0299251,0.0603172,-0.0206584,-0.000552481,-0.150072,0.0980602
182555,-0.0224143,-0.00376247,0.547163,-0.0589389,0.00123544,-0.0311324,-0.0359867,0.0169208,-0.0454445,-0.0472843,-0.0193814,-0.0170876,0.00879385,-0.0323377,0.0254825,-0.0193751,0.00246198,-0.154045,0.102018
182605,-0.0315119,-0.00219174,0.547216,-0.0869573,0.00256121,-0.0235593,0.0948623,0.0150353,-0.00183678,-0.0472938,-0.0191147,-0.0316011,0.00955811,-0.0156825,-0.0287907,-0.0152034,-0.00531604,-0.155323,0.103301
182655,-0.0352013,-0.00257225,0.547554,-0.0862705,0.000229444,-0.0127194,-0.0920824,-0.0366784,0.0831976,-0.0473029,-0.0188773,-0.0443163,0.00943108,-0.0191203,-0.16832,-0.0205291,0.0029998,-0.156632,0.104792
182706,-0.0270935,0.0106609,0.540768,-0.0672436,0.0456124,-0.0403182,0.0609154,0.0215501,0.02563,-0.0472351,-0.0198837,0.00987585,0.0148162,-0.0105051,-0.260388,-0.0159368,-0.00290008,-0.15004,0.0981968
182756,-0.0405943,0.00642256,0.539197,-0.0972381,0.0180376,-0.038666,-0.0299303,0.0106727,-0.00877762,-0.0472398,-0.0198121,0.00606096,0.0110585,-0.0013321,-0.369655,-0.0155476,0.00148524,-0.140567,0.0889135
182806,-0.0392858,0.0114232,0.531083,-0.0746105,0.036153,-0.0658846,-0.0458724,-0.0516676,0.00608826,-0.047167,-0.0207212,0.0547697,0.013697,-0.0143867,-0.448133,-0.0215449,0.00421787,-0.123871,0.0721816
182857,-0.0289912,0.014852,0.528548,-0.0807752,0.0503448,-0.063618,0.113984,0.03777,-0.0239801,-0.0471752,-0.0206151,0.0489591,0.0249682,0.0131993,-0.504143,-0.0145342,-0.00482302,-0.0998258,0.0481785
182907,-0.0401487,0.0181301,0.526941,-0.0859345,0.0384042,-0.0587666,-0.0633826,-0.0311957,-0.0375595,-0.0471826,-0.0204113,0.0379207,0.0169627,0.00786117,-0.54,-0.018988,0.000850224,-0.0763552,0.024689
182958,-0.0432327,0.0193644,0.529364,-0.083911,0.0407146,-0.040728,-0.0163881,-0.0235881,-0.0756798,-0.0472082,-0.0197905,0.00356484,0.0188186,0.00641604,-0.533429,-0.0214461,0.00231196,-0.0484902,-0.00335017
183008,-0.0479525,0.0194228,0.524932,-0.0925163,0.026018,-0.0482326,0.022423,0.0499506,0.0375862,-0.0472002,-0.0200452,0.0177652,0.0146795,0.0153495,-0.479575,-0.016394,0.000452591,-0.0200679,-0.031762
183058,-0.0539775,0.0117415,0.518468,-0.105049,0.0107192,-0.0639439,0.031237,-0.0200346,-0.0161448,-0.047203,-0.0204465,0.0394458,0.0190954,0.0239184,-0.434193,-0.0183354,-0.00247002,0.00474525,-0.0564074
183109,-0.0576289,0.0181072,0.516749,-0.100621,0.0154494,-0.0590451,-0.0470088,-5.93607e-05,-0.00788784,-0.0471963,-0.0203085,0.0320457,0.0153838,0.0212964,-0.357448,-0.0183381,0.00216382,0.0255402,-0.0772008
183159,-0.0647334,0.009074,0.518697,-0.10631,0.008682,-0.0450385,0.0285624,-0.0101848,-0.0602446,-0.0471722,-0.019877,0.00915078,0.0202418,0.0236167,-0.339913,-0.0194473,-0.00051696,0.0434428,-0.0952801
183209,-0.0672582,0.0228526,0.520512,-0.0981843,0.0199218,-0.0296895,-0.0579306,-0.00104352,0.042654,-0.0471403,-0.0195497,-0.00797538,0.0147906,0.0188292,-0.301381,-0.0192232,0.00506779,0.0595371,-0.111366
183260,-0.0721872,-0.00187693,0.519316,-0.110041,-0.0142738,-0.0283175,0.0768691,0.00288534,0.00955963,-0.0471376,-0.0195279,-0.00907707,0.0184816,0.0302422,-0.318696,-0.0197508,-0.00249343,0.0755135,-0.127524
183310,-0.0749064,-0.00906784,0.521329,-0.113028,-0.0294813,-0.0164238,-0.00993319,0.0332214,0.0303392,-0.0470765,-0.0192681,-0.0215878,0.0163111,0.0346433,-0.268221,-0.016558,-0.00186731,0.0914027,-0.143415
183361,-0.076312,0.01088,0.517655,-0.10398,-0.0193863,-0.0237694,-0.0195604,-0.0197907,0.0232096,-0.0471368,-0.0194889,-0.0116748,0.0102266,0.0310715,-0.268221,-0.0183629,-0.000259309,0.10569,-0.157705
183411,-0.0888873,-0.0200744,0.514778,-0.120156,-0.0355933,-0.0270033,0.00769855,-0.0291143,0.0338821,-0.0471724,-0.0196164,-0.00610788,0.0183313,0.0367685,-0.268221,-0.0214555,0.000115122,0.119068,-0.171085
183461,-0.00278172,0.000446506,0.509597,-0.0408053,-0.015268,-0.0386102,-0.00758104,0.0490502,-0.0227041,-0.047252,-0.019814,0.00397565,0.0142031,0.0342775,-0.268221,-0.0164022,-0.000197929,0.134231,-0.186242
183512,-0.00426016,-0.000490731,0.503229,-0.0309791,-0.035818,-0.049627,-0.0133563,-0.0108871,0.0174904,-0.0473561,-0.0200836,0.0165553,0.00534417,0.028762,-0.268221,-0.0174209,0.000167456,0.145045,-0.197055
183562,-0.00319318,-0.000177005,0.497798,-0.037333,-0.00532102,-0.0574449,0.00466127,-0.0388425,-0.00438786,-0.0474139,-0.0202304,0.0232791,0.016258,0.0343269,-0.268221,-0.020988,0.00179842,0.159341,-0.211359
183612,-0.00426545,-0.00225744,0.491349,-0.0295201,-0.0310677,-0.0664946,-0.00390846,0.0561629,-0.00228882,-0.0474935,-0.0204264,0.0321847,0.00720337,0.0301014,-0.268221,-0.015831,-2.61975e-05,0.172718,-0.224718
183663,-0.00340759,-0.00263926,0.485839,-0.0262517,-0.0362299,-0.07323,0.0246738,-0.0411342,-0.0302505,-0.0475377,-0.0205261,0.0363612,0.00521217,0.031233,-0.268221,-0.0208492,-0.00189688,0.186125,-0.238136
183713,-0.00584848,-0.00289948,0.481677,-0.0366851,-0.0189993,-0.0746261,-0.0431196,0.0070941,-0.00460243,-0.0475507,-0.0205523,0.0374584,0.0102978,0.0349924,-0.268221,-0.0189033,0.00324693,0.20035,-0.252371
183764,-0.00388712,-0.00518212,0.478091,-0.0233082,-0.0450717,-0.0764602,0.0628695,0.0383939,-0.0463629,-0.0475375,-0.0205224,0.0363141,0.000388583,0.0329218,-0.268221,-0.0181044,-0.0048438,0.212889,-0.264554
183814,-0.00551599,-0.0033181,0.475478,-0.0241419,-0.0159572,-0.0753659,-0.0711445,-0.0486356,-0.0343962,-0.0475035,-0.020453,0.0338242,0.00850759,0.0342726,-0.268221,-0.0196897,0.00388648,0.225383,-0.277045
183864,-0.00493029,-0.00316529,0.471075,-0.0234878,-0.0149333,-0.0777984,0.0414502,0.0230075,-0.0222902,-0.0475095,-0.0204689,0.0343689,0.00606225,0.0378213,-0.268221,-0.0191798,3.83586e-05,0.238796,-0.290638
183915,-0.00215805,-0.00592358,0.467745,-0.00108997,-0.0338282,-0.0776994,0.00834859,0.0413186,-0.0233021,-0.0474965,-0.0204355,0.033314,0.00171279,0.0290171,-0.268221,-0.0161474,-0.00377326,0.253075,-0.304925
183965,-0.00115197,0.00299831,0.464916,0.0179639,0.0209973,-0.0731873,-0.103605,-0.0375253,0.0477953,-0.0474646,-0.0203617,0.0311172,0.0189257,0.0303362,-0.268221,-0.0127996,0.00579232,0.268334,-0.320182
184016,-0.00301281,0.000169025,0.46291,-0.0013648,0.00590565,-0.0736219,0.129664,-0.0422339,-0.0798559,-0.0474292,-0.0202607,0.0282788,0.0112184,0.0354104,-0.268221,-0.0217879,-0.00329838,0.282854,-0.334676
184066,-0.000646843,0.00392643,0.461058,0.0178901,0.0212806,-0.0717856,-0.0742849,0.0233863,-0.0370607,-0.0473667,-0.0201631,0.0249571,0.0207392,0.0337414,-0.268221,-0.0159324,0.000786027,0.294516,-0.346536
184116,-0.000553106,0.00307722,0.459839,0.00960087,0.0140753,-0.0678724,0.0242184,-0.0279331,-0.0131855,-0.0473,-0.0200568,0.021447,0.0166282,0.0343499,-0.268221,-0.0197044,0.0004298,0.306203,-0.358216
184167,-0.000127448,0.00182157,0.458757,0.00715573,0.00869857,-0.0635287,0.000435354,0.00365372,0.000391006,-0.047231,-0.0199525,0.0178315,0.0156273,0.0339135,-0.268221,-0.019509,0.000506095,0.321303,-0.372965
184217,0.00134558,0.00331037,0.458185,0.0157809,0.00989971,-0.0600237,0.00498626,0.0235952,-0.0263815,-0.0471615,-0.019847,0.0142867,0.0189835,0.0327006,-0.268221,-0.0179459,-0.00170911,0.336358,-0.388021
184267,0.000684209,0.00300226,0.457629,0.0114051,0.0114019,-0.0557673,-0.032708,-0.0264367,-0.00250816,-0.0470943,-0.0197226,0.0108208,0.0194353,0.0349607,-0.268221,-0.0188439,0.00210206,0.347892,-0.399902
184318,0.00174242,0.000987781,0.45748,0.00646885,0.00146729,-0.05207,0.024582,0.0133927,-0.0191984,-0.0470421,-0.0195913,0.00753875,0.016472,0.0296526,-0.268221,-0.0189216,0.000536837,0.359411,-0.411426
184368,0.00260983,0.00515794,0.457289,0.0258883,0.0106107,-0.0477484,-0.0196053,0.0303165,0.00355434,-0.0469924,-0.0194342,0.00441776,0.0281182,0.038197,-0.268221,-0.0174778,-0.0011363,0.371748,-0.423575
184419,0.00287874,0.00527821,0.457462,0.0212224,0.0121684,-0.0430924,-0.0119829,-0.0357858,0.00756836,-0.0469407,-0.0192676,0.00152922,0.0248188,0.0377494,-0.268221,-0.0195221,0.00116174,0.385926,-0.437762
184469,0.00269339,0.00331687,0.454237,0.0165348,0.00783973,-0.0448564,-9.42438e-05,0.0223811,-6.86646e-05,-0.0469577,-0.019331,0.0024458,0.0251169,0.03667,-0.268221,-0.0173576,0.000656539,0.398521,-0.450533
184519,0.00231888,0.00593229,0.450039,0.0234799,0.0172853,-0.0480518,0.00474915,0.0232455,-0.00131512,-0.0469998,-0.0194905,0.00448861,0.0203984,0.0436874,-0.268221,-0.0163317,-0.00356063,0.410321,-0.462344
184570,0.00291247,0.003241,0.446222,0.0158245,0.00809356,-0.0508765,0.00374789,-0.0534534,-0.0123596,-0.0470346,-0.0195994,0.00568078,0.02426,0.0401102,-0.268221,-0.0202565,-8.90763e-06,0.423843,-0.475673
184620,0.00436257,0.00497433,0.444658,0.019986,0.00826304,-0.0500358,0.0039245,0.0325095,-0.0142393,-0.0470127,-0.0195117,0.0047153,0.0252096,0.0453152,-0.268221,-0.0190837,-0.00117104,0.43716,-0.488998
184670,0.0018681,0.00266958,0.443191,0.016866,0.00990018,-0.0486207,-0.0425125,0.00955044,-0.00347137,-0.0469852,-0.0193945,0.00355484,0.0162182,0.0360693,-0.268221,-0.0161396,-0.00181558,0.450482,-0.50268
184721,0.00407899,0.00377469,0.440613,0.0143507,0.00843331,-0.0503504,0.026945,-0.0345089,-0.031559,-0.0469865,-0.0194052,0.00365344,0.0233067,0.0431349,-0.268221,-0.0192662,0.000546861,0.464807,-0.516983
184771,0.002889,0.00258475,0.436728,0.0137369,0.00776943,-0.051991,-0.0330504,0.0265462,0.0074358,-0.0469918,-0.0195192,0.004679,0.0206523,0.0388859,-0.268221,-0.0161265,0.000654941,0.479111,-0.531116
184822,0.00314179,0.00234782,0.432045,0.021525,0.000961515,-0.0551273,0.053434,-0.00868273,-0.00290775,-0.0469772,-0.0197166,0.00641811,0.0145709,0.0326572,-0.268221,-0.0223494,-0.00504047,0.490788,-0.542801
184872,0.00307242,0.00197932,0.426336,0.0139386,0.00512908,-0.059513,-0.0551424,-0.00809197,-0.00453091,-0.0469468,-0.0199645,0.00865338,0.0184494,0.037462,-0.268221,-0.0181115,0.000543476,0.506135,-0.557972
184922,0.00393983,0.0031558,0.420023,0.0181375,0.0147586,-0.0644915,-0.0152403,0.0115592,-0.0073576,-0.0468371,-0.0202776,0.0112533,0.025214,0.0386464,-0.268221,-0.0156606,-0.00142519,0.517928,-0.569772
184973,0.00337717,0.00327513,0.414309,0.0149756,0.0167149,-0.0673708,-0.00954325,-0.0583087,0.0106268,-0.0467314,-0.0205141,0.0130169,0.028614,0.0427851,-0.268221,-0.0192035,0.000872334,0.530349,-0.582184
185023,0.00440513,0.0040859,0.409426,0.0177162,0.0159422,-0.0694725,0.0173303,0.0204379,-0.00139713,-0.0466324,-0.0206589,0.0141218,0.029343,0.0412224,-0.268221,-0.0190756,-0.00142789,0.547224,-0.59906
185074,0.00268431,0.00459146,0.40362,0.0125916,0.0266533,-0.0736401,-0.0290398,0.0143311,-0.0228777,-0.046475,-0.0208752,0.0156397,0.0305612,0.0518567,-0.268221,-0.0156293,-0.00383615,0.560545,-0.612583
185124,0.0030334,0.0050807,0.398601,0.00966277,0.0225741,-0.0755719,-0.00730537,-0.0469394,-0.00393009,-0.0463545,-0.0210107,0.0165528,0.0280145,0.0504035,-0.268221,-0.0182102,-0.000853099,0.573858,-0.62587
185174,0.00290996,0.00518825,0.394039,0.0109437,0.0215711,-0.0772916,0.0238548,0.0146714,-0.0148897,-0.0462886,-0.0210746,0.0169611,0.0314133,0.0524743,-0.268221,-0.0193943,-0.00260364,0.589018,-0.641024
185225,0.00232925,0.00506188,0.390132,0.00798221,0.0208378,-0.0781021,-0.0498385,0.00401051,-0.015789,-0.046286,-0.0210766,0.016974,0.0246525,0.050573,-0.268221,-0.0165782,-0.00181137,0.600623,-0.652638
185275,0.00278351,0.00488386,0.386572,0.00587914,0.019252,-0.0784018,0.0112068,-0.0366302,-0.015027,-0.0463618,-0.0210247,0.0166585,0.0302019,0.0498186,-0.268221,-0.0175095,0.000867229,0.612303,-0.664661
185325,0.00313612,0.00657928,0.382312,0.00458408,0.0199507,-0.0790677,0.0106163,0.0107476,-0.00521374,-0.0463007,-0.0210556,0.0168617,0.0320318,0.0539517,-0.268221,-0.0170898,0.00155752,0.625732,-0.678095
185376,0.00260366,0.00483936,0.378436,0.00921802,0.0176364,-0.0792501,0.012445,0.019608,-0.00559902,-0.0463436,-0.0210361,0.0167304,0.0302137,0.047114,-0.268221,-0.0178098,-0.00400403,0.63741,-0.68943
185426,0.00302626,0.00682128,0.375152,0.00333586,0.0207614,-0.0786582,-0.0301231,-0.0650447,-0.00473785,-0.0464864,-0.0209872,0.0163403,0.0346504,0.0524252,-0.268221,-0.0181097,0.0023379,0.650715,-0.702726
185477,0.00242917,0.00566361,0.372167,0.00368931,0.0174182,-0.0777913,0.0261793,0.0306726,-0.00495338,-0.0467313,-0.0209151,0.0157374,0.0338283,0.0511028,-0.268221,-0.0178821,-0.00138951,0.664089,-0.716449
185527,0.00229219,0.0102492,0.369696,0.00377471,0.0379791,-0.0758632,-0.0453529,-0.00193525,0.00531578,-0.0470707,-0.020843,0.0149768,0.0459876,0.0606575,-0.268221,-0.0158683,-0.00435697,0.677372,-0.729754
185577,0.00133353,0.00766795,0.367449,-0.00288052,0.0270286,-0.0747426,-0.000357244,-0.0563798,-0.0131111,-0.0474859,-0.0207485,0.0140899,0.0401814,0.0597116,-0.268221,-0.0174094,-0.000506509,0.691599,-0.743962
185628,0.00144445,0.00975145,0.365603,-0.00151489,0.0291522,-0.0732423,-0.00526656,0.0103172,-0.0127993,-0.0480193,-0.0206812,0.0131133,0.0421476,0.05961,-0.268221,-0.0169755,4.41158e-05,0.703902,-0.756262
185678,-0.000825464,0.00686037,0.363909,-0.00381885,0.0254259,-0.0716128,-0.000393878,-0.0173799,-0.0114794,-0.0486403,-0.0205876,0.0120667,0.0314889,0.0625071,-0.268221,-0.0198328,-0.00548708,0.716852,-0.769236
185728,0.00014108,0.0092743,0.362572,-0.00478602,0.0256768,-0.0691491,-0.0101931,-0.0418645,0.000309944,-0.0493646,-0.0205388,0.0109776,0.0376616,0.0600358,-0.268221,-0.0184309,0.000409845,0.729663,-0.781844
185779,-0.00023129,0.00703227,0.361363,-0.00309515,0.0208445,-0.0667088,-0.0191595,0.0115011,0.0002985,-0.0501827,-0.0204537,0.00985972,0.0332831,0.0563571,-0.268221,-0.0178431,-0.00157309,0.741534,-0.793719
185829,0.000431761,0.00553278,0.360489,0.00705804,0.0185874,-0.0630294,-0.00724026,0.0148888,0.0214415,-0.0511174,-0.0204016,0.00873445,0.0257142,0.041129,-0.268221,-0.0222159,-0.00967289,0.752402,-0.804441
185880,0.000117557,-0.000936067,0.357432,0.0161602,-0.0178173,-0.0670413,0.00807872,0.0163321,-0.0858583,-0.0512443,-0.0203932,0.00859222,-0.00341962,0.0292997,-0.268221,-0.0330824,0.00101084,0.766108,-0.818233
185930,0.00303692,0.0019758,0.355672,0.0296189,0.0117243,-0.0706315,-0.0809186,0.215423,-0.110364,-0.0520676,-0.0203502,0.00782795,0.0141112,0.0192916,-0.268221,-0.0227511,-0.0180052,0.779664,-0.831543
185980,0.000115285,0.00421575,0.353928,0.0053731,0.0275858,-0.0702382,-0.125624,-0.0778789,-0.0270548,-0.0530237,-0.0201872,0.00700454,0.0183489,0.0453862,-0.268221,-0.0120301,-0.0166432,0.792676,-0.844867
186031,0.0040365,0.00152709,0.352464,0.00947606,-2.84836e-05,-0.0697965,0.00285362,-0.142743,-0.0353727,-0.0542836,-0.0198798,0.00614104,0.00956573,0.0234233,-0.268221,-0.0152553,0.00351585,0.807424,-0.859234
186081,0.00333374,0.0011222,0.351048,0.0068462,0.000974454,-0.0694414,-0.0357067,0.00461731,-0.0353117,-0.0558768,-0.0195372,0.0052428,0.00808737,0.025511,-0.268221,-0.0133105,0.00387962,0.820955,-0.872784
186132,0.00254973,0.00373262,0.349846,0.0149945,0.00419612,-0.0693506,0.109165,-0.000862451,-0.043519,-0.0578633,-0.0191612,0.00432271,0.0107827,0.0403368,-0.268221,-0.0301377,0.000789717,0.832132,-0.884011
186182,0.00268806,0.00258409,0.347716,0.0133877,0.00598487,-0.0666898,-0.0527915,0.069217,0.0275536,-0.0591133,-0.0190007,0.00378061,0.00877726,0.0392548,-0.268221,-0.0225485,-0.00180832,0.845481,-0.897318
186232,0.00539896,0.00193722,0.346016,0.0195231,0.0138315,-0.0632424,-0.0580769,0.026504,0.0373287,-0.060656,-0.0187717,0.00318586,0.00948324,0.0243874,-0.268221,-0.0194957,-0.0109833,0.857521,-0.909426
186283,0.0053287,0.00292588,0.345465,0.0163849,0.0144472,-0.0617836,-0.0152357,-0.0487853,-0.0208521,-0.0633534,-0.0183736,0.00217978,0.0134804,0.0283051,-0.268221,-0.0187811,-0.00818175,0.868631,-0.920495
186333,0.0041161,0.00474895,0.343163,-0.00322884,0.0178851,-0.0591779,-0.128176,-0.0844045,0.0378675,-0.0641818,-0.0182345,0.00191013,0.0159972,0.0453815,-0.268221,-0.00501778,0.000219347,0.881563,-0.933436
186383,0.00520307,0.00553366,0.340204,0.0148349,0.0128716,-0.054797,0.147785,0.00307114,0.0887547,-0.064157,-0.0182381,0.00191774,0.0248824,0.0307588,-0.268221,-0.0240794,0.00180123,0.896654,-0.948538
186434,0.00446273,0.000695283,0.338678,0.00120573,0.00473397,-0.0507498,-0.122064,-0.015195,0.0590487,-0.0655932,-0.018138,0.00149774,0.00398664,0.0281267,-0.268221,-0.00797275,-0.00195619,0.908935,-0.96099
186484,0.00520199,0.00323084,0.336608,0.0059976,0.0049903,-0.0459232,0.103468,-0.0346866,0.0897264,-0.0660495,-0.0181095,0.00137644,0.0146617,0.0294997,-0.268221,-0.0151227,0.00187114,0.921322,-0.973324
186535,0.00375403,0.0026156,0.33571,0.0120881,0.00268862,-0.0451585,0.0718209,0.0388649,-0.00986862,-0.067948,-0.0181423,0.000878754,0.00908423,0.0380186,-0.268221,-0.026381,-0.000741139,0.935061,-0.987089
186585,0.00562714,0.0013693,0.335018,0.0182274,0.00423068,-0.0437206,-0.0415961,0.0563925,0.000787735,-0.0700095,-0.0182678,0.000371898,0.00204484,0.0299404,-0.268221,-0.0260236,-0.00542409,0.947395,-0.999405
186635,0.00465974,0.00413292,0.333369,0.00539827,0.0194445,-0.045123,-0.101507,-0.0169097,-0.0392036,-0.0708716,-0.01836,0.000154461,0.0189119,0.0357593,-0.268221,-0.0152868,-0.0100429,0.958933,-1.0114
186686,0.00446791,0.00347021,0.331034,-0.00087689,0.00865061,-0.0441764,-0.0108724,-0.087494,0.0213404,-0.0707321,-0.0183481,0.000187353,0.0113493,0.0402226,-0.268221,-0.0118693,-0.0015657,0.970528,-1.02291
186736,0.00471634,0.00449324,0.32981,0.00761777,0.00937547,-0.0417691,0.0600099,0.0259659,0.0310183,-0.0720482,-0.0184987,-0.000126825,0.0184663,0.0331635,-0.268221,-0.0192056,0.000933097,0.984503,-1.03669
186786,0.00426081,0.00570852,0.328841,0.00854386,0.0144082,-0.040247,0.00859938,0.00774939,0.0119867,-0.0735619,-0.0186888,-0.000460377,0.0178052,0.0430785,-0.268221,-0.0267221,-0.00364546,0.996297,-1.04848
186837,0.00355685,0.00506191,0.327016,0.00448865,0.0147607,-0.040962,-0.0547805,0.0448304,-0.0178289,-0.0739347,-0.0187563,-0.000547212,0.0186854,0.0436007,-0.268221,-0.0192696,-0.00381256,1.01186,-1.06387
186887,0.00548451,0.00571192,0.326323,0.00444306,0.0196672,-0.0392527,-0.0584728,-0.0029519,0.0113888,-0.0757163,-0.0190273,-0.000932664,0.01811,0.0344018,-0.268221,-0.0148771,-0.00848487,1.02612,-1.07818
186938,0.00421417,0.00623638,0.324821,-0.000117162,0.0178496,-0.0372627,0.0167101,-0.0777004,0.0326977,-0.0763398,-0.0191299,-0.00107418,0.0241266,0.0380904,-0.268221,-0.0165929,-0.00596057,1.04007,-1.09211
186988,0.0049171,0.00430128,0.322701,0.00301869,0.00335992,-0.0373478,0.0231089,-0.0160568,0.00305176,-0.0759918,-0.0190798,-0.00100256,0.011123,0.0343385,-0.268221,-0.0141962,0.00269313,1.054,-1.10601
187038,0.00333696,0.00709124,0.32242,0.00489349,0.0190901,-0.035947,0.0235654,0.0583993,0.0017395,-0.0781155,-0.0194392,-0.00145537,0.0262811,0.0423247,-0.268221,-0.0252919,-0.00541252,1.06786,-1.11987
187089,0.00386108,0.00568469,0.321435,0.00138953,0.0157672,-0.0346251,-0.0461504,-0.0260359,0.013792,-0.0792017,-0.0196268,-0.00166962,0.013755,0.0443158,-0.268221,-0.0232978,-0.0121141,1.07905,-1.13114
187139,0.00338737,0.00546044,0.319666,-0.00510479,0.01343,-0.0345222,-0.074797,-0.0162897,0.00309372,-0.0792411,-0.0196344,-0.00167784,0.0184926,0.0402647,-0.268221,-0.0107935,-0.00689707,1.09249,-1.14418
187190,0.00439786,0.00649899,0.318123,-0.00577738,0.0149234,-0.0342407,-0.00551232,-0.0854938,0.00231361,-0.0794837,-0.0196683,-0.0017222,0.0220333,0.0299556,-0.268221,-0.0124633,-0.0100281,1.10339,-1.15513
187240,0.0025098,0.0038092,0.315809,-0.00448787,-0.00188647,-0.0345265,0.0745659,-0.0476379,0.0039854,-0.0787584,-0.0195519,-0.00158887,0.0130323,0.0373604,-0.268221,-0.0155555,0.00162446,1.11622,-1.16786
187290,0.00349073,0.00352756,0.313753,0.00535976,-0.00134155,-0.0346473,0.0266443,0.0367301,0.00283813,-0.0782299,-0.0194679,-0.00150518,0.012585,0.0249192,-0.268221,-0.0239853,0.00465567,1.12649,-1.17821
187341,-0.000116344,0.00570341,0.311752,-0.000632369,0.0182954,-0.0361919,-0.00854811,0.107929,-0.0273094,-0.0779927,-0.01942,-0.00146689,0.0303684,0.0436964,-0.268221,-0.0365781,-0.0091546,1.13798,-1.18981
187391,0.000564355,0.00271334,0.309909,-0.00858813,0.0142483,-0.0375799,-0.168581,0.0100767,-0.027895,-0.0780051,-0.0194224,-0.00146874,0.0129476,0.040764,-0.268221,-0.0230825,-0.017982,1.15123,-1.20322
187441,0.00329319,0.00240742,0.308242,-0.0149774,0.0103884,-0.0353898,-0.134025,-0.136386,0.0409222,-0.0782774,-0.0194551,-0.00150486,0.0112738,0.0194401,-0.268221,-0.00849469,-0.0184557,1.16269,-1.215
187492,-7.92751e-05,0.00642806,0.305956,-0.0274138,0.00697858,-0.035713,0.0325311,-0.169663,0.00172043,-0.0772466,-0.0194081,-0.00138731,0.0273198,0.0317524,-0.268221,-0.00237229,-0.00727634,1.17583,-1.22795
187542,0.00116724,0.00371882,0.305449,-0.0136457,-0.0116851,-0.0337055,0.131965,-0.0921669,0.0217981,-0.0801344,-0.0194522,-0.00166492,0.0103315,0.0322805,-0.268221,-0.00900022,0.00891958,1.18928,-1.2413
187593,0.00344107,0.00759152,0.305056,0.00375697,-0.000218709,-0.0321644,0.116356,0.0694159,0.0122309,-0.0834961,-0.0195505,-0.00194327,0.0174505,0.0203186,-0.268221,-0.0248783,0.0104153,1.20345,-1.25559
187643,-0.000337934,0.0122547,0.303965,-0.000626515,0.0185899,-0.0311506,-0.0144868,0.140374,0.0126152,-0.0849666,-0.019638,-0.00205337,0.0279374,0.0361321,-0.268221,-0.0327216,0.00228758,1.21786,-1.26993
187693,0.00231317,0.00548771,0.302966,0.00282177,0.0178844,-0.0316069,-0.123469,0.12793,-0.0180941,-0.0867608,-0.0197684,-0.00217884,0.00575083,0.0353692,-0.268221,-0.0364517,-0.0153385,1.23254,-1.28455
187744,0.00777976,0.0115909,0.302109,-0.00673861,0.0324814,-0.0285494,-0.201562,-0.0928928,0.0517149,-0.0888422,-0.0198875,-0.00231556,0.0161425,0.0127992,-0.268221,-0.0220101,-0.0293384,1.24567,-1.29825
187794,0.000684567,0.0193675,0.30132,-0.0341881,0.0293091,-0.0310234,-0.102168,-0.194885,-0.0582609,-0.0912549,-0.0199118,-0.00245987,0.0272001,0.0388191,-0.268221,0.00268177,-0.0194162,1.25928,-1.31189
187844,0.00753439,0.00550645,0.300529,-0.0198464,-0.0174737,-0.0309575,0.116396,-0.246594,-0.0100231,-0.0941425,-0.0198138,-0.0026107,-0.00732259,0.0357393,-0.268221,0.0154429,-0.0029462,1.2695,-1.32177
187895,0.012683,0.0180695,0.299093,0.00968867,-0.0139824,-0.029532,0.337821,-0.0995791,0.0284042,-0.0944507,-0.0198029,-0.00262478,0.0141793,0.0074336,-0.268221,0.00495453,0.0309588,1.2828,-1.33495
187945,-0.00915322,0.0273414,0.297775,0.00831795,0.0102377,-0.0292105,0.300999,0.31595,0.0044384,-0.0952679,-0.0198107,-0.00265861,0.0299721,0.0631491,-0.268221,-0.0381634,0.0422194,1.29531,-1.34899
187996,0.0179089,-0.00418685,0.296598,0.0621935,0.00435013,-0.0280014,-0.0724301,0.49915,0.0213051,-0.0965696,-0.0199109,-0.002711,-0.0239188,0.0189255,-0.268221,-0.073904,-0.00170143,1.30853,-1.36108
188046,0.0158853,0.0351993,0.295517,0.0187897,0.0994105,-0.0278779,-0.499989,0.206557,0.0100393,-0.0982254,-0.020105,-0.00277914,0.0315686,-6.21602e-05,-0.268221,-0.0754556,-0.0545153,1.32414,-1.37597
188096,-0.0176178,0.0305077,0.294545,-0.0882501,0.0788029,-0.0276154,-0.673373,-0.332439,-0.00434971,-0.1002,-0.0202622,-0.00285921,0.0240546,0.0896235,-0.268221,-0.0156837,-0.0952529,1.33115,-1.38781
188147,0.0487605,-0.0165954,0.293655,-0.0237523,-0.0369328,-0.0283363,-0.170562,-0.848286,-0.0232334,-0.102606,-0.0201762,-0.00294521,-0.0476379,-0.0139873,-0.268221,0.0643563,-0.0635612,1.33628,-1.3953
188197,0.0141042,0.0873296,0.2925,-0.0670471,0.00713764,-0.0322498,0.654782,-0.793136,-0.0392027,-0.105789,-0.0198045,-0.00303533,0.0741434,-0.0099833,-0.268221,0.132872,0.0121577,1.34386,-1.39755
188247,-0.0246693,0.0291415,0.291612,-0.0048051,-0.12735,-0.034313,1.46738,-0.190926,-0.0773067,-0.110299,-0.0194182,-0.00313898,0.00959513,0.110654,-0.268221,0.0708043,0.100931,1.34915,-1.40419
188298,0.0947132,-0.0484203,0.290473,0.240836,-0.178101,-0.0412354,1.07468,0.804501,-0.127733,-0.116024,-0.019766,-0.00326513,-0.0852149,-0.0441232,-0.268221,-0.0233908,0.128172,1.34495,-1.40761
188348,0.0517513,0.12298,0.288532,0.252353,0.14517,-0.0417395,0.22649,1.36821,0.179029,-0.122499,-0.0214174,-0.00342423,0.0855781,-0.0595495,-0.268221,-0.115363,0.150825,1.32698,-1.39271
188399,-0.0176429,0.0685046,0.288045,0.167467,0.185647,-0.0392072,-0.562219,1.69087,-0.0561857,-0.129574,-0.0247635,-0.00363537,0.0422782,0.0979827,-0.268221,-0.161598,0.0443178,1.3073,-1.36328
188449,0.122928,-0.049966,0.287437,0.284903,0.135174,-0.0371326,-1.21052,1.01151,-0.0795116,-0.135187,-0.0288577,-0.00386094,-0.0754909,-0.0359681,-0.268221,-0.15448,-0.0542691,1.28338,-1.33531
188499,0.191001,0.0554872,0.28481,0.222934,0.321703,-0.0528589,-1.42829,-0.10155,-0.0996208,-0.138918,-0.032642,-0.00407843,0.00316352,-0.173327,-0.268221,-0.145811,-0.128799,1.23077,-1.28411
188550,0.0592569,0.12294,0.283265,-0.0647461,0.355077,-0.0672145,-1.54261,-0.684402,-0.241479,-0.141557,-0.0356303,-0.00430282,0.0852509,-0.0259013,-0.268221,-0.0312097,-0.144294,1.13348,-1.19424
188600,0.171242,-0.02526,0.283426,0.0263774,0.135844,-0.0553732,-0.702724,-1.09343,-0.0298977,-0.143687,-0.0361032,-0.00448297,-0.00391993,-0.0983352,-0.268221,0.0643581,-0.0439184,1.01954,-1.07624
188650,0.282868,-0.0118428,0.281178,0.121422,0.100185,-0.0601246,0.550878,-0.671239,-0.0912466,-0.146067,-0.0339742,-0.00458532,0.0229544,-0.237232,-0.268221,0.0906661,0.0254926,0.902038,-0.953847
188701,0.255487,0.0340664,0.279257,0.12977,0.0940671,-0.060806,1.01,-0.395546,-0.0139809,-0.149355,-0.0299487,-0.00464091,0.0952956,-0.219853,-0.268221,0.0487866,0.0603818,0.761459,-0.813933
188751,0.283753,-0.0359325,0.279567,0.245635,-0.00314676,-0.0588105,0.944314,0.0207416,-0.0791721,-0.15339,-0.0252561,-0.00467435,0.0967332,-0.207379,-0.268221,-0.0183478,-0.00507545,0.616093,-0.668044
188802,0.392023,-0.0809817,0.279038,0.371623,-0.0531084,-0.0557754,0.00291597,-0.0154285,0.0266838,-0.157011,-0.0211511,-0.00469651,0.10189,-0.285051,-0.268221,-0.017388,-0.046938,0.479907,-0.535031
188852,0.484347,-0.0997064,0.278258,0.444114,-0.0896911,-0.0516577,-0.273254,-0.138991,0.0626287,-0.160418,-0.0174344,-0.00470993,0.123117,-0.349524,-0.268221,-0.0167004,-0.0563957,0.351491,-0.407679
188902,0.550041,-0.0985824,0.277464,0.468937,-0.101719,-0.0505263,-0.441115,-0.170967,-0.00485039,-0.164241,-0.0140194,-0.00471874,0.155525,-0.391654,-0.268221,-0.0190161,-0.0415961,0.236842,-0.29172
188953,0.628267,-0.106876,0.276886,0.497716,-0.124864,-0.0513231,-0.296633,-0.102539,-0.0374794,-0.169165,-0.0108537,-0.00472655,0.175949,-0.437617,-0.268221,-0.0278599,-0.0276393,0.134942,-0.187457
189003,0.79672,-0.166538,0.278539,0.60411,-0.217499,-0.0410664,-0.118069,0.0917786,0.0964851,-0.175502,-0.00793787,-0.0047335,0.148312,-0.536722,-0.254844,-0.0270937,-0.0202704,0.0464495,-0.097726
189053,0.92162,-0.223577,0.278461,0.618617,-0.274933,-0.0400989,-0.0484442,0.0925485,0.0369101,-0.182696,-0.00539927,-0.00473844,0.129226,-0.598885,-0.207906,-0.0198856,-0.015657,0.0607134,-0.112419
189104,1.0362,-0.277718,0.277765,0.6062,-0.32154,-0.0424977,-0.0208429,-0.000868021,-0.00245571,-0.191298,-0.00289246,-0.00474034,0.111699,-0.65312,-0.143649,-0.020826,-0.0115773,0.0738711,-0.125652
189154,1.14419,-0.327945,0.276821,0.577799,-0.363662,-0.0439054,-0.0122593,-0.00338107,0.017437,-0.201562,-0.00033348,-0.00473916,0.0880429,-0.700862,-0.0730772,-0.0220263,-0.00705207,0.0822566,-0.134049
189205,1.25636,-0.382433,0.275072,0.513464,-0.41548,-0.0476935,0.13061,0.0271503,-0.00206566,-0.213581,0.00231778,-0.00473458,0.0432437,-0.743563,-0.000514716,-0.0207106,-0.0130997,0.0853892,-0.13723
189255,1.31518,-0.418484,0.273998,0.438796,-0.423939,-0.0479376,0.022951,0.0232252,0.0175724,-0.227757,0.00518249,-0.00472588,-0.00838628,-0.749583,0.0751574,-0.0184502,-0.008224,0.0815929,-0.133429
189305,1.33479,-0.435948,0.272521,0.331727,-0.374693,-0.0521182,0.0801204,-0.0287448,-0.0519981,-0.243748,0.00819319,-0.00471287,-0.0672735,-0.728489,0.153253,-0.0189445,-0.00576768,0.0738712,-0.125841
189356,1.30875,-0.425605,0.271033,0.197908,-0.276886,-0.0526453,0.127682,-0.00281805,0.00760269,-0.261758,0.0113783,-0.00469567,-0.141067,-0.674438,0.234837,-0.0151851,-0.00646241,0.0622653,-0.114262
189406,1.25736,-0.374403,0.269966,0.0819253,-0.132607,-0.0525178,0.102077,-0.0562319,-0.00238419,-0.281663,0.0147164,-0.00467455,-0.202069,-0.613002,0.310554,-0.0153051,-0.00629154,0.0459863,-0.0979642
189456,1.18094,-0.278786,0.268845,-0.0438918,0.0677445,-0.0522073,0.12418,-0.0890178,-0.00178051,-0.303084,0.0180936,-0.00465111,-0.260222,-0.539764,0.376272,-0.0163042,-0.00821902,0.0237209,-0.0760643
189507,1.06806,-0.12649,0.267519,-0.201346,0.344542,-0.0502447,0.223532,-0.052438,0.0290575,-0.325939,0.0214515,-0.00462666,-0.324275,-0.444409,0.420946,-0.0101411,-0.0190826,-0.00193918,-0.0502934
189557,0.997848,0.0643303,0.267096,-0.270009,0.600465,-0.0480557,0.0583896,-0.102025,0.0090704,-0.350293,0.0247647,-0.00460197,-0.349011,-0.393638,0.434013,-0.0111005,-0.0196261,-0.0300173,-0.0218219
189608,0.921002,0.325532,0.2664,-0.343956,0.940896,-0.0455187,0.133851,-0.119766,0.021081,-0.375589,0.0278115,-0.00458016,-0.365565,-0.340497,0.431857,-0.0103473,-0.0275961,-0.0551684,0.0035809
189658,0.879722,0.623572,0.266349,-0.355553,1.26371,-0.0417002,0.0581096,-0.109412,0.0317192,-0.402119,0.0305134,-0.00456303,-0.36179,-0.313704,0.418998,-0.0106302,-0.0313144,-0.0819393,0.0304356
189708,0.835554,0.969078,0.266667,-0.369658,1.59343,-0.0386495,0.0742727,-0.132803,0.00392818,-0.429606,0.0327218,-0.00455266,-0.359814,-0.279366,0.396208,-0.0120426,-0.0366716,-0.109907,0.0583199
189759,0.837942,1.35718,0.267291,-0.316166,1.93622,-0.0344337,-0.0244904,-0.122446,0.0229731,-0.457979,0.0343465,-0.00455036,-0.336297,-0.269691,0.339547,-0.0135674,-0.0339013,-0.134397,0.0830785
189809,0.835293,1.76533,0.268446,-0.272435,2.24072,-0.031001,0.105058,-0.0863004,-0.00402451,-0.48723,0.0353514,-0.00455649,-0.321891,-0.246435,0.284783,-0.0093862,-0.0418584,-0.15617,0.104561
189859,0.0341675,0.0794184,0.267645,-0.928395,1.42824,-0.0347873,-4.02033e-05,-0.16513,0.0262089,-0.489848,0.0460074,-0.00441175,-0.293951,-0.247349,0.197099,-0.0182015,-0.0405471,-0.17402,0.122722
189910,-0.00524215,0.165858,0.269015,-0.854135,1.52972,-0.0300929,0.0070914,-0.079401,0.036376,-0.492472,0.056086,-0.00427526,-0.261248,-0.255585,0.0994626,-0.0190867,-0.0389671,-0.185253,0.134008
189960,-0.0413409,0.257281,0.270659,-0.813266,1.58883,-0.0253252,0.0784645,-0.063896,0.0379276,-0.495605,0.0655051,-0.0041476,-0.24397,-0.24556,-0.0252473,-0.0180059,-0.0412601,-0.192071,0.140562
190011,-0.0680227,0.351733,0.272434,-0.739963,1.64223,-0.0197925,-0.00233659,-0.109605,0.0568562,-0.49958,0.0742048,-0.00402914,-0.221803,-0.249304,-0.158779,-0.0244852,-0.0390644,-0.194072,0.14279
190061,-0.0832428,0.455461,0.274279,-0.647687,1.7301,-0.0195975,0.111358,-0.0479405,-0.0503483,-0.504656,0.0821906,-0.00391948,-0.193057,-0.245605,-0.284954,-0.0204838,-0.0417363,-0.184404,0.133276
190111,-0.101747,0.553785,0.275935,-0.607659,1.75375,-0.016056,0.00652483,-0.0428459,0.025979,-0.510949,0.0895484,-0.00381692,-0.182559,-0.239264,-0.39358,-0.0224422,-0.0381358,-0.173767,0.122213
190162,-0.048187,0.263044,0.27758,-0.564438,1.46447,-0.013229,0.105105,-0.129132,0.0306902,-0.517966,0.0960271,-0.00372695,-0.156537,-0.241096,-0.46989,-0.0283704,-0.0421954,-0.152078,0.1006
190212,-0.063497,0.34134,0.279189,-0.505883,1.49605,-0.00999925,0.0231695,-0.000769675,0.0273294,-0.526179,0.101991,-0.00364206,-0.142323,-0.244483,-0.520689,-0.0254052,-0.040292,-0.125841,0.0741824
190262,-0.0524523,0.245107,0.280837,-0.514741,1.33571,-0.00842933,0.0961607,-0.0455469,-0.000321388,-0.535402,0.107407,-0.00356334,-0.128039,-0.229132,-0.549229,-0.0265958,-0.0410867,-0.100246,0.0485738
190313,-0.0624165,0.317339,0.282459,-0.449616,1.38291,-0.00420159,0.072479,-0.0831923,0.0506792,-0.545644,0.112474,-0.00348706,-0.108761,-0.232232,-0.5606,-0.0290206,-0.0414687,-0.0735795,0.0223661
190363,-0.0755198,0.391778,0.284082,-0.432187,1.40884,-0.00024714,0.0578288,0.00903735,0.0480862,-0.55669,0.117209,-0.00341316,-0.0965077,-0.222075,-0.557258,-0.0255304,-0.0404151,-0.0441749,-0.00742355
190414,-0.0869289,0.469619,0.28574,-0.422456,1.43585,0.00141471,0.137259,-0.0732353,0.00200272,-0.568321,0.121647,-0.00334131,-0.082293,-0.207849,-0.543732,-0.0300676,-0.0467234,-0.0174615,-0.0341438
190464,-0.085811,0.545516,0.289022,-0.376066,1.45475,0.00726547,0.00634345,-0.055385,0.0605726,-0.597024,0.131572,-0.00317494,-0.070364,-0.207397,-0.521935,-0.0310992,-0.0449211,0.00788473,-0.0593838
190514,-0.0951707,0.62826,0.2915,-0.389516,1.47928,0.010091,0.155896,0.0146203,0.0144167,-0.616764,0.137873,-0.00306573,-0.0555734,-0.187737,-0.493588,-0.0302749,-0.0532366,0.0362613,-0.0880348
190565,-0.100591,0.37431,0.294192,-0.480116,1.05317,0.0152648,0.0236947,-0.0489344,0.0542259,-0.635003,0.143058,-0.00297358,-0.0473953,-0.179148,-0.462522,-0.0353353,-0.0524441,0.0598341,-0.111351
190615,-0.120036,0.429088,0.296456,-0.48902,1.06096,0.0189352,0.0287526,-0.00374674,0.0443497,-0.652537,0.147809,-0.00288645,-0.0397669,-0.17198,-0.430573,-0.0359723,-0.0525147,0.0811341,-0.132586
190666,-0.114895,0.3053,0.299101,-0.529532,0.827324,0.0223116,0.114413,0.0343451,0.018014,-0.66794,0.151639,-0.00281426,-0.0328778,-0.155094,-0.430573,-0.0394962,-0.0571258,0.10331,-0.155199
190716,-0.141046,0.344233,0.302068,-0.544532,0.803756,0.0253178,0.0350563,0.0194431,0.0179815,-0.695588,0.158405,-0.00268333,-0.0313198,-0.143454,-0.430573,-0.0440154,-0.0575508,0.12367,-0.17567
190766,-0.129727,0.260727,0.30542,-0.539488,0.630465,0.0314592,0.0495596,0.0717026,0.0590382,-0.719722,0.163971,-0.00257289,-0.0283797,-0.13084,-0.430573,-0.042475,-0.0586568,0.14506,-0.196877
190817,-0.164093,0.286714,0.307319,-0.572491,0.586757,0.0322897,0.121475,0.100334,0.00270176,-0.724604,0.165114,-0.00254978,-0.0332852,-0.114107,-0.430573,-0.0443793,-0.0619624,0.165236,-0.217372
190867,-0.148453,0.221894,0.309575,-0.528529,0.437966,0.03759,0.00406212,0.0537714,0.0696898,-0.725395,0.165292,-0.0025461,-0.0377108,-0.107361,-0.430573,-0.043993,-0.0580441,0.185387,-0.237538
190917,-0.183151,0.237409,0.311395,-0.566763,0.400925,0.0384775,0.137295,0.112948,0.0138369,-0.722684,0.16466,-0.0025593,-0.0421189,-0.0919086,-0.430573,-0.0415843,-0.061195,0.208578,-0.260392
190968,-0.156977,0.180513,0.314492,-0.479862,0.257481,0.0437808,0.0255988,0.0712447,0.0492764,-0.734159,0.167265,-0.00250398,-0.0497501,-0.0871628,-0.430573,-0.0398032,-0.0603811,0.226979,-0.279249
191018,-0.182356,0.184572,0.317055,-0.487186,0.216437,0.0457493,0.105119,0.0377253,0.0243673,-0.740745,0.168824,-0.00247067,-0.0552889,-0.0782588,-0.430573,-0.0412275,-0.063045,0.249412,-0.301277
191069,-0.157794,0.138814,0.318902,-0.419649,0.102748,0.0479938,0.0716879,0.0862569,0.0333719,-0.720423,0.164156,-0.00257199,-0.0623984,-0.0734006,-0.430573,-0.0361053,-0.063001,0.269786,-0.321824
191119,-0.170331,0.134391,0.322228,-0.389509,0.0621211,0.0524593,0.0153743,0.0160383,0.0593624,-0.738756,0.168545,-0.00247644,-0.0680906,-0.0728822,-0.430573,-0.0369879,-0.0632979,0.290183,-0.342311
191169,-0.134564,0.0864713,0.326934,-0.297333,-0.0622944,0.0585078,0.106117,0.0155887,0.0361958,-0.769806,0.175717,-0.00231783,-0.0771632,-0.0651414,-0.430573,-0.0372451,-0.0664193,0.312953,-0.364579
191220,-0.133604,0.0687908,0.332093,-0.249522,-0.11264,0.0655696,0.000318825,0.0120803,0.0707836,-0.813727,0.18622,-0.00208507,-0.0833808,-0.064679,-0.430573,-0.0371648,-0.0668322,0.334503,-0.386385
191270,-0.0815093,0.021588,0.337038,-0.108428,-0.261659,0.0711245,0.186776,0.0313161,0.0344839,-0.844558,0.193306,-0.00192551,-0.100386,-0.0725605,-0.430573,-0.0449953,-0.0795186,0.356284,-0.407689
191320,-0.0654845,-0.00594481,0.342754,-0.0492186,-0.312244,0.0772252,-0.027652,0.0205499,0.0502434,-0.887223,0.203411,-0.00169769,-0.106477,-0.0772455,-0.430573,-0.0449139,-0.0780553,0.378719,-0.430227
191371,-0.0380334,-0.020655,0.346913,0.0105239,-0.336017,0.0797513,0.043761,0.0788249,0.0344448,-0.89434,0.205039,-0.00166045,-0.109671,-0.0865522,-0.430573,-0.0445857,-0.0812883,0.400419,-0.452094
191421,-0.0380399,-0.0319789,0.349593,0.00769483,-0.334031,0.0807736,0.0116117,0.03052,0.0648298,-0.87035,0.199359,-0.00179034,-0.107515,-0.0926926,-0.430573,-0.0463537,-0.0778131,0.421756,-0.473709
191472,-0.0202523,-0.033564,0.353026,0.0373446,-0.326687,0.0835492,0.0464997,0.0725095,0.0757055,-0.86253,0.19755,-0.00183219,-0.105322,-0.103674,-0.430573,-0.0447387,-0.0751308,0.445247,-0.496401
191522,-0.0312367,-0.0399596,0.356539,0.0131578,-0.296855,0.0873379,-0.0333603,0.0890664,0.106081,-0.846892,0.193791,-0.001919,-0.100988,-0.0985024,-0.430573,-0.0385616,-0.0769495,0.466482,-0.518551
191572,-0.0279221,-0.0286385,0.360836,0.0225638,-0.257219,0.0900476,0.0895371,0.0177114,0.0661612,-0.844987,0.193338,-0.00192955,-0.0921432,-0.0977324,-0.430573,-0.044087,-0.0808161,0.488965,-0.54059
191623,-0.0348619,-0.0342364,0.363357,-0.00740438,-0.250495,0.0874194,-0.00262481,0.0305131,0.0132313,-0.813428,0.185549,-0.00211051,-0.0874302,-0.100382,-0.430573,-0.0378541,-0.0750725,0.512923,-0.564376
191673,-0.0420851,-0.0339124,0.365622,-0.0387012,-0.23071,0.08731,-0.0332356,0.0239385,0.0642796,-0.778252,0.17692,-0.00231206,-0.0906603,-0.0952226,-0.430573,-0.0391892,-0.0703658,0.5337,-0.585764
191724,-0.0600968,-0.0369194,0.368887,-0.0707393,-0.222362,0.0867081,0.0774089,0.0195345,0.0304642,-0.758589,0.171933,-0.00242837,-0.0870487,-0.0857908,-0.430573,-0.0456614,-0.0682012,0.556823,-0.608073
191774,-0.0608477,-0.0353713,0.371682,-0.0855441,-0.20395,0.0865747,-0.0260344,0.0742643,0.0432415,-0.733548,0.165623,-0.0025762,-0.089357,-0.0817863,-0.430573,-0.0402733,-0.0635688,0.579515,-0.631253
191824,-0.0574816,-0.0531965,0.376524,-0.0594714,-0.21223,0.0891405,-0.0309938,0.0630382,0.0281467,-0.740874,0.167542,-0.0025314,-0.0966324,-0.0845866,-0.430573,-0.0393704,-0.0654829,0.599568,-0.651817
191875,-0.0342686,-0.0573802,0.383472,0.00680056,-0.206225,0.0938526,0.0826867,0.0538529,0.00769997,-0.774398,0.176351,-0.00232547,-0.108335,-0.0828866,-0.430573,-0.0448583,-0.0689687,0.619806,-0.671376
191925,-0.00429035,-0.0793948,0.392271,0.091382,-0.224253,0.102844,0.00518703,0.0706586,0.0463209,-0.829458,0.191405,-0.0019751,-0.118825,-0.0875213,-0.430573,-0.0455067,-0.0705036,0.643213,-0.69441
191975,0.0183296,-0.0703524,0.398728,0.141762,-0.19476,0.108056,0.015865,0.119663,0.0587034,-0.850399,0.19719,-0.00184063,-0.118503,-0.102923,-0.430573,-0.0522552,-0.0742019,0.66256,-0.714022
192026,0.0465365,-0.0801914,0.405984,0.195748,-0.193719,0.112369,0.0278744,0.129349,0.0253782,-0.876013,0.204604,-0.0016694,-0.114552,-0.116853,-0.430573,-0.0532064,-0.0739931,0.684603,-0.735978
192076,0.0492096,-0.0587572,0.413589,0.2045,-0.136895,0.117766,-0.0434191,0.157307,0.0695639,-0.904757,0.213124,-0.00147366,-0.101654,-0.116471,-0.430573,-0.048778,-0.078236,0.703313,-0.755169
192127,0.0557356,-0.0526711,0.422083,0.22157,-0.110191,0.121779,0.0542703,0.130962,0.0299244,-0.935602,0.222849,-0.00125215,-0.08724,-0.104456,-0.430573,-0.0591402,-0.0878763,0.724132,-0.775329
192177,0.0478658,-0.0428689,0.428277,0.19892,-0.0822637,0.125714,-0.10266,0.0963589,0.0872488,-0.938618,0.223831,-0.00122993,-0.090006,-0.0956497,-0.430573,-0.0557468,-0.0861117,0.745086,-0.796986
192227,0.0564966,-0.0481872,0.435363,0.205434,-0.0746945,0.127761,-0.056869,0.140439,0.0195513,-0.946217,0.226484,-0.00117042,-0.095691,-0.0877412,-0.430573,-0.0516556,-0.0868738,0.76708,-0.819162
192278,0.0566249,-0.0422515,0.441327,0.203143,-0.0538149,0.129469,-0.0258993,0.072482,0.0405273,-0.944313,0.225792,-0.00118583,-0.104214,-0.0893333,-0.430573,-0.0531037,-0.0896537,0.785573,-0.837952
192328,0.0711312,-0.0470799,0.448153,0.217115,-0.0531528,0.131919,-0.0293166,0.0619832,0.0331764,-0.947135,0.226893,-0.00116153,-0.109326,-0.0903039,-0.430573,-0.0506091,-0.0882862,0.807946,-0.859492
192378,0.0701099,-0.0382413,0.453854,0.207091,-0.0328939,0.133907,-0.0467395,0.0820131,0.0599909,-0.941661,0.224686,-0.00120992,-0.111718,-0.0982621,-0.430573,-0.0503332,-0.0870362,0.829751,-0.881224
192429,0.0849911,-0.0388376,0.460447,0.217556,-0.0275503,0.136086,-0.00611335,0.0806919,0.042778,-0.940933,0.224373,-0.00121674,-0.10758,-0.106948,-0.430573,-0.0542115,-0.08578,0.850455,-0.901939
192479,0.0717154,-0.0257721,0.465778,0.183314,-0.00201636,0.133651,-0.0259264,0.129882,0.00284958,-0.933018,0.220898,-0.00129205,-0.0959829,-0.110774,-0.430573,-0.0523687,-0.083613,0.874012,-0.925308
192530,0.0604724,-0.0236486,0.470944,0.14646,0.00315803,0.134432,-0.0499596,0.103609,0.0778093,-0.918675,0.214196,-0.00143641,-0.0915657,-0.0979681,-0.430573,-0.0577782,-0.0870857,0.89419,-0.945781
192580,0.0415281,-0.0180622,0.475287,0.102755,0.0148798,0.131855,-0.0967699,0.121191,0.0192289,-0.899762,0.205219,-0.00162909,-0.0963664,-0.090188,-0.430573,-0.0530619,-0.0871752,0.917133,-0.968975
192630,0.0373262,-0.0193924,0.479394,0.0775907,0.0154338,0.132056,-0.110986,0.0471702,0.0641623,-0.876299,0.193328,-0.0018829,-0.102233,-0.0921085,-0.430573,-0.0464506,-0.0848137,0.938326,-0.990423
192681,0.0203103,-0.0155328,0.481574,0.0359567,0.0227763,0.127658,-0.0315586,0.0775481,0.0181761,-0.839739,0.174578,-0.00228181,-0.108117,-0.0986239,-0.430573,-0.0481803,-0.0867848,0.960648,-1.01238
192731,-0.0161843,-0.0159779,0.480975,-0.0653089,0.0109364,0.121347,-0.14302,-0.0302555,0.0668192,-0.781541,0.142977,-0.00295098,-0.102032,-0.0985473,-0.430573,-0.0364467,-0.0780309,0.983326,-1.03588
192782,-0.0527051,-0.0151628,0.479081,-0.151508,0.00050525,0.111714,0.00302133,0.0293052,0.0108662,-0.717128,0.108208,-0.00368644,-0.10339,-0.0994197,-0.430573,-0.0302977,-0.0725071,1.00782,-1.05974
192832,-0.0926291,-0.0184897,0.478313,-0.226261,-0.0155979,0.105982,-0.041083,-0.0654333,0.0485134,-0.665458,0.079123,-0.00430009,-0.107282,-0.0973108,-0.430573,-0.0258999,-0.0648362,1.02965,-1.08193
192882,-0.122561,-0.0203391,0.476353,-0.292381,-0.0358764,0.0984825,0.0374003,-0.0248594,0.0292969,-0.607491,0.0477461,-0.00496379,-0.104646,-0.0989641,-0.430573,-0.0242361,-0.0560025,1.0549,-1.10678
192933,-0.166394,-0.0255617,0.475379,-0.356198,-0.0507312,0.0923968,-0.0152011,-0.00618014,0.0222931,-0.561677,0.0225661,-0.00549669,-0.107099,-0.0987388,-0.430573,-0.0238071,-0.0508495,1.07962,-1.13184
192983,-0.175091,-0.0297504,0.475914,-0.371093,-0.0642369,0.0895646,-0.00462982,0.0154966,0.0313139,-0.526822,0.00476291,-0.0058757,-0.112146,-0.097973,-0.430573,-0.0257309,-0.0431142,1.10119,-1.1532
193033,-0.204204,-0.0346185,0.477132,-0.391425,-0.0664778,0.0872798,-0.0185852,0.069112,0.0193224,-0.501041,-0.00832843,-0.00615517,-0.118415,-0.10352,-0.430573,-0.0257487,-0.035867,1.12424,-1.17628
193084,-0.20341,-0.0377093,0.478412,-0.39049,-0.0702779,0.0842568,-0.0301355,0.146834,-0.00233936,-0.474845,-0.0203557,-0.00641412,-0.112618,-0.111903,-0.430573,-0.0260996,-0.0346755,1.14623,-1.19837
193134,-0.250288,-0.0464217,0.478815,-0.442812,-0.08068,0.0815085,-0.0444737,0.0894567,0.0458641,-0.448525,-0.0322656,-0.0066712,-0.106043,-0.104472,-0.430573,-0.0312271,-0.0367993,1.16728,-1.21929
193185,-0.249126,-0.0533386,0.480807,-0.439325,-0.0957167,0.0775314,-0.0913585,0.135644,-0.0329647,-0.430259,-0.0395693,-0.0068305,-0.106831,-0.0922818,-0.430573,-0.0328007,-0.0344764,1.19061,-1.24252
193235,-0.259421,-0.0558438,0.485568,-0.422642,-0.076228,0.0807408,-0.168854,0.0685652,0.0320272,-0.434287,-0.037975,-0.00679565,-0.117568,-0.0974966,-0.430573,-0.0313464,-0.040441,1.2108,-1.26282
193285,-0.221263,-0.051755,0.49249,-0.350674,-0.0591981,0.0840697,-0.117412,0.0423224,-0.01437,-0.448774,-0.0329332,-0.00668439,-0.119912,-0.106425,-0.430573,-0.0333887,-0.0419622,1.23161,-1.28346
193336,-0.233569,-0.052815,0.498052,-0.349313,-0.0499279,0.0875188,-0.164041,0.0211536,0.0439949,-0.458319,-0.0296072,-0.00661115,-0.114598,-0.108671,-0.430573,-0.0263812,-0.0405837,1.25075,-1.30276
193386,-0.21291,-0.0531641,0.504453,-0.313294,-0.0500621,0.0896683,-0.0870932,0.0815914,0.00727844,-0.470118,-0.0260543,-0.00653223,-0.104071,-0.10268,-0.430573,-0.0335577,-0.0423616,1.27186,-1.32357
193436,-0.231776,-0.0579234,0.508992,-0.321631,-0.0509604,0.0907394,-0.119238,0.0404528,0.0268173,-0.470826,-0.0258405,-0.0065275,-0.107348,-0.0940614,-0.430573,-0.0355144,-0.0404706,1.29412,-1.34599
193487,-0.239253,-0.0579751,0.514373,-0.313643,-0.0358553,0.0926534,-0.183451,0.0659659,0.0143957,-0.475141,-0.0245208,-0.00649837,-0.115734,-0.0948949,-0.430573,-0.0293964,-0.0415353,1.31268,-1.36457
193537,-0.238325,-0.0524258,0.52038,-0.28884,-0.00953598,0.09456,-0.0991255,0.0654045,-0.0025425,-0.482332,-0.0222673,-0.00644899,-0.119384,-0.107006,-0.430573,-0.0385299,-0.0433964,1.33392,-1.38562
193588,-0.251339,-0.0512527,0.525568,-0.295891,-0.000779183,0.0971824,-0.180204,0.0278291,0.0453749,-0.485436,-0.0212733,-0.00642737,-0.112275,-0.111957,-0.430573,-0.0342277,-0.0381414,1.35589,-1.40776
193638,-0.232672,-0.0649535,0.529557,-0.273773,-0.0283529,0.0953368,-0.158109,0.149076,-0.0128212,-0.478631,-0.0229171,-0.00646353,-0.101295,-0.0998492,-0.430573,-0.0413656,-0.042121,1.3788,-1.43034
193688,-0.255325,-0.0727933,0.53214,-0.295546,-0.0355739,0.0941668,-0.206162,0.034903,0.0147171,-0.463971,-0.0266817,-0.00654517,-0.114111,-0.0940152,-0.430573,-0.0421439,-0.0454892,1.39808,-1.4501
193739,-0.227876,-0.0767717,0.534242,-0.265545,-0.0500404,0.0931059,-0.222306,0.00592336,0.00466347,-0.442343,-0.0310013,-0.00663861,-0.119697,-0.103112,-0.430573,-0.0363386,-0.0465554,1.42044,-1.47251
193789,-0.267535,-0.0927665,0.534328,-0.32035,-0.0798327,0.0923497,-0.207814,-0.0369796,0.0734529,-0.414674,-0.0373318,-0.00677189,-0.112585,-0.105535,-0.430573,-0.025529,-0.0463167,1.44202,-1.49435
193840,-0.253166,-0.103584,0.535118,-0.302174,-0.123412,0.0900525,-0.0716637,-0.101934,0.0139198,-0.387691,-0.0422796,-0.00687322,-0.118105,-0.0997037,-0.430573,-0.0152278,-0.0456052,1.46251,-1.51536
193890,-0.28855,-0.120859,0.535307,-0.331679,-0.153714,0.0899949,-0.0138109,-0.102107,0.0735569,-0.361129,-0.04781,-0.00698417,-0.118006,-0.103373,-0.430573,-0.00826239,-0.0347856,1.48602,-1.53866
193940,-0.279,-0.134587,0.535038,-0.31023,-0.200246,0.0856923,0.0584951,-0.0348924,-0.00728321,-0.329795,-0.052297,-0.00707059,-0.116189,-0.0978208,-0.430573,-0.00858962,-0.019608,1.50715,-1.55929
193991,-0.310803,-0.155564,0.53448,-0.319484,-0.219848,0.0823299,0.0920306,0.13184,0.00272942,-0.299334,-0.0565016,-0.00715072,-0.132976,-0.0977022,-0.430573,-0.011825,0.000702716,1.52924,-1.58135
194041,-0.295551,-0.165763,0.532774,-0.291218,-0.246447,0.0816024,0.00360657,0.166269,0.067687,-0.259601,-0.0584924,-0.00718191,-0.133385,-0.105515,-0.430573,-0.0080278,0.00167016,1.55328,-1.60546
194091,-0.351842,-0.210116,0.529782,-0.338948,-0.296799,0.0728124,0.037224,0.235298,-0.0426178,-0.221426,-0.0596754,-0.00719637,-0.125346,-0.0895759,-0.430573,-0.0372364,0.00242887,1.57636,-1.62863
194142,-0.328375,-0.218858,0.528206,-0.305805,-0.319956,0.0682922,-0.19501,0.154113,-0.0235958,-0.185373,-0.0574657,-0.00713915,-0.139303,-0.0828266,-0.430573,-0.0415274,0.00663785,1.5998,-1.65195
194192,-0.361771,-0.249513,0.525197,-0.338449,-0.338621,0.0612888,-0.27718,0.152145,-0.0566196,-0.146344,-0.0548182,-0.00706941,-0.144177,-0.0985182,-0.430573,-0.041022,0.00810238,1.62471,-1.67688
194243,-0.349027,-0.264811,0.52223,-0.330331,-0.374783,0.0545163,-0.283866,0.140441,-0.0369616,-0.109847,-0.0505615,-0.0069589,-0.127697,-0.0921276,-0.430573,-0.0485173,-0.00636431,1.64673,-1.69877
194293,-0.388886,-0.309408,0.519675,-0.372737,-0.423935,0.0520859,-0.317938,-0.0169672,0.033349,-0.0805178,-0.048251,-0.00688586,-0.138879,-0.0752527,-0.430573,-0.0541289,-0.0109962,1.66836,-1.72035
194343,-0.348575,-0.297216,0.518639,-0.329383,-0.422074,0.046126,-0.328339,-0.179113,-0.0985346,-0.0534456,-0.0458626,-0.00680249,-0.144089,-0.0932324,-0.430573,-0.0433043,-0.0200523,1.69011,-1.74213
194394,-0.387155,-0.339909,0.515919,-0.375635,-0.473929,0.0409823,-0.271024,-0.176447,-0.0174723,-0.0283319,-0.045912,-0.00676106,-0.132896,-0.0937159,-0.430573,-0.0267122,-0.0229655,1.71189,-1.764
194444,-0.354611,-0.336922,0.514549,-0.324521,-0.505794,0.038189,-0.0688306,-0.27886,-0.0261536,-0.00531404,-0.0465776,-0.00672228,-0.145203,-0.0828667,-0.430573,-0.011855,-0.0257613,1.73092,-1.78306
194494,-0.380949,-0.368801,0.512441,-0.331867,-0.536188,0.0348798,0.0956254,-0.295583,-0.0166883,0.0158178,-0.0494518,-0.00672266,-0.141954,-0.100607,-0.430573,0.00975855,-0.0163866,1.75376,-1.80585
194545,-0.432304,-0.434264,0.508539,-0.353988,-0.629172,0.0266138,0.272872,-0.178992,-0.0575018,0.0390076,-0.0547206,-0.00675572,-0.1321,-0.0750615,-0.430573,0.0404599,0.0156289,1.77832,-1.83006
194595,-0.454702,-0.466115,0.505225,-0.316759,-0.625308,0.0243672,0.520609,0.205717,-0.0178251,0.067235,-0.0625,-0.00681454,-0.168404,-0.0917363,-0.430573,0.0493149,0.0615479,1.80191,-1.85381
194646,-0.505961,-0.523673,0.499412,-0.318705,-0.628935,0.0165967,0.507207,0.556757,-0.0195484,0.097324,-0.07006,-0.00685778,-0.132447,-0.113302,-0.430573,0.0296324,0.104573,1.82184,-1.87534
194696,-0.586329,-0.649259,0.492239,-0.348659,-0.730673,0.00665509,0.177167,0.999272,-0.0745506,0.128967,-0.0752167,-0.00684536,-0.147891,-0.0325409,-0.430573,-0.0054037,0.17706,1.84013,-1.89927
194746,-0.55854,-0.614859,0.490386,-0.290846,-0.511197,0.00107971,-0.37614,1.51929,-0.106667,0.157721,-0.0768141,-0.00676983,-0.214796,-0.119706,-0.430573,-0.0826844,0.217548,1.84661,-1.91743
194797,-0.604959,-0.679462,0.483939,-0.374654,-0.480318,-0.01259,-1.14581,1.63182,-0.193699,0.187994,-0.0765818,-0.00663854,-0.281701,-0.20687,-0.430573,-0.0782636,0.222729,1.87166,-1.92384
194847,-0.655642,-0.740411,0.477334,-0.457779,-0.444808,-0.0279863,-1.19046,1.64157,-0.252552,0.21416,-0.0791228,-0.00654883,-0.348605,-0.294035,-0.430573,-0.0524484,0.244653,1.89708,-1.94909
194897,-0.716246,-0.799301,0.469954,-0.545287,-0.399111,-0.0421447,-1.0607,1.87619,-0.238935,0.237324,-0.0885089,-0.00655872,-0.41551,-0.3812,-0.430573,-0.028897,0.264573,1.92375,-1.97576
194948,-0.784344,-0.849229,0.462578,-0.636476,-0.326608,-0.0581228,-0.939435,2.13795,-0.260705,0.253094,-0.105754,-0.00670444,-0.482415,-0.468364,-0.430573,0.000892207,0.282836,1.95339,-2.00575
194998,-0.861797,-0.889278,0.455005,-0.729606,-0.236597,-0.0758963,-0.855663,2.29507,-0.298798,0.262575,-0.130991,-0.00698545,-0.54932,-0.555529,-0.430573,0.0326264,0.312431,1.98395,-2.03631
195049,-0.948323,-0.918616,0.447139,-0.825096,-0.126196,-0.0952055,-0.72666,2.60372,-0.3446,0.26649,-0.162647,-0.00737803,-0.616225,-0.642694,-0.430573,0.0651425,0.34006,2.01739,-2.06975
195099,-1.04168,-0.935156,0.438978,-0.924191,0.0146171,-0.118327,-0.668881,2.99648,-0.40594,0.264894,-0.197836,-0.00783766,-0.68313,-0.729858,-0.430573,0.110884,0.368909,2.05221,-2.10457
195149,-1.15091,-0.939074,0.429501,-1.03039,0.182644,-0.151886,-0.541972,3.39076,-0.597154,0.258455,-0.241137,-0.00841328,-0.750035,-0.817023,-0.430573,0.153043,0.407752,2.09365,-2.14583
195200,-1.26155,-0.930447,0.419035,-1.13033,0.374361,-0.193043,-0.510575,3.8019,-0.765901,0.250177,-0.280463,-0.00893492,-0.816939,-0.904188,-0.430573,0.212037,0.446781,2.13675,-2.18894
195250,-1.36603,-0.909101,0.40739,-1.2119,0.599329,-0.247687,-0.432465,4.36555,-1.03242,0.24159,-0.310516,-0.00932768,-0.883844,-0.991352,-0.430573,0.270054,0.487388,2.18214,-2.23415
195300,-1.45594,-0.877466,0.39409,-1.262,0.850201,-0.314017,-0.334145,4.89346,-1.28677,0.235892,-0.326395,-0.00952666,-0.950749,-1.07852,-0.430573,0.332571,0.532944,2.22969,-2.2817
195351,-1.52252,-0.839995,0.378902,-1.27406,1.12003,-0.396295,-0.29729,5.40899,-1.64919,0.236393,-0.325203,-0.00951291,-1.01765,-1.16568,-0.430573,0.413687,0.576415,2.27839,-2.3304
195401,-1.57606,-0.795479,0.360759,-1.25953,1.41467,-0.49542,-0.185325,6.04709,-2.03005,0.241208,-0.316396,-0.00942633,-1.08456,-1.25285,-0.430573,0.48841,0.62142,2.3284,-2.38041
195452,-1.62731,-0.74072,0.338263,-1.23234,1.73357,-0.620909,-0.0334424,6.62845,-2.58707,0.247712,-0.308088,-0.0093776,-1.15146,-1.34001,-0.430573,0.570177,0.666316,2.38089,-2.43273
195502,-1.64018,-0.703278,0.314852,-1.1297,2.03394,-0.754163,-0.00449067,7.14205,-3.078,0.271367,-0.291987,-0.00951051,-1.21837,-1.42718,-0.430573,0.671215,0.719056,2.41067,-2.46251
195552,-1.65985,-0.685012,0.290532,-0.987974,2.31162,-0.8938,0.369256,7.74698,-3.72853,0.306246,-0.29939,-0.0103262,-1.28527,-1.51434,-0.430573,0.725689,0.765824,2.40346,-2.45547
195603,-1.7295,-0.673765,0.265266,-0.846394,2.56559,-1.03512,0.76411,8.10352,-4.27086,0.340782,-0.355877,-0.0121896,-1.35218,-1.6015,-0.430573,0.784624,0.836485,2.37481,-2.42682
195653,-1.88431,-0.657862,0.24029,-0.738399,2.78909,-1.15631,1.12763,8.35801,-4.75484,0.366569,-0.479925,-0.0153957,-1.41908,-1.68867,-0.430573,0.862851,0.899857,2.32133,-2.37334
195703,-2.15902,-0.641796,0.218019,-0.679627,2.98276,-1.26421,1.96513,8.58144,-5.39866,0.381219,-0.679243,-0.0199658,-1.48599,-1.77583,-0.430573,0.852973,0.950681,2.21955,-2.27156
195754,-2.59099,-0.609784,0.204067,-0.682556,3.12714,-1.3154,2.50273,8.50865,-5.53071,0.37346,-0.975941,-0.0263052,-1.55289,-1.863,-0.430573,0.838417,1.03322,2.06612,-2.11796
195804,-3.15084,-0.539299,0.198336,-0.748926,3.2588,-1.31473,3.09742,8.4802,-5.77015,0.339525,-1.3382,-0.0336773,-1.6198,-1.95016,-0.430573,0.825297,1.08998,1.88809,-1.93993
195855,-3.77487,-0.441953,0.200246,-0.812448,3.38421,-1.29612,4.13324,8.16227,-6.0206,0.289431,-1.71646,-0.041027,-1.6867,-2.03733,-0.430573,0.755535,1.09946,1.68945,-1.74163
195905,-4.30231,-0.289785,0.197295,-0.776868,3.55177,-1.29655,4.77792,7.77714,-5.77032,0.231123,-2.02344,-0.0467425,-1.75361,-2.12449,-0.430573,0.72489,1.12928,1.54035,-1.59254
195955,-4.73861,-0.0837237,0.195396,-0.639007,3.73893,-1.29224,5.4002,7.51704,-5.89229,0.162376,-2.28313,-0.051355,-1.82051,-2.21166,-0.430573,0.707689,1.16714,1.40985,-1.46186
196006,-5.02899,0.146223,0.194148,-0.359444,3.92424,-1.29427,6.0824,7.15592,-6.13499,0.095674,-2.47437,-0.0544579,-1.88742,-2.29882,-0.430573,0.758964,1.18618,1.3297,-1.38171
196056,-5.11993,0.390694,0.193015,0.110228,4.08049,-1.309,6.90342,6.55483,-6.3984,0.0350183,-2.58443,-0.0558345,-1.95432,-2.38599,-0.430573,0.809399,1.19038,1.27819,-1.3302
196106,-4.97258,0.663607,0.18813,0.770761,4.21161,-1.33656,7.55612,5.954,-6.5563,-0.0212279,-2.6106,-0.0555411,-2.02123,-2.47315,-0.430573,0.875184,1.20858,1.25027,-1.30228
196157,-4.56633,0.961193,0.180598,1.61555,4.31139,-1.37537,8.11475,5.37082,-6.8789,-0.0727804,-2.55813,-0.0537068,-2.08813,-2.56032,-0.430573,0.986922,1.22784,1.26373,-1.31609
196207,-3.85614,1.25691,0.174491,2.67394,4.3368,-1.41433,8.73409,4.55391,-7.37336,-0.114998,-2.42121,-0.0501624,-2.15504,-2.64748,-0.430573,1.104,1.24496,1.28946,-1.34182
196258,-2.87172,1.52656,0.166304,3.88793,4.28685,-1.4704,9.19917,3.6842,-7.84091,-0.142896,-2.21227,-0.0452068,-2.22194,-2.73465,-0.430573,1.28271,1.24728,1.36614,-1.41832
196308,-1.57729,1.77989,0.159733,5.27056,4.14546,-1.53002,9.59198,2.69031,-8.3711,-0.162402,-1.93301,-0.0388697,-2.28885,-2.82181,-0.430573,1.45417,1.24103,1.45656,-1.50874
196358,0.00325871,2.01694,0.154032,6.7796,3.91715,-1.60515,9.84242,1.63936,-9.01908,-0.175451,-1.59798,-0.0314781,-2.35575,-2.90897,-0.430573,1.64105,1.23445,1.57359,-1.6256
196409,1.83665,2.2148,0.148336,8.37189,3.60905,-1.70147,9.92465,0.751556,-9.68983,-0.178815,-1.21865,-0.0232539,-2.42266,-2.99614,-0.430573,1.85956,1.22129,1.6934,-1.74541
196459,3.88299,2.3532,0.14191,10.0079,3.21097,-1.83226,9.8762,-0.405615,-10.566,-0.170654,-0.806697,-0.0144148,-2.48956,-3.0833,-0.430573,2.04235,1.18064,1.79366,-1.84567
196509,6.04189,2.43539,0.130383,11.6055,2.73588,-2.01497,9.59799,-1.52712,-11.4253,-0.15433,-0.39049,-0.00555185,-2.55647,-3.17047,-0.430573,2.22408,1.12422,1.90579,-1.9578
196560,8.37442,2.45633,0.117198,13.2064,2.18328,-2.23326,9.24866,-2.30697,-12.4028,-0.130942,0.0441608,0.0036533,-2.62337,-3.25763,-0.430573,2.42248,1.07861,2.01609,-2.06775
196610,10.8489,2.40268,0.101829,14.7785,1.5633,-2.49053,8.48098,-3.22788,-13.4566,-0.0997361,0.490059,0.0130718,-2.69028,-3.3448,-0.430573,2.55526,0.993865,2.03948,-2.09114
196661,13.4401,2.26269,0.0837101,16.2974,0.85531,-2.78346,7.56375,-4.21127,-14.5141,-0.0596748,0.942343,0.0226152,-2.75718,-3.43196,-0.430573,2.64333,0.894135,2.07189,-2.1239
196711,16.1146,2.01676,0.0626275,17.7418,0.0806299,-3.11172,6.6185,-4.46387,-15.5717,-0.0087755,1.39591,0.0321958,-2.82408,-3.51913,-0.430573,2.81003,0.841401,2.14107,-2.19308
196761,2.07516,2.5279,-0.00615154,10.7099,2.29227,-3.63029,5.38172,-5.27854,-16.2695,-0.0529511,1.51148,0.0360085,-2.82408,-3.51913,-0.430573,2.83837,0.743851,2.02869,-2.08053
196812,2.75,2.67182,-0.0397868,11.1902,1.81691,-3.97663,4.09251,-5.38229,-17.0566,-0.0852706,1.63252,0.0398886,-2.82408,-3.51913,-0.430573,2.89693,0.654365,2.09167,-2.1435
196862,1.84176,1.76686,-0.0797681,10.9115,1.22328,-4.32009,3.52153,-4.96005,-17.7115,-0.100434,1.7507,0.0437157,-2.82408,-3.51913,-0.430573,3.02551,0.634437,2.03433,-2.08634
196913,2.44274,1.7823,-0.121645,11.3242,0.683462,-4.67987,1.89253,-5.56758,-17.8457,-0.0954947,1.87995,0.0476825,-2.82408,-3.51913,-0.430573,2.96308,0.50649,1.96634,-2.01835
196963,2.03165,1.27764,-0.169078,11.2743,0.0882267,-5.03076,1.58663,-4.53196,-18.5649,-0.0682663,2.03077,0.0519682,-2.82408,-3.51913,-0.430573,3.12587,0.519462,2.01954,-2.07155
197013,2.63046,1.17852,-0.2205,11.6726,-0.540828,-5.40383,0.22153,-5.27079,-18.3194,-0.00840012,2.20687,0.0566281,-2.82408,-3.51913,-0.430573,3.03194,0.414073,1.83967,-1.89168
197064,2.37901,0.816477,-0.276237,11.7036,-1.19303,-5.75741,-0.212461,-4.25442,-18.9109,0.0769176,2.42232,0.0618824,-2.82408,-3.51913,-0.430573,-3.14154,0.417326,1.9539,-2.00608
197114,3.00458,0.59651,-0.334345,12.1251,-1.96818,-6.12295,-0.891785,-4.77714,-18.6892,0.207078,2.688,0.0679286,-2.82408,-3.51913,-0.430573,3.07947,0.371781,1.72705,-1.77924
197164,2.82711,0.283249,-0.400902,12.2059,-2.73616,-6.47611,-1.66699,-4.11874,-18.9541,0.368535,3.00107,0.0746458,-2.82408,-3.51913,-0.430573,3.09786,0.353236,1.85709,-1.9091
