time,x_hat,y_hat,z_hat,Vx_hat,Vy_hat,Vz_hat,ax_hat,ay_hat,az_hat,ax_bias,ay_bias,az_bias,gx_bias,gy_bias,gz_bias,roll,pitch,yaw,est_heading
2.3335,-5.0146e-06,-1.66259e-05,0.000248369,4.76461e-05,1.05382e-05,-0.000450591,-5.96046e-08,-3.35276e-08,0.0407295,-0.047293,-0.01987,0.002095,0.00632101,-0.0443,0.00306098,-0.329266,0.0969756,3.12444,3.1244
2.4033,-1.22656e-05,-3.34184e-05,0.000109537,-4.96014e-06,3.58576e-06,0.000494883,-0.00108451,-0.000146754,0.0407295,-0.047293,-0.01987,0.00209501,0.00632103,-0.0443,0.00304944,-0.329304,0.097122,3.13768,3.12427
2.47101,-2.73684e-05,-4.89746e-05,8.14542e-05,0.00031212,-0.000174218,0.00209013,0.00649685,-0.00379563,0.0511179,-0.047293,-0.01987,0.00209501,0.00632113,-0.0443,0.00301359,-0.329383,0.0976988,-3.14006,3.13745
2.54128,-3.22229e-05,-8.74108e-05,0.000106736,0.000342485,7.23416e-05,0.00376374,0.000500739,0.0049166,0.0543385,-0.047293,-0.01987,0.00209503,0.00632105,-0.0443,0.0029867,-0.329506,0.0981132,-3.13644,-3.14036
2.61166,0.000108861,-8.07966e-05,0.000156218,-0.000315046,0.000254374,0.00413609,-0.0312681,0.000558081,0.0293474,-0.047293,-0.01987,0.00209506,0.00632115,-0.044301,0.0028873,-0.329454,0.0970056,-3.12922,-3.1368
2.68193,2.53621e-05,-0.000107879,0.000225442,-0.000965953,0.000292253,0.00613072,-0.0134873,0.000818283,0.0618172,-0.047293,-0.01987,0.00209511,0.00632117,-0.044301,0.00305029,-0.329536,0.0968258,-3.14016,-3.12962
2.75234,5.49911e-05,-9.1544e-05,0.000332561,-0.000985433,6.64137e-05,0.00742538,-0.0104654,-0.00606924,0.049181,-0.047293,-0.0198701,0.0020952,0.00632139,-0.0443015,0.00321233,-0.329617,0.0968046,3.13533,-3.14061
2.82261,-4.27364e-05,-0.000119664,0.000443902,-0.000905872,0.000513964,0.00799055,0.00126135,0.00907926,0.0345335,-0.047293,-0.0198701,0.00209535,0.00632125,-0.0443015,0.00336098,-0.329828,0.0974895,3.12838,3.13484
2.89301,4.62855e-05,-8.03504e-05,0.000558736,-0.00101943,0.00048921,0.00838787,-0.0152063,-0.00223677,0.0303383,-0.0472931,-0.0198702,0.00209557,0.00632141,-0.0443022,0.00327602,-0.329913,0.0973314,3.13109,3.12784
2.96328,-0.000144785,-9.3553e-05,0.000682208,-0.00169916,0.00016268,0.00929792,-0.0146068,-0.00635722,0.0397549,-0.0472931,-0.0198703,0.00209589,0.00632162,-0.0443021,0.00320304,-0.329989,0.097226,3.13325,3.13052
3.03368,-0.000135698,-7.40277e-05,0.000825031,-0.0014571,-0.000133472,0.0102848,-0.00360864,-0.00722722,0.0407257,-0.0472931,-0.0198705,0.00209636,0.00632188,-0.0443025,0.00331542,-0.330133,0.097699,3.12936,3.13265
3.10396,-0.000451605,-0.000141167,0.000997533,-0.00280789,-0.000728944,0.0116533,-0.0291783,-0.0115527,0.0481853,-0.0472932,-0.0198707,0.00209701,0.00632213,-0.0443026,0.0027916,-0.330118,0.0969217,-3.13525,3.12873
3.17439,-0.000418291,-3.00481e-05,0.00115369,-0.00235641,-0.00460032,0.00927027,-0.00350672,-0.0807211,-0.0269432,-0.0472933,-0.019871,0.00209788,0.00632402,-0.0443031,0.00235042,-0.329973,0.097013,-3.12052,-3.13591
3.24468,-0.00121396,-0.000815793,0.00137993,-0.0103191,0.00718808,0.0213239,-0.168387,0.237321,0.258961,-0.0472934,-0.0198715,0.00209907,0.00631887,-0.0443049,0.00160528,-0.330605,0.0920346,-3.09279,-3.12119
3.31512,-0.00213864,-0.00036017,0.00178381,-0.00691165,0.00236165,0.0145185,0.0864653,-0.0931935,-0.112602,-0.0472936,-0.0198721,0.00210082,0.00632102,-0.0443034,0.00108161,-0.33065,0.0960878,-3.07453,-3.09352
3.38539,-0.00219077,0.000123203,0.0019099,-0.000452119,-0.00756943,0.00889797,0.134424,-0.199991,-0.0899229,-0.0472939,-0.0198729,0.00210294,0.00632557,-0.0443021,0.000628505,-0.330108,0.101131,-3.05878,-3.07509
3.45581,-0.000420682,-0.000348979,0.00211322,-0.0126505,0.00557753,0.0248052,-0.324587,0.247534,0.334375,-0.0472942,-0.0198739,0.00210557,0.00632035,-0.04431,0.000259234,-0.331494,0.0930932,-3.04631,-3.05931
3.52609,-0.000499376,0.000304924,0.00246764,-0.00142353,0.00149112,0.012479,0.231656,-0.0829843,-0.225542,-0.0472946,-0.0198752,0.00210899,0.0063226,-0.0443066,-0.000504479,-0.330716,0.100278,-3.0205,-3.04696
3.59651,-0.000370272,0.000446024,0.00254351,-0.00245691,0.000228474,0.013397,-0.030159,-0.0276905,0.0374174,-0.047295,-0.0198767,0.0021129,0.0063233,-0.0443077,0.000349021,-0.330843,0.100867,-3.04518,-3.02119
3.66678,-0.000647477,0.00041628,0.00266948,-0.00422557,-0.000794923,0.0144914,-0.0377306,-0.019347,0.0406199,-0.0472955,-0.0198784,0.00211743,0.00632374,-0.0443087,0.000964901,-0.330965,0.101466,-3.06249,-3.04578
3.73722,-0.000553276,0.00045984,0.00286143,-0.00682477,-0.00194337,0.0160363,-0.0643803,-0.0252378,0.0479708,-0.0472961,-0.0198805,0.00212276,0.00632454,-0.0443106,0.00150138,-0.331189,0.101747,-3.07806,-3.06323
3.80749,-0.00088262,0.000219137,0.00313907,-0.00355769,0.0028272,0.0218765,0.0671948,0.0953635,0.133451,-0.0472969,-0.019883,0.00212916,0.00632246,-0.0443094,0.00150138,-0.331543,0.104482,-3.07907,-3.07905
3.87792,-0.00105222,0.000194745,0.00362688,-0.00190937,0.0080289,0.0268351,0.0310667,0.105525,0.117027,-0.0472978,-0.0198861,0.00213722,0.00632023,-0.0443092,0.00150138,-0.332628,0.106431,-3.08027,-3.08022
3.94821,-0.00106138,0.000658803,0.00422802,0.00424829,0.00785776,0.0278106,0.127813,-0.00605972,0.0386009,-0.047299,-0.0198901,0.00214741,0.00632053,-0.0443066,0.000701734,-0.333081,0.110112,-3.05871,-3.08149
4.01863,-0.000965933,0.000995194,0.00483258,0.0065054,0.00820161,0.0299254,0.0475811,0.00746095,0.0631247,-0.0473006,-0.0198951,0.00216004,0.00632048,-0.044306,6.94325e-05,-0.333755,0.112332,-3.04416,-3.05983
4.08891,-0.000669568,0.00138992,0.00546664,0.00647312,0.00773403,0.0311948,-0.00134957,-0.00946351,0.0471859,-0.0473024,-0.0199012,0.00217545,0.00632087,-0.0443064,-0.000353669,-0.334329,0.11374,-3.03492,-3.04502
4.15935,-0.000270607,0.00180284,0.0061045,0.00490631,0.00685713,0.0323176,-0.0342257,-0.0186587,0.0448809,-0.0473047,-0.0199086,0.00219395,0.00632154,-0.0443074,-0.00103049,-0.33503,0.114665,-3.01968,-3.03597
4.22963,-2.04844e-05,0.00214424,0.00677393,-0.000534159,0.00460391,0.0344051,-0.11319,-0.0457434,0.0649452,-0.0473074,-0.0199175,0.002216,0.00632274,-0.0443099,-0.00175907,-0.335642,0.11488,-3.00354,-3.02073
4.30006,0.000236859,0.00254429,0.00747982,-0.00895215,0.000389841,0.0351072,-0.176947,-0.087874,0.0376558,-0.0473107,-0.019928,0.00224203,0.00632513,-0.0443132,-0.000402628,-0.336426,0.113911,-3.034,-3.00435
4.37048,-0.00013944,0.00262435,0.00813364,-0.0174751,-0.00378117,0.0347692,-0.177674,-0.083331,0.0178614,-0.0473145,-0.0199403,0.00227228,0.00632744,-0.0443168,0.00062541,-0.337097,0.113016,-3.05731,-3.0349
4.44091,-0.000801053,0.00257764,0.00876264,-0.0252408,-0.00839115,0.035908,-0.162693,-0.0942941,0.0472031,-0.047319,-0.0199545,0.00230697,0.00633023,-0.0443198,0.00185061,-0.337621,0.11252,-3.08491,-3.05809
4.51121,-0.00199646,0.00221787,0.00938642,-0.0319086,-0.0129113,0.036664,-0.139339,-0.0901304,0.0400753,-0.0473242,-0.0199707,0.0023465,0.00633292,-0.0443225,0.00304562,-0.337947,0.112191,-3.11114,-3.08564
4.58164,-0.00341926,0.00169009,0.0099852,-0.038889,-0.0170104,0.0364216,-0.146342,-0.083154,0.0201826,-0.04733,-0.0199892,0.00239109,0.00633564,-0.0443251,0.00402191,-0.338228,0.11173,-3.13295,-3.11185
4.65194,-0.00527324,0.00088223,0.0105813,-0.0468699,-0.0218419,0.037945,-0.167525,-0.0961348,0.0554485,-0.0473367,-0.02001,0.00244113,0.00633884,-0.0443281,0.00458834,-0.338496,0.111053,3.13747,-3.13359
4.72238,-0.00744015,-9.91632e-05,0.0112041,-0.0545138,-0.0264383,0.0389967,-0.161016,-0.0933338,0.0461054,-0.0473443,-0.0200335,0.00249712,0.00634202,-0.0443309,0.0050011,-0.338771,0.110421,3.12797,3.1368
4.79267,-0.0100985,-0.00138433,0.0118151,-0.0613078,-0.0308476,0.0391473,-0.14359,-0.0881023,0.028471,-0.0473527,-0.0200598,0.00255943,0.00634507,-0.0443333,0.00533052,-0.339067,0.109858,3.12039,3.1273
4.86312,-0.0130281,-0.00282302,0.0124149,-0.0679092,-0.0354391,0.039771,-0.139878,-0.0933435,0.0378275,-0.0473622,-0.0200891,0.00262836,0.00634824,-0.0443354,0.00596344,-0.339171,0.109143,3.10664,3.11964
4.93343,-0.0163754,-0.00456883,0.0130103,-0.0742027,-0.0400787,0.0403853,-0.134154,-0.0926791,0.0378389,-0.0473728,-0.0201215,0.00270434,0.0063514,-0.0443375,0.00615993,-0.339287,0.108397,3.10201,3.10599
5.00387,-0.020001,-0.00649276,0.013618,-0.0792702,-0.0444081,0.0417441,-0.108559,-0.0881222,0.0526857,-0.0473845,-0.0201574,0.00278782,0.00635431,-0.044339,0.00631997,-0.339371,0.107978,3.0981,3.10132
5.07418,-0.0239308,-0.00870025,0.0142329,-0.0854217,-0.0489169,0.0418202,-0.132335,-0.0902845,0.027339,-0.0473974,-0.020197,0.00287929,0.00635748,-0.0443409,0.00653978,-0.339343,0.107091,3.09293,3.09723
5.14463,-0.0281089,-0.0110557,0.0148229,-0.0906806,-0.0533301,0.0419434,-0.114141,-0.0902358,0.0284204,-0.0474116,-0.0202405,0.00297898,0.00636041,-0.0443427,0.00617724,-0.339232,0.106455,3.09967,3.09214
5.21492,-0.0326421,-0.0137182,0.0154007,-0.0961381,-0.0579395,0.0424809,-0.118312,-0.0930538,0.0367022,-0.0474272,-0.0202879,0.00308724,0.00636357,-0.0443439,0.00646897,-0.338959,0.105808,3.09336,3.09892
5.28537,-0.0373818,-0.016548,0.0159773,-0.100813,-0.0619109,0.0432258,-0.102379,-0.0809952,0.0410442,-0.0474441,-0.0203397,0.00320446,0.00636621,-0.0443454,0.00671722,-0.338648,0.105327,3.08797,3.09261
5.35568,-0.0424444,-0.0196523,0.01656,-0.10529,-0.0662282,0.0437965,-0.0980843,-0.0870912,0.0376835,-0.0474626,-0.020396,0.00333109,0.00636908,-0.0443465,0.00667603,-0.338372,0.104752,3.08801,3.08713
5.42615,-0.0476765,-0.0229027,0.0171424,-0.109001,-0.0704016,0.0444019,-0.0823516,-0.0852467,0.0386667,-0.0474826,-0.020457,0.00346751,0.00637169,-0.0443477,0.00659821,-0.338087,0.104367,3.08886,3.08728
5.49649,-0.053168,-0.026446,0.0177245,-0.112991,-0.0744583,0.0449445,-0.088285,-0.0822129,0.037529,-0.0475043,-0.0205231,0.00361414,0.00637438,-0.0443486,0.00652816,-0.337834,0.103846,3.08953,3.0881
5.56697,-0.0587932,-0.0301331,0.018304,-0.116693,-0.0778902,0.0456299,-0.082841,-0.0706286,0.0407276,-0.0475277,-0.0205944,0.00377133,0.00637667,-0.0443498,0.00625413,-0.3377,0.103496,3.09408,3.0887
5.63727,-0.0646888,-0.0340614,0.0188766,-0.120191,-0.0816316,0.0456613,-0.0779892,-0.0760554,0.0279112,-0.0475528,-0.0206711,0.00393938,0.00637921,-0.0443505,0.00649858,-0.337521,0.103239,3.08886,3.09332
5.70774,-0.0706909,-0.0381093,0.0194348,-0.123604,-0.085409,0.0461389,-0.0769254,-0.0772966,0.0371437,-0.0475798,-0.0207535,0.00411854,0.00638164,-0.0443515,0.00670114,-0.337401,0.102922,3.08448,3.08811
5.77806,-0.0769387,-0.0424334,0.0200008,-0.127411,-0.0892796,0.0470197,-0.085175,-0.078663,0.0453377,-0.0476087,-0.0208417,0.00430919,0.00638429,-0.0443523,0.00676995,-0.337161,0.102585,3.08255,3.08374
5.84851,-0.0832925,-0.0468904,0.0205554,-0.131375,-0.0921812,0.0470379,-0.0892716,-0.0598516,0.0286646,-0.0476395,-0.020936,0.00451157,0.00638641,-0.0443536,0.00655468,-0.337009,0.102118,3.08607,3.08191
5.91883,-0.0899521,-0.0515608,0.0210848,-0.134227,-0.0955953,0.0469697,-0.0647265,-0.0694984,0.0272388,-0.0476723,-0.0210364,0.0047257,0.00638871,-0.0443542,0.00636708,-0.336998,0.102234,3.08881,3.08517
5.98929,-0.0966794,-0.0563623,0.0216085,-0.137654,-0.0983454,0.0480958,-0.0775601,-0.0566281,0.0513287,-0.0477071,-0.0211432,0.00495179,0.00639074,-0.0443551,0.00647574,-0.336951,0.102157,3.08611,3.08799
6.0596,-0.103655,-0.0613587,0.0221596,-0.141086,-0.102039,0.0488586,-0.0773184,-0.0749063,0.0445089,-0.047744,-0.0212566,0.00519037,0.00639326,-0.0443558,0.00671369,-0.336796,0.102043,3.08108,3.08526
6.13006,-0.110751,-0.0665036,0.0227165,-0.143977,-0.104727,0.0499649,-0.0660913,-0.0548145,0.0518579,-0.0477831,-0.0213769,0.00544173,0.0063952,-0.0443567,0.0066448,-0.336888,0.102459,3.08143,3.08009
6.20037,-0.118051,-0.0718478,0.0232848,-0.147493,-0.107739,0.0503441,-0.0792292,-0.0611247,0.0378466,-0.0478245,-0.0215044,0.00570621,0.00639747,-0.0443575,0.00657617,-0.336858,0.102599,3.08151,3.08015
6.27084,-0.125455,-0.0772664,0.0238504,-0.151094,-0.111344,0.0509855,-0.0819913,-0.0734636,0.043644,-0.0478683,-0.0216392,0.00598395,0.00639991,-0.0443585,0.00650109,-0.336621,0.102563,3.08159,3.0801
6.34117,-0.133126,-0.0829555,0.0244023,-0.154215,-0.114271,0.0513291,-0.0701876,-0.0591174,0.0382748,-0.0479143,-0.0217814,0.00627494,0.00640199,-0.0443592,0.00639559,-0.336486,0.102665,3.08231,3.08027
6.41163,-0.140893,-0.0887277,0.0249492,-0.157402,-0.117752,0.0519354,-0.0724732,-0.0705102,0.0440578,-0.0479627,-0.0219311,0.00657925,0.00640426,-0.0443601,0.00629499,-0.336117,0.102677,3.08296,3.08102
6.48238,-0.148889,-0.0947487,0.0254914,-0.160629,-0.12108,0.0524961,-0.0723429,-0.0669807,0.0437431,-0.0480135,-0.0220886,0.00689688,0.00640648,-0.0443607,0.00617785,-0.335854,0.102604,3.08408,3.08184
6.55286,-0.156991,-0.100892,0.0260256,-0.163787,-0.124285,0.0530095,-0.071423,-0.0645647,0.0434122,-0.0480668,-0.0222537,0.00722777,0.00640859,-0.0443616,0.00606755,-0.335438,0.1026,3.08524,3.08312
6.62317,-0.165316,-0.107276,0.026538,-0.166915,-0.12669,0.0531666,-0.0697546,-0.047943,0.0369501,-0.0481225,-0.0224266,0.00757165,0.00641032,-0.0443624,0.00596567,-0.335032,0.102715,3.08605,3.08409
6.69365,-0.173744,-0.113746,0.0270239,-0.170048,-0.128893,0.0532758,-0.0706434,-0.0440116,0.0365791,-0.0481805,-0.0226072,0.00792812,0.00641191,-0.0443635,0.00555901,-0.334635,0.102783,3.09285,3.08492
6.76398,-0.182388,-0.120382,0.0274947,-0.173731,-0.131525,0.0535949,-0.0820339,-0.0528226,0.0412951,-0.0482409,-0.0227953,0.00829691,0.00641385,-0.0443643,0.00539626,-0.334259,0.102609,3.09477,3.0916
6.83445,-0.191172,-0.127127,0.0279481,-0.176838,-0.133568,0.054078,-0.0700293,-0.0404462,0.0452013,-0.0483037,-0.022991,0.00867763,0.00641541,-0.0443653,0.00524458,-0.334131,0.102654,3.09634,3.0934
6.90478,-0.200176,-0.134032,0.0283823,-0.179943,-0.135401,0.0540396,-0.0692544,-0.0361131,0.0353785,-0.0483688,-0.0231941,0.00906987,0.00641694,-0.0443661,0.0052113,-0.334113,0.102898,3.09563,3.09493
6.97524,-0.209267,-0.140984,0.0287733,-0.18353,-0.137515,0.0532615,-0.0806089,-0.0416062,0.0212364,-0.048436,-0.0234044,0.00947282,0.00641866,-0.0443672,0.00541025,-0.334017,0.102837,3.09057,3.09417
7.04558,-0.218622,-0.148099,0.0291368,-0.186386,-0.140126,0.0539574,-0.0637395,-0.0510376,0.0510349,-0.0485054,-0.0236215,0.00988583,0.0064205,-0.0443678,0.00562752,-0.333959,0.103114,3.08523,3.08915
7.11606,-0.228045,-0.155319,0.0294949,-0.190198,-0.142472,0.0540304,-0.085436,-0.0457103,0.0390987,-0.0485769,-0.0238455,0.0103085,0.0064224,-0.0443689,0.00580827,-0.333872,0.103098,3.0807,3.08395
7.1864,-0.23774,-0.162698,0.0298192,-0.193093,-0.145152,0.0535155,-0.0646746,-0.0519948,0.0280285,-0.0486505,-0.024076,0.0107402,0.00642434,-0.0443697,0.00600975,-0.333905,0.1035,3.07585,3.07954
7.25688,-0.247486,-0.170129,0.0308583,-0.19612,-0.147308,0.0537212,-0.0686315,-0.0423746,0.0307722,-0.0487027,-0.02424,0.0110448,0.00642602,-0.0443706,0.00598479,-0.333763,0.103902,3.07522,3.07467
7.32722,-0.257431,-0.177725,0.0318392,-0.19986,-0.149497,0.0542605,-0.0836581,-0.0432725,0.0387669,-0.0487582,-0.0244144,0.0113662,0.00642791,-0.0443716,0.00595417,-0.333608,0.104047,3.07457,3.07391
7.3977,-0.267462,-0.185307,0.0335087,-0.203505,-0.152178,0.0540497,-0.0832206,-0.0541689,0.0130892,-0.0487931,-0.0245239,0.0115664,0.00642998,-0.0443727,0.00583793,-0.333344,0.104265,3.07565,3.07334
7.46803,-0.277735,-0.193108,0.035051,-0.207779,-0.153909,0.0544716,-0.0957044,-0.0352174,0.0277262,-0.0488324,-0.0246477,0.0117907,0.00643173,-0.0443739,0.00571847,-0.332987,0.104177,3.07657,3.0742
7.53852,-0.28814,-0.20091,0.0372443,-0.211448,-0.154851,0.055132,-0.0831988,-0.0199095,0.0223846,-0.0488516,-0.024708,0.0118991,0.00643301,-0.0443751,0.0056062,-0.332753,0.104392,3.07746,3.07525
7.60887,-0.298784,-0.208805,0.0393113,-0.215757,-0.156266,0.055909,-0.096543,-0.0296027,0.0273571,-0.0488765,-0.0247866,0.0120391,0.00643468,-0.0443762,0.00561488,-0.332542,0.104413,3.07606,3.07613
7.67939,-0.309597,-0.216768,0.0412684,-0.220099,-0.157761,0.0570222,-0.0978608,-0.0306089,0.0366039,-0.0489071,-0.0248827,0.0122089,0.00643629,-0.0443777,0.00537014,-0.332199,0.104338,3.0795,3.07467
7.74976,-0.320761,-0.224971,0.0423763,-0.224089,-0.158907,0.0580867,-0.0878283,-0.0220207,0.0501165,-0.0489683,-0.0250758,0.0125468,0.00643771,-0.0443786,0.00550394,-0.331937,0.104427,3.07584,3.07828
7.82027,-0.332199,-0.233427,0.0418892,-0.227565,-0.160141,0.0563183,-0.0754085,-0.0197013,0.0193214,-0.0490841,-0.0254407,0.0131798,0.00643893,-0.0443798,0.0056136,-0.331745,0.10487,3.07273,3.07471
7.89061,-0.343794,-0.241887,0.0421514,-0.231849,-0.161125,0.0566835,-0.0929793,-0.0168306,0.0489674,-0.0491737,-0.0257235,0.0136657,0.0064403,-0.0443809,0.00565013,-0.331591,0.105002,3.0711,3.0717
7.96112,-0.355612,-0.250483,0.0416233,-0.236134,-0.162768,0.0551213,-0.0924511,-0.0277385,0.0231209,-0.0492908,-0.0260927,0.0142942,0.00644185,-0.0443822,0.00571322,-0.331288,0.104999,3.06902,3.07012
8.03145,-0.367646,-0.259086,0.0418225,-0.239934,-0.163741,0.0543821,-0.0820569,-0.0159996,0.0266886,-0.049381,-0.0263773,0.0147739,0.00644313,-0.0443833,0.00576038,-0.331221,0.105376,3.06727,3.06809
8.10195,-0.379888,-0.267863,0.0412199,-0.243991,-0.16493,0.0534701,-0.0870087,-0.0182039,0.035511,-0.0494987,-0.0267485,0.0153937,0.00644451,-0.0443845,0.00582424,-0.331182,0.10568,3.0653,3.06643
8.17229,-0.392412,-0.276849,0.0398446,-0.249126,-0.165913,0.05138,-0.108639,-0.0128885,0.0232563,-0.049642,-0.0272005,0.0161408,0.00644599,-0.0443859,0.00588715,-0.331152,0.105716,3.06341,3.0645
8.2428,-0.405123,-0.285744,0.0392271,-0.252796,-0.166793,0.0496224,-0.0780765,-0.0117105,0.0161514,-0.0497555,-0.0275585,0.0167264,0.00644717,-0.044387,0.00593746,-0.331185,0.106311,3.0617,3.06259
8.31313,-0.418086,-0.294837,0.0378234,-0.257792,-0.167804,0.0476439,-0.10508,-0.013152,0.0227051,-0.0498948,-0.0279973,0.017437,0.00644864,-0.0443884,0.0060082,-0.331122,0.106382,3.05973,3.061
8.38364,-0.431319,-0.304109,0.0356581,-0.262794,-0.168731,0.0446312,-0.104558,-0.00929345,0.0124722,-0.0500577,-0.0285107,0.0182595,0.00644994,-0.04439,0.00577678,-0.331024,0.10638,3.06383,3.05919
8.45399,-0.444884,-0.31357,0.0327786,-0.268439,-0.169968,0.0420154,-0.116916,-0.0145334,0.0292635,-0.0502425,-0.0290925,0.0191815,0.00645147,-0.0443915,0.00557624,-0.330718,0.106174,3.06731,3.06324
8.52449,-0.458699,-0.323071,0.0299827,-0.273437,-0.170988,0.0391034,-0.103556,-0.00991878,0.0198736,-0.0504198,-0.0296508,0.0200565,0.0064528,-0.0443931,0.00571775,-0.330572,0.106316,3.0641,3.06679
8.59483,-0.472794,-0.332612,0.0272662,-0.27807,-0.17195,0.0363857,-0.0950457,-0.00905684,0.0199003,-0.05059,-0.0301859,0.0208858,0.00645411,-0.0443943,0.00602292,-0.330567,0.106676,3.05787,3.06363
8.66536,-0.487117,-0.342339,0.0238783,-0.283871,-0.173041,0.0335577,-0.119804,-0.00984037,0.0261707,-0.0507806,-0.030785,0.0218034,0.00645553,-0.0443962,0.00585844,-0.330367,0.106514,3.06088,3.05749
8.73569,-0.501753,-0.352097,0.020608,-0.289565,-0.173865,0.0304298,-0.116855,-0.00548904,0.0157099,-0.0509622,-0.0313552,0.0226667,0.00645694,-0.0443978,0.00571844,-0.330339,0.106478,3.06322,3.06031
8.80621,-0.516651,-0.361865,0.0174416,-0.294276,-0.174793,0.0275659,-0.0967357,-0.00732443,0.0168257,-0.051135,-0.0318973,0.0234775,0.00645815,-0.0443993,0.00550747,-0.330479,0.106816,3.0669,3.06257
8.87655,-0.531784,-0.371649,0.0143761,-0.299586,-0.175562,0.0243405,-0.108886,-0.00514288,0.00536537,-0.0512992,-0.0324118,0.0242377,0.00645946,-0.0444008,0.00547856,-0.330421,0.107023,3.0667,3.06604
8.94707,-0.547139,-0.381446,0.0114176,-0.305068,-0.176623,0.0222111,-0.113454,-0.0109559,0.0232525,-0.051455,-0.0328996,0.0249494,0.00646084,-0.0444026,0.00544797,-0.330301,0.107043,3.06657,3.06587
9.01743,-0.562853,-0.391439,0.00781801,-0.310597,-0.177552,0.0191717,-0.112395,-0.0068212,0.0130043,-0.0516308,-0.0334493,0.0257412,0.00646222,-0.0444041,0.00554459,-0.330322,0.107007,3.06381,3.06565
9.08794,-0.578811,-0.401451,0.00434045,-0.315525,-0.177908,0.0160561,-0.100612,0.00483694,0.0069561,-0.0517966,-0.0339671,0.0264774,0.00646318,-0.0444058,0.00530877,-0.330565,0.107155,3.06779,3.06289
9.1583,-0.595021,-0.411433,0.000976729,-0.320498,-0.17819,0.0126537,-0.101103,0.00509924,-0.00334263,-0.0519526,-0.0344539,0.0271601,0.00646423,-0.0444072,0.0051034,-0.330878,0.107356,3.07104,3.06673
9.22882,-0.611488,-0.421568,-0.00300933,-0.326686,-0.179616,0.00999018,-0.127261,-0.015941,0.0186567,-0.0521277,-0.034999,0.0279145,0.00646587,-0.0444091,0.00515285,-0.330835,0.107253,3.06913,3.07004
9.29917,-0.628433,-0.432099,-0.00832322,-0.332495,-0.181253,0.00642451,-0.116424,-0.0163366,0.018837,-0.0523485,-0.035686,0.0288519,0.00646754,-0.0444108,0.00524433,-0.330898,0.107439,3.06646,3.06824
9.36969,-0.645677,-0.442843,-0.0141634,-0.338813,-0.182812,0.00203152,-0.127127,-0.0129231,0.00721169,-0.0525829,-0.0364141,0.0298314,0.00646914,-0.0444127,0.00531729,-0.330861,0.107371,3.06429,3.0657
9.44006,-0.663319,-0.453773,-0.0205007,-0.344765,-0.18461,-0.00210338,-0.117944,-0.0166284,0.0165148,-0.0528294,-0.0371787,0.0308451,0.00647079,-0.0444144,0.00532064,-0.330825,0.107358,3.06355,3.06354
9.51058,-0.681208,-0.464706,-0.0265458,-0.350194,-0.186403,-0.0058475,-0.108041,-0.0173578,0.0163622,-0.0530579,-0.0378865,0.0317696,0.00647231,-0.044416,0.00510201,-0.330825,0.107521,3.06712,3.06249
9.58093,-0.699434,-0.475824,-0.0330409,-0.355827,-0.188897,-0.00953428,-0.111315,-0.0306036,0.0213957,-0.0532981,-0.0386293,0.0327254,0.0064742,-0.0444176,0.00497695,-0.330728,0.107646,3.06887,3.0662
9.65146,-0.717877,-0.486981,-0.039259,-0.361223,-0.190226,-0.0146076,-0.10723,-0.00803342,-0.014164,-0.0535197,-0.0393134,0.033592,0.00647555,-0.0444193,0.00486303,-0.330873,0.107964,3.07034,3.0679
9.72181,-0.736476,-0.497884,-0.0444766,-0.367211,-0.19106,-0.0181966,-0.121393,-0.0027338,-0.00370502,-0.0536942,-0.0398513,0.0342629,0.00647702,-0.0444211,0.00509015,-0.331032,0.108212,3.06484,3.06941
9.79235,-0.755398,-0.508971,-0.0502117,-0.37333,-0.192049,-0.0220741,-0.124058,-0.0037161,-0.00455952,-0.0538827,-0.0404317,0.0349752,0.00647838,-0.0444231,0.00503375,-0.331023,0.108339,3.06509,3.06382
9.86274,-0.77462,-0.51998,-0.0556785,-0.379118,-0.193609,-0.0252808,-0.117138,-0.0172462,0.00179768,-0.0540547,-0.0409601,0.0356132,0.00648006,-0.0444248,0.00498058,-0.330935,0.108419,3.06542,3.06421
9.93329,-0.79406,-0.53098,-0.0608693,-0.385428,-0.195222,-0.0277769,-0.129147,-0.0190573,0.00932121,-0.0542109,-0.041439,0.0361819,0.00648179,-0.0444266,0.00508856,-0.330693,0.108191,3.0623,3.06443
10.0037,-0.813905,-0.5422,-0.0665274,-0.391216,-0.196357,-0.0303398,-0.116577,-0.00807373,0.0129585,-0.0543815,-0.0419615,0.0367918,0.00648325,-0.0444283,0.00538144,-0.33053,0.108221,3.05545,3.0614
10.0742,-0.833956,-0.553374,-0.0718789,-0.397917,-0.197717,-0.0328696,-0.137173,-0.0136835,0.00680923,-0.0545357,-0.0424328,0.0373327,0.00648504,-0.0444304,0.00562218,-0.330338,0.108056,3.04973,3.05461
10.1446,-0.854345,-0.564515,-0.0769692,-0.403432,-0.197729,-0.035637,-0.112106,0.0119049,-0.00404167,-0.0546742,-0.0428553,0.0378091,0.00648595,-0.0444323,0.00531787,-0.330216,0.108336,3.05563,3.04902
10.2151,-0.874937,-0.57554,-0.0817821,-0.409662,-0.198845,-0.0375597,-0.128326,-0.0119144,0.0066061,-0.0547977,-0.0432316,0.0382259,0.00648749,-0.0444342,0.00487256,-0.329801,0.108158,3.06457,3.05485
10.2855,-0.895813,-0.586505,-0.086338,-0.416188,-0.19955,-0.0397637,-0.134889,-0.0054481,-0.0043745,-0.054907,-0.043564,0.0385875,0.00648886,-0.0444363,0.00447719,-0.3294,0.107793,3.07241,3.0638
10.3561,-0.917067,-0.597694,-0.0913805,-0.42262,-0.199931,-0.0416261,-0.132014,0.00326364,0.00784492,-0.0550331,-0.0439465,0.038996,0.00649005,-0.0444383,0.00432231,-0.32909,0.107468,3.07492,3.07152
10.4264,-0.93861,-0.608775,-0.0961365,-0.429327,-0.20008,-0.043283,-0.138637,0.0061871,0.00629616,-0.0551441,-0.044283,0.0393488,0.0064911,-0.0444406,0.00396886,-0.328777,0.107061,3.08165,3.07386
10.497,-0.960459,-0.619748,-0.100616,-0.434887,-0.200626,-0.0447417,-0.114954,-0.00279262,0.00482559,-0.055241,-0.044576,0.0396502,0.00649227,-0.0444423,0.00398084,-0.328473,0.107078,3.08039,3.08057
10.5673,-0.982557,-0.630631,-0.104845,-0.440351,-0.200817,-0.0464432,-0.113797,0.00330746,-0.00497246,-0.0553244,-0.0448277,0.0399042,0.0064932,-0.0444442,0.00398495,-0.328216,0.107251,3.07935,3.07937
10.6379,-1.00488,-0.641427,-0.108841,-0.445853,-0.200809,-0.0479226,-0.115395,0.00588084,-0.0053215,-0.0553949,-0.0450402,0.0401145,0.00649415,-0.0444461,0.00374679,-0.327957,0.107387,3.08374,3.07844
10.7082,-1.02744,-0.652109,-0.112602,-0.451433,-0.200795,-0.0487226,-0.117855,0.00468872,0.0038023,-0.0554532,-0.0452156,0.0402848,0.00649511,-0.044448,0.003859,-0.327696,0.107514,3.08043,3.0828
10.7793,-1.05001,-0.662101,-0.114661,-0.456913,-0.200391,-0.0477957,-0.120179,0.00444002,0.0129776,-0.0554375,-0.0451684,0.0402399,0.00649614,-0.04445,0.00394597,-0.327514,0.107675,3.07762,3.07944
10.8497,-1.07294,-0.672308,-0.117279,-0.462882,-0.199663,-0.0482898,-0.129093,0.0136125,-0.00688457,-0.0554467,-0.045196,0.0402657,0.00649693,-0.0444522,0.00386173,-0.327156,0.107595,3.0787,3.07677
10.9202,-1.0959,-0.681793,-0.118296,-0.468087,-0.197782,-0.0478586,-0.116724,0.0288817,-0.0120554,-0.0553843,-0.0450092,0.0400949,0.00649735,-0.0444541,0.00377322,-0.327037,0.107587,3.07979,3.07778
10.9906,-1.11923,-0.691443,-0.119922,-0.473932,-0.196738,-0.0471543,-0.12915,0.0148827,0.00273228,-0.0553503,-0.0449075,0.0400037,0.0064981,-0.0444563,0.0036929,-0.326772,0.107345,3.08086,3.07901
11.0612,-1.1427,-0.700667,-0.120681,-0.479553,-0.195365,-0.0458464,-0.126616,0.0172526,0.00288296,-0.0552789,-0.0446943,0.0398167,0.00649879,-0.0444583,0.00357782,-0.326391,0.107118,3.08267,3.08007
11.1315,-1.16633,-0.709471,-0.120612,-0.484941,-0.19267,-0.0436533,-0.123714,0.039691,0.00953484,-0.0551725,-0.0443772,0.0395441,0.00649888,-0.0444605,0.00329586,-0.326142,0.107069,3.08818,3.08182
11.2021,-1.19007,-0.717771,-0.119746,-0.49016,-0.190456,-0.0417406,-0.122392,0.0258145,-0.00588799,-0.0550334,-0.0439634,0.0391958,0.00649931,-0.0444626,0.00305106,-0.325771,0.106998,3.09275,3.08719
11.2725,-1.21398,-0.725613,-0.118146,-0.494329,-0.187957,-0.0392436,-0.101664,0.0281421,-0.00327682,-0.0548638,-0.0434595,0.0387805,0.00649951,-0.0444643,0.00314176,-0.325557,0.107243,3.08986,3.09178
11.343,-1.23805,-0.733372,-0.116539,-0.500483,-0.185369,-0.0365519,-0.144646,0.0299067,0.00240231,-0.0546987,-0.0429697,0.0383852,0.00650009,-0.0444666,0.00337478,-0.325411,0.106673,3.08386,3.08889
11.4134,-1.2625,-0.741017,-0.114953,-0.504426,-0.182521,-0.0346743,-0.0965821,0.0361761,-0.0115576,-0.0545381,-0.0424939,0.0380095,0.00650015,-0.0444683,0.00354667,-0.325405,0.107023,3.07906,3.08276
11.484,-1.28727,-0.748937,-0.114096,-0.50957,-0.179462,-0.0328333,-0.120506,0.0448239,-0.000608444,-0.0544154,-0.042131,0.0377289,0.00650025,-0.0444704,0.00369014,-0.325313,0.107001,3.07488,3.07795
11.5544,-1.31218,-0.756323,-0.1125,-0.514207,-0.176778,-0.0301698,-0.111539,0.0331945,0.00709534,-0.0542613,-0.0416758,0.0373845,0.00650053,-0.0444723,0.00376493,-0.325283,0.107108,3.07231,3.07389
11.6249,-1.33745,-0.763999,-0.111604,-0.519875,-0.174197,-0.0281704,-0.132192,0.0355396,0.00543022,-0.0541459,-0.0413353,0.0371324,0.00650093,-0.0444747,0.00355542,-0.325087,0.107054,3.07627,3.07149
11.6953,-1.36304,-0.77155,-0.110697,-0.525025,-0.17141,-0.026648,-0.12044,0.0396055,-0.00256252,-0.054033,-0.0410025,0.0368914,0.00650113,-0.0444767,0.0033737,-0.324965,0.107216,3.07945,3.07531
11.7659,-1.38904,-0.779378,-0.110477,-0.529922,-0.16899,-0.0251202,-0.113273,0.0369954,0.00825119,-0.0539571,-0.040779,0.0367331,0.0065013,-0.0444789,0.00292112,-0.324995,0.107327,3.08904,3.07854
11.8363,-1.41545,-0.78747,-0.110908,-0.535004,-0.166813,-0.0241113,-0.114666,0.0358387,0.00846672,-0.0539163,-0.0406592,0.03665,0.00650151,-0.0444808,0.00267182,-0.325069,0.107489,3.09411,3.08833
11.9068,-1.44208,-0.795436,-0.111283,-0.540476,-0.164362,-0.0240665,-0.124037,0.0414507,-0.0113459,-0.0538738,-0.0405345,0.0365654,0.00650157,-0.0444831,0.00245402,-0.325,0.107516,3.09853,3.0935
11.9772,-1.46884,-0.802838,-0.1109,-0.546026,-0.161624,-0.0219385,-0.127809,0.0417187,0.0202122,-0.0537944,-0.0403018,0.0364111,0.00650159,-0.0444853,0.00229661,-0.324774,0.107467,3.10156,3.09786
12.0478,-1.49604,-0.810542,-0.111153,-0.550675,-0.158955,-0.0206753,-0.106293,0.0460429,0.0131598,-0.0537517,-0.0401767,0.03633,0.00650147,-0.0444871,0.00238712,-0.324842,0.107853,3.09904,3.10099
12.1182,-1.52364,-0.818512,-0.112056,-0.555951,-0.156172,-0.0209001,-0.117585,0.0526121,-0.00667858,-0.0537438,-0.0401535,0.0363153,0.00650124,-0.0444892,0.00246293,-0.324892,0.108008,3.09678,3.09842
12.1888,-1.55148,-0.826304,-0.112891,-0.561295,-0.154013,-0.0207576,-0.120245,0.0398502,-0.000426292,-0.0537325,-0.0401205,0.0362949,0.00650129,-0.0444915,0.00216609,-0.324944,0.107869,3.10328,3.09616
12.2592,-1.5794,-0.833495,-0.112947,-0.567056,-0.151435,-0.0190378,-0.131343,0.0420927,0.020566,-0.0536817,-0.0399722,0.036205,0.00650135,-0.0444935,0.00218188,-0.324803,0.107455,3.10243,3.10273
12.3298,-1.6076,-0.84055,-0.11294,-0.572016,-0.149015,-0.0183627,-0.114964,0.0399599,-0.00019455,-0.0536304,-0.0398227,0.0361164,0.0065013,-0.0444956,0.00221444,-0.324652,0.10731,3.10105,3.10174
12.4002,-1.63625,-0.847911,-0.1136,-0.57749,-0.147168,-0.0183838,-0.123361,0.0325626,-0.00428963,-0.0536161,-0.0397808,0.0360921,0.00650147,-0.0444976,0.00223738,-0.324333,0.106873,3.09987,3.10034
12.4708,-1.66514,-0.855181,-0.114203,-0.582751,-0.144873,-0.017734,-0.119988,0.0420202,0.00838566,-0.0535991,-0.0397315,0.0360642,0.00650135,-0.0444999,0.00211598,-0.324062,0.106536,3.10214,3.09921
12.5411,-1.69412,-0.861802,-0.114036,-0.587348,-0.142325,-0.0160471,-0.107854,0.0407671,0.0189495,-0.053542,-0.0395656,0.0359724,0.0065012,-0.0445018,0.0018926,-0.323842,0.106553,3.10685,3.10139
12.6117,-1.72312,-0.867836,-0.113135,-0.591704,-0.138673,-0.0146737,-0.10586,0.058314,0.00339508,-0.053447,-0.0392898,0.0358231,0.00650064,-0.0445038,0.00169732,-0.323874,0.106612,3.11081,3.10606
12.6821,-1.75258,-0.874188,-0.112924,-0.595801,-0.135321,-0.0137674,-0.096663,0.0575092,0.00469303,-0.0533935,-0.0391345,0.035741,0.00650005,-0.0445056,0.00170322,-0.323958,0.106693,3.10994,3.11005
12.7527,-1.78198,-0.879893,-0.111985,-0.601608,-0.131832,-0.0121176,-0.138254,0.0550227,0.00998878,-0.0533016,-0.0388681,0.0356033,0.00649977,-0.0445078,0.00190192,-0.323836,0.105643,3.10483,3.10931
12.8231,-1.81154,-0.884909,-0.11034,-0.60554,-0.128217,-0.00940731,-0.0988458,0.052511,0.0229378,-0.0531737,-0.0384975,0.035416,0.00649929,-0.0445095,0.00206874,-0.323786,0.105507,3.10034,3.10414
12.8937,-1.84111,-0.889289,-0.10802,-0.608709,-0.124518,-0.00733787,-0.0850131,0.0500551,0.00229073,-0.0530118,-0.038029,0.0351847,0.00649874,-0.0445112,0.0019528,-0.323612,0.105518,3.10267,3.09984
12.9643,-1.8709,-0.893556,-0.105744,-0.612017,-0.121048,-0.00442932,-0.0872705,0.0456488,0.0215197,-0.0528583,-0.0375849,0.0349703,0.00649833,-0.0445127,0.00201039,-0.323417,0.105557,3.10086,3.10217
13.0349,-1.90086,-0.89777,-0.103512,-0.615668,-0.117216,-0.00261273,-0.0950483,0.0547488,0.00195694,-0.0527131,-0.0371649,0.0347721,0.0064977,-0.0445145,0.00206139,-0.323084,0.105338,3.09918,3.10034
13.1052,-1.93085,-0.901307,-0.100661,-0.619178,-0.113076,4.53305e-05,-0.0936705,0.0552674,0.0117254,-0.0525353,-0.0366509,0.0345351,0.00649707,-0.0445161,0.00210033,-0.322793,0.10509,3.09766,3.09853
13.1758,-1.96105,-0.904789,-0.0978914,-0.622069,-0.108757,0.00216452,-0.0798108,0.0612341,0.00375557,-0.0523682,-0.0361677,0.0343173,0.0064962,-0.0445177,0.00196795,-0.322466,0.105237,3.10013,3.09695
13.2462,-1.99147,-0.908166,-0.0952304,-0.625026,-0.103668,0.00383979,-0.079935,0.0772941,-0.00218105,-0.0522114,-0.0357145,0.0341176,0.00649495,-0.0445193,0.00179188,-0.322237,0.105541,3.10376,3.09945
13.3168,-2.02205,-0.911437,-0.0926478,-0.629078,-0.0992746,0.00609472,-0.105108,0.0647194,0.0117321,-0.0520647,-0.0352908,0.033935,0.00649412,-0.0445212,0.00164003,-0.321833,0.10512,3.10676,3.10304
13.3872,-2.05291,-0.914578,-0.0901432,-0.633002,-0.0947171,0.00822524,-0.100899,0.0685472,0.0120735,-0.0519282,-0.0348962,0.0337689,0.00649317,-0.0445229,0.00155302,-0.321505,0.104853,3.10821,3.10609
13.4578,-2.08377,-0.917046,-0.0870288,-0.636222,-0.0898201,0.0107766,-0.0882198,0.071506,0.0134192,-0.0517589,-0.0344071,0.0335675,0.00649207,-0.0445246,0.00148732,-0.321153,0.104818,3.10914,3.10754
13.5282,-2.11488,-0.919406,-0.0840134,-0.63948,-0.0843164,0.0133407,-0.0877057,0.0847429,0.0168982,-0.051602,-0.0339538,0.033385,0.00649064,-0.0445263,0.00142871,-0.320741,0.105032,3.11004,3.10861
13.5988,-2.14617,-0.921683,-0.0810813,-0.643676,-0.0791335,0.0155191,-0.109467,0.0802592,0.0119429,-0.0514574,-0.0335358,0.0332205,0.00648936,-0.0445284,0.00108287,-0.320211,0.104529,3.11843,3.10964
13.6692,-2.17778,-0.923805,-0.0782656,-0.646826,-0.0741206,0.017025,-0.0838934,0.0779135,0.00177383,-0.0513248,-0.0331524,0.0330729,0.00648799,-0.0445301,0.000732317,-0.319896,0.104648,3.12714,3.11799
13.7398,-2.20958,-0.925887,-0.0755438,-0.650575,-0.0689164,0.0194778,-0.0977885,0.0839666,0.0229778,-0.0512039,-0.0328027,0.0329413,0.00648649,-0.044532,0.0004383,-0.319506,0.104294,3.13448,3.12677
13.8102,-2.24218,-0.929126,-0.0742749,-0.654039,-0.0644547,0.0198024,-0.0825658,0.0840302,0.0022583,-0.0511835,-0.0327437,0.0329196,0.00648502,-0.0445331,0.00112597,-0.319089,0.104285,3.11874,3.1339
13.8808,-2.27521,-0.932952,-0.0737499,-0.657525,-0.0597436,0.0197747,-0.0811438,0.0989406,0.00538349,-0.0512135,-0.0328308,0.0329509,0.00648319,-0.0445349,0.00163738,-0.318892,0.104226,3.10668,3.11824
13.9512,-2.30875,-0.937225,-0.0739191,-0.660783,-0.0555294,0.0202401,-0.0715685,0.0951989,0.025238,-0.0512917,-0.0330569,0.0330306,0.00648148,-0.0445363,0.00174285,-0.318705,0.104405,3.10361,3.10622
14.0218,-2.34266,-0.942048,-0.0747361,-0.665025,-0.0509664,0.0198356,-0.0917748,0.110475,0.0166407,-0.0514155,-0.0334152,0.0331541,0.00647952,-0.0445381,0.00183119,-0.318491,0.104009,3.10113,3.10325
14.0922,-2.37682,-0.946547,-0.0755351,-0.668639,-0.0465699,0.0188582,-0.0766479,0.105522,0.0048914,-0.0515364,-0.0337653,0.0332722,0.00647756,-0.0445397,0.00173528,-0.31824,0.104064,3.10314,3.10069
14.1628,-2.41137,-0.951564,-0.0769934,-0.672809,-0.0424414,0.0174132,-0.0873486,0.107928,0.00359154,-0.0517008,-0.0342419,0.0334295,0.00647567,-0.0445414,0.00159738,-0.317985,0.103931,3.10594,3.10248
14.2332,-2.44615,-0.956246,-0.0784043,-0.676601,-0.038445,0.0170043,-0.0786474,0.103195,0.0231943,-0.0518596,-0.0347021,0.0335783,0.00647377,-0.044543,0.00147475,-0.317633,0.104166,3.10823,3.10517
14.3038,-2.48132,-0.96146,-0.0804048,-0.68104,-0.0346719,0.0161532,-0.0911634,0.106484,0.0217991,-0.0520602,-0.0352839,0.0337623,0.00647193,-0.0445448,0.00142734,-0.317278,0.104003,3.10872,3.10754
14.3742,-2.5167,-0.966308,-0.0823432,-0.685778,-0.0303074,0.0143522,-0.0974302,0.115865,0.00146484,-0.0522527,-0.0358422,0.0339352,0.00646977,-0.0445465,0.0014232,-0.316836,0.10341,3.10806,3.10793
14.4449,-2.55226,-0.970893,-0.0842288,-0.68935,-0.0258202,0.0127477,-0.0716794,0.118917,0.00317955,-0.052437,-0.0363771,0.0340974,0.00646753,-0.0445481,0.00141416,-0.316644,0.103704,3.10735,3.10712
14.5152,-2.58799,-0.975087,-0.0860695,-0.693041,-0.0211416,0.0112032,-0.074577,0.120489,0.00279713,-0.0526133,-0.036889,0.0342494,0.00646524,-0.0445496,0.00139708,-0.316482,0.103791,3.10668,3.10626
14.5858,-2.62382,-0.979013,-0.0878278,-0.696814,-0.0162283,0.0108512,-0.0776292,0.125074,0.0244513,-0.0527817,-0.0373785,0.0343917,0.00646288,-0.0445511,0.0013537,-0.316217,0.103816,3.10676,3.10571
14.6562,-2.66013,-0.983305,-0.0901869,-0.700675,-0.0116693,0.00898299,-0.0757721,0.123889,0.0021143,-0.052992,-0.0379896,0.0345659,0.00646048,-0.0445527,0.00131113,-0.315847,0.103757,3.10686,3.10583
14.7268,-2.69651,-0.987296,-0.0924565,-0.705346,-0.00703557,0.00759693,-0.0962355,0.124573,0.00908089,-0.0531918,-0.0385707,0.0347281,0.00645825,-0.0445543,0.00154514,-0.315356,0.103122,3.10065,3.10579
14.7972,-2.73254,-0.989212,-0.0933181,-0.708472,-0.00115233,0.00683447,-0.0682301,0.131459,0.00133228,-0.0532814,-0.0388313,0.0347994,0.00645558,-0.0445559,0.00140514,-0.314943,0.103404,3.10312,3.09968
14.8679,-2.76837,-0.990011,-0.0934574,-0.711621,0.00457306,0.00737681,-0.0734836,0.119571,0.0169334,-0.0533167,-0.0389342,0.034827,0.00645333,-0.0445572,0.00133911,-0.314508,0.103469,3.10389,3.10226
14.9382,-2.80407,-0.98964,-0.0929125,-0.715476,0.0121006,0.00809725,-0.0927883,0.146537,0.0114441,-0.0533009,-0.038888,0.0348148,0.00645042,-0.0445592,0.00127639,-0.313992,0.10297,3.10454,3.10304
15.0089,-2.83964,-0.988149,-0.0916946,-0.718511,0.0197431,0.00916026,-0.0778685,0.141498,0.00940132,-0.0532366,-0.0387007,0.0347666,0.00644763,-0.0445606,0.00127274,-0.313469,0.102905,3.1039,3.1038
15.0798,-2.87544,-0.986309,-0.090506,-0.722024,0.0274915,0.0105829,-0.0879107,0.144122,0.0178785,-0.0531784,-0.0385311,0.0347237,0.0064447,-0.0445624,0.00136115,-0.312638,0.102526,3.10124,3.10325
15.1505,-2.91111,-0.983375,-0.0886571,-0.724767,0.0359802,0.0124665,-0.0734738,0.152069,0.0189161,-0.0530742,-0.0382273,0.0346485,0.00644157,-0.0445639,0.00143266,-0.311905,0.102496,3.09886,3.10052
15.2209,-2.94701,-0.980115,-0.0868632,-0.72705,0.0449013,0.0138331,-0.0613625,0.162261,0.0105362,-0.0529793,-0.0379504,0.0345812,0.00643811,-0.0445654,0.00134923,-0.311255,0.103046,3.10016,3.09818
15.2915,-2.98272,-0.975715,-0.0844648,-0.729797,0.0547014,0.0150547,-0.0754404,0.172422,5.24521e-05,-0.0528405,-0.0375454,0.0344847,0.00643444,-0.044567,0.00130334,-0.310414,0.103114,3.10075,3.09966
15.3619,-3.01868,-0.970985,-0.0821651,-0.732254,0.0651255,0.0168415,-0.0668202,0.187075,0.01367,-0.0527138,-0.0371756,0.0343982,0.00643039,-0.0445687,0.00125977,-0.309627,0.103638,3.10104,3.10003
15.4325,-3.0548,-0.965965,-0.0799338,-0.734945,0.0753817,0.0183727,-0.0716389,0.185744,0.0106592,-0.052599,-0.0368403,0.0343212,0.00642634,-0.0445703,0.00115198,-0.308799,0.104032,3.10293,3.10029
15.5029,-3.09115,-0.96058,-0.0777865,-0.737854,0.0859746,0.0197921,-0.0754207,0.194133,0.0106592,-0.0524958,-0.0365387,0.0342533,0.00642223,-0.0445721,0.00112279,-0.308038,0.104399,3.10281,3.10215
15.5735,-3.12769,-0.954905,-0.0757025,-0.74097,0.096704,0.021592,-0.0797112,0.19899,0.0201244,-0.0524039,-0.0362704,0.0341939,0.00641789,-0.0445739,0.00109273,-0.307043,0.10471,3.10278,3.10209
15.6439,-3.16413,-0.947899,-0.073024,-0.744461,0.108975,0.023367,-0.0910425,0.221976,0.0125246,-0.0522681,-0.035874,0.0341077,0.00641316,-0.0445759,0.00113249,-0.306258,0.104837,3.10102,3.10201
15.7145,-3.20083,-0.94056,-0.0704279,-0.747207,0.120828,0.0254485,-0.0727586,0.216885,0.0211306,-0.0521467,-0.0355195,0.034032,0.00640841,-0.0445777,0.0010786,-0.305498,0.105455,3.10144,3.10017
15.7849,-3.23775,-0.932818,-0.0679142,-0.751556,0.133078,0.0272503,-0.108294,0.226042,0.0179482,-0.0520394,-0.0352064,0.0339664,0.00640362,-0.0445799,0.00100975,-0.304418,0.104908,3.10241,3.10077
15.8556,-3.27495,-0.924769,-0.065496,-0.755254,0.146289,0.0286515,-0.0914873,0.24867,0.0124731,-0.0519458,-0.0349334,0.0339101,0.00639825,-0.044582,0.000946432,-0.303837,0.104898,3.10324,3.10177
15.926,-3.31244,-0.91624,-0.0631784,-0.75902,0.159687,0.0299425,-0.0912823,0.254508,0.012475,-0.0518656,-0.0346997,0.0338627,0.00639273,-0.0445841,0.000775817,-0.303228,0.104968,3.10655,3.10232
15.9966,-3.35017,-0.907311,-0.0609548,-0.762872,0.173254,0.0311179,-0.0925022,0.260389,0.0124369,-0.0517983,-0.0345039,0.0338237,0.00638709,-0.0445862,0.000697788,-0.302643,0.10506,3.10748,3.10562
16.067,-3.38819,-0.897862,-0.0588168,-0.767269,0.18643,0.032467,-0.104435,0.25407,0.0178576,-0.0517437,-0.0343453,0.0337926,0.00638162,-0.0445885,0.00062532,-0.301979,0.104697,3.10841,3.10667
16.1377,-3.42649,-0.888031,-0.0567592,-0.771123,0.200246,0.0339065,-0.0908688,0.269711,0.0218172,-0.0517015,-0.0342228,0.0337689,0.00637587,-0.0445905,0.000742347,-0.301622,0.104789,3.10471,3.10748
16.2081,-3.46509,-0.877662,-0.0547857,-0.774507,0.213804,0.0346764,-0.0795947,0.266684,0.0103712,-0.0516714,-0.0341355,0.0337524,0.0063701,-0.0445926,0.000680408,-0.301271,0.105319,3.10517,3.10374
16.2787,-3.5039,-0.866857,-0.052908,-0.778153,0.227453,0.0353443,-0.0847537,0.270345,0.010273,-0.0516529,-0.0340821,0.0337424,0.0063643,-0.0445946,0.000622728,-0.300848,0.105668,3.10573,3.10437
16.3491,-3.54298,-0.855519,-0.051126,-0.782423,0.24125,0.0358721,-0.0980898,0.274959,0.00909996,-0.0516457,-0.0340613,0.0337385,0.00635834,-0.0445969,0.000283484,-0.300245,0.105547,3.11382,3.10497
16.4198,-3.58232,-0.843717,-0.0494398,-0.786379,0.255189,0.0363542,-0.0890023,0.279757,0.0100126,-0.0516494,-0.0340717,0.0337404,0.0063522,-0.0445989,7.41079e-05,-0.299836,0.105823,3.11843,3.1129
16.4902,-3.62195,-0.831356,-0.0478562,-0.790039,0.269328,0.0363316,-0.0818787,0.286094,0.00142288,-0.0516633,-0.0341119,0.0337476,0.00634595,-0.0446008,0.000411246,-0.299433,0.106256,3.10958,3.1174
16.5609,-3.66181,-0.818503,-0.0463697,-0.793827,0.283937,0.0368488,-0.0845757,0.297488,0.0136824,-0.0516872,-0.0341803,0.0337596,0.00633939,-0.0446028,0.000699367,-0.299096,0.106417,3.10165,3.10849
16.6313,-3.70193,-0.80503,-0.0449711,-0.798369,0.298393,0.0365658,-0.102485,0.295573,-0.00102139,-0.0517206,-0.0342757,0.0337762,0.00633314,-0.0446051,0.0008444,-0.29871,0.105971,3.09717,3.10071
16.702,-3.74233,-0.791021,-0.0436705,-0.801926,0.312753,0.0367858,-0.0779113,0.295742,0.0104866,-0.0517629,-0.0343965,0.0337968,0.00632666,-0.0446072,0.000708631,-0.298452,0.106312,3.09968,3.09628
16.7698,-3.78297,-0.776421,-0.0424339,-0.807009,0.328076,0.0375672,-0.112696,0.315571,0.0224886,-0.051814,-0.0345418,0.0338213,0.00631998,-0.0446097,0.000588845,-0.297905,0.105888,3.10179,3.0988
16.8404,-3.82392,-0.76121,-0.0412473,-0.810687,0.342514,0.0381239,-0.0793422,0.300075,0.0196333,-0.0518737,-0.034711,0.0338495,0.00631341,-0.0446117,0.000760368,-0.297549,0.106609,3.09662,3.10072
16.9108,-3.86511,-0.74539,-0.0401244,-0.815024,0.357731,0.0382462,-0.0934247,0.31702,0.0117216,-0.0519416,-0.0349029,0.0338809,0.00630657,-0.0446142,0.000251534,-0.297149,0.107121,3.10962,3.09569
16.9815,-3.90653,-0.72896,-0.0390745,-0.820234,0.372623,0.038082,-0.112422,0.310425,0.00746632,-0.0520174,-0.0351166,0.0339155,0.00629989,-0.0446167,-0.000185245,-0.296762,0.107166,3.12079,3.10868
17.0519,-3.9491,-0.71405,-0.039437,-0.826073,0.386439,0.0369536,-0.116301,0.312755,0.00723934,-0.0522316,-0.0357177,0.0340114,0.00629321,-0.0446192,-0.000186904,-0.29639,0.106948,3.11999,3.12001
17.1226,-3.99154,-0.697343,-0.0391894,-0.831065,0.401247,0.0353645,-0.101908,0.321477,-0.0110884,-0.0523788,-0.0361294,0.0340763,0.00628614,-0.0446214,-0.000313701,-0.296166,0.107087,3.12223,3.11895
17.193,-4.03512,-0.682102,-0.0403319,-0.836712,0.414561,0.0342815,-0.107308,0.314385,0.0171566,-0.052662,-0.0369186,0.034199,0.00627936,-0.0446238,-0.000426715,-0.295921,0.106965,3.12418,3.1212
17.2637,-4.07849,-0.665018,-0.0407987,-0.842491,0.429684,0.0334369,-0.116092,0.338047,0.01194,-0.0528725,-0.037503,0.0342888,0.00627199,-0.0446261,-0.00040306,-0.295757,0.106307,3.12254,3.12324
17.3341,-4.12219,-0.647076,-0.0412694,-0.84749,0.443888,0.0323786,-0.0990343,0.319861,0.00695038,-0.0530815,-0.0380811,0.0343764,0.00626499,-0.0446283,-0.000419012,-0.295584,0.106135,3.12204,3.12169
17.4047,-4.16568,-0.627294,-0.041096,-0.852166,0.459227,0.0319249,-0.0974673,0.330614,0.00953674,-0.0532204,-0.0384637,0.0344337,0.00625772,-0.0446304,-0.000376998,-0.295441,0.105945,3.11987,3.12108
17.4751,-4.20942,-0.606732,-0.0409615,-0.857513,0.474777,0.0308879,-0.113777,0.335154,-0.0022974,-0.0533616,-0.0388511,0.0344909,0.00625044,-0.0446328,-0.000347784,-0.29546,0.104947,3.11795,3.11882
17.5458,-4.25345,-0.585425,-0.0408823,-0.862448,0.48968,0.0301548,-0.10448,0.322149,0.00426102,-0.0535047,-0.0392423,0.0345481,0.00624346,-0.044635,-0.000271766,-0.295412,0.104094,3.11469,3.11678
17.6162,-4.29778,-0.563357,-0.0408258,-0.866199,0.504376,0.0300088,-0.0763681,0.318959,0.015748,-0.0536496,-0.0396368,0.034605,0.00623657,-0.0446369,-0.000416405,-0.295487,0.104331,3.11727,3.11337
17.6869,-4.3423,-0.540568,-0.0408088,-0.870031,0.519322,0.0288836,-0.0775404,0.323497,-0.00346184,-0.053796,-0.0400339,0.0346616,0.00622942,-0.0446388,-0.000547025,-0.295288,0.104532,3.11972,3.11617
17.7573,-4.38656,-0.515883,-0.0401585,-0.873758,0.534759,0.0287008,-0.081458,0.322038,0.0057888,-0.0538717,-0.0402386,0.0346904,0.00622229,-0.0446406,-0.000298489,-0.295222,0.104479,3.11232,3.11866
17.828,-4.43103,-0.49051,-0.0395791,-0.87732,0.55035,0.0279939,-0.0775098,0.325965,-0.00383854,-0.0539527,-0.0404566,0.0347208,0.00621514,-0.0446426,-0.000417875,-0.29517,0.104608,3.1146,3.11136
17.8984,-4.47574,-0.464407,-0.0390428,-0.880693,0.565609,0.0282719,-0.0717901,0.320097,0.0161095,-0.0540385,-0.0406871,0.0347524,0.00620804,-0.0446443,-0.000524304,-0.2951,0.104919,3.11671,3.1138
17.9691,-4.52062,-0.43761,-0.038559,-0.88496,0.581187,0.0274495,-0.0933234,0.32676,-0.00516987,-0.0541289,-0.0409291,0.0347853,0.00620086,-0.0446464,-0.00031779,-0.294958,0.104348,3.11062,3.11591
18.0395,-4.56577,-0.410074,-0.0381178,-0.888974,0.596499,0.0275645,-0.0879427,0.322563,0.0137625,-0.0542236,-0.0411817,0.0348193,0.00619382,-0.0446483,3.06979e-05,-0.294671,0.103828,3.10175,3.10993
18.1102,-4.61116,-0.38183,-0.0377204,-0.892219,0.612042,0.027217,-0.0688988,0.328169,0.00512409,-0.0543224,-0.0414443,0.0348541,0.00618653,-0.0446502,0.000333928,-0.294461,0.103943,3.09405,3.10117
18.1806,-4.65674,-0.352845,-0.0373742,-0.8962,0.627872,0.0262676,-0.0862406,0.334348,-0.00666618,-0.0544248,-0.0417157,0.0348898,0.00617927,-0.0446523,0.000401152,-0.294375,0.10349,3.09154,3.09328
18.2513,-4.70255,-0.323119,-0.0370901,-0.899655,0.644021,0.0259644,-0.0720347,0.341164,0.00666523,-0.0545303,-0.0419949,0.034926,0.0061719,-0.0446544,0.000396413,-0.294245,0.103683,3.09082,3.09078
18.3217,-4.74856,-0.292599,-0.0368355,-0.903634,0.659764,0.0254508,-0.0838425,0.333258,0.00255871,-0.0546388,-0.0422811,0.0349626,0.00616462,-0.0446566,0.000506871,-0.294024,0.103582,3.08743,3.09003
18.3924,-4.7948,-0.261326,-0.0366159,-0.907195,0.675416,0.0254372,-0.072914,0.332012,0.0129213,-0.05475,-0.0425737,0.0349997,0.00615746,-0.0446587,0.000596054,-0.293783,0.103952,3.0843,3.08639
18.4628,-4.84124,-0.229299,-0.0364207,-0.910838,0.691792,0.0250756,-0.0740667,0.346943,0.00603771,-0.0548637,-0.0428721,0.0350371,0.00614995,-0.044661,0.000737498,-0.293728,0.104614,3.07994,3.08309
18.5335,-4.88789,-0.196481,-0.036236,-0.914834,0.707917,0.0256448,-0.0814763,0.342275,0.0248604,-0.0549799,-0.0431764,0.0350748,0.00614259,-0.0446633,0.000910909,-0.293635,0.105175,3.07486,3.07886
18.6039,-4.93477,-0.162878,-0.0360697,-0.918048,0.724891,0.0250112,-0.0615318,0.360396,0.00105381,-0.0550984,-0.0434861,0.0351127,0.0061348,-0.0446657,0.00105143,-0.293868,0.106764,3.07047,3.07374
18.6746,-4.98181,-0.128427,-0.0359225,-0.922857,0.740201,0.0247738,-0.0991975,0.326293,0.00911331,-0.055219,-0.0438008,0.0351508,0.00612804,-0.0446685,0.00111108,-0.293615,0.107308,3.06791,3.06929
18.7451,-5.02911,-0.0932337,-0.0358049,-0.927869,0.756252,0.0241843,-0.10199,0.3415,0.00218582,-0.0553416,-0.0441198,0.0351889,0.00612098,-0.0446715,0.000883726,-0.293468,0.108156,3.07199,3.06661
18.8158,-5.07668,-0.0572568,-0.0357259,-0.93292,0.772806,0.0237711,-0.10143,0.351693,0.00583935,-0.0554659,-0.0444425,0.0352271,0.00611371,-0.0446745,0.000678376,-0.293398,0.10941,3.07533,3.0705
18.8863,-5.12451,-0.0204619,-0.0356558,-0.93868,0.789253,0.0238206,-0.116209,0.349738,0.0150242,-0.0555918,-0.0447685,0.0352652,0.00610648,-0.0446777,0.000661901,-0.293241,0.110468,3.0743,3.07398
18.9569,-5.17262,0.0171551,-0.0356152,-0.945228,0.805654,0.0226903,-0.133988,0.348517,-0.00833225,-0.055719,-0.0450973,0.0353032,0.00609956,-0.0446813,0.000658509,-0.292708,0.111137,3.07287,3.07284
19.0274,-5.22108,0.0555871,-0.0356169,-0.952133,0.822186,0.0220192,-0.141045,0.35125,0.000751495,-0.0558473,-0.0454278,0.035341,0.00609248,-0.0446849,0.000647133,-0.2922,0.111712,3.07157,3.07135
19.0981,-5.2699,0.0948349,-0.0356548,-0.959272,0.839458,0.0214722,-0.145634,0.366053,0.00319862,-0.0559764,-0.0457594,0.0353784,0.0060853,-0.0446887,0.000468466,-0.291741,0.112355,3.07459,3.07024
19.1685,-5.31909,0.13496,-0.0357258,-0.96584,0.856997,0.0205382,-0.131753,0.371675,-0.00449467,-0.056106,-0.0460911,0.0354154,0.00607772,-0.0446923,0.000430934,-0.29147,0.113574,3.07425,3.0734
19.2392,-5.3686,0.175975,-0.0358385,-0.973855,0.874302,0.0193366,-0.163645,0.366622,-0.0100574,-0.0562358,-0.0464221,0.0354519,0.00607066,-0.0446963,0.00053006,-0.291019,0.113875,3.07069,3.07314
19.3097,-5.41984,0.215455,-0.0373372,-0.981756,0.8903,0.0177635,-0.146555,0.367313,0.00137234,-0.0565378,-0.0471896,0.0355356,0.00606339,-0.0447001,0.000611739,-0.290819,0.114692,3.06747,3.06955
19.381,-5.47073,0.257117,-0.0381363,-0.990075,0.907687,0.016806,-0.163054,0.379942,0.00252914,-0.056742,-0.0477062,0.0355913,0.00605608,-0.0447044,0.000520529,-0.290725,0.115221,3.06856,3.06625
19.4515,-5.52201,0.299751,-0.0389266,-0.999588,0.92478,0.0156038,-0.18897,0.372469,-0.00297832,-0.0569408,-0.0482068,0.0356446,0.00604899,-0.0447089,0.000297094,-0.290448,0.115298,3.07334,3.06747
19.5222,-5.57373,0.34336,-0.0397446,-1.00866,0.941753,0.0133853,-0.17934,0.369164,-0.0240383,-0.0571338,-0.0486905,0.0356956,0.00604196,-0.0447134,9.86923e-05,-0.290257,0.115675,3.0776,3.07241
19.5926,-5.62588,0.387912,-0.0405884,-1.01809,0.959026,0.0122896,-0.186956,0.374067,-0.00251579,-0.0573208,-0.0491566,0.0357441,0.00603483,-0.0447178,0.000170374,-0.290021,0.11594,3.07488,3.07677
19.6633,-5.67846,0.433422,-0.0414399,-1.02751,0.977543,0.0110313,-0.186646,0.398566,-0.00669193,-0.0575015,-0.0496046,0.0357902,0.00602711,-0.0447224,0.00030382,-0.289919,0.116245,3.0704,3.07394
19.7338,-5.73076,0.481219,-0.0416181,-1.03664,0.995933,0.00998539,-0.188659,0.38104,-0.0126686,-0.057584,-0.049808,0.0358109,0.00601989,-0.0447271,0.000410532,-0.289822,0.116597,3.0667,3.06956
19.8045,-5.78352,0.529956,-0.0418215,-1.04546,1.01471,0.00962366,-0.18173,0.38882,0.000653267,-0.0576654,-0.0500075,0.0358309,0.00601242,-0.0447318,9.55297e-05,-0.289916,0.117274,3.07439,3.0658
19.8749,-5.83826,0.577176,-0.0433806,-1.05504,1.03199,0.00836392,-0.181578,0.386099,0.00162888,-0.0579334,-0.0506602,0.0358958,0.00600505,-0.0447362,0.000199357,-0.290062,0.117856,3.07058,3.07342
19.9456,-5.89416,0.624206,-0.0455704,-1.06649,1.04824,0.00637695,-0.216259,0.377717,-0.00508595,-0.0582841,-0.0515088,0.0359791,0.00599804,-0.0447416,-8.61594e-06,-0.290163,0.117882,3.07521,3.06957
20.0161,-5.94975,0.673592,-0.0470288,-1.07676,1.06518,0.00506201,-0.198874,0.373654,-0.00306606,-0.0585209,-0.0520779,0.0360343,0.00599104,-0.0447463,-0.000186883,-0.29035,0.118241,3.07908,3.07421
20.0868,-6.0074,0.72148,-0.0498037,-1.08796,1.08109,0.00300565,-0.203925,0.380347,-0.000479698,-0.0589401,-0.0530788,0.0361304,0.00598387,-0.0447512,-0.000273222,-0.29058,0.118478,3.08022,3.07794
20.1573,-6.06548,0.770537,-0.0524776,-1.09979,1.09603,0.00118719,-0.218978,0.355761,0.0017662,-0.0593363,-0.0540179,0.0362194,0.00597732,-0.0447562,-0.000272912,-0.290548,0.118322,3.07894,3.07899
20.228,-6.12486,0.819383,-0.0557454,-1.11174,1.11145,-0.00117979,-0.215542,0.377359,-0.00243092,-0.0598091,-0.0551311,0.0363237,0.0059703,-0.0447612,-0.000279765,-0.290753,0.118224,3.07777,3.07765
20.2984,-6.18554,0.868161,-0.059585,-1.12399,1.12581,-0.00403911,-0.215046,0.36496,-0.00565147,-0.0603545,-0.0564058,0.0364418,0.00596343,-0.0447663,-0.000686802,-0.290845,0.118053,3.08831,3.0767
20.3691,-6.24659,0.918135,-0.0632963,-1.13622,1.1402,-0.0067257,-0.217798,0.360534,-0.00611973,-0.0608659,-0.0575926,0.0365503,0.00595677,-0.0447711,-0.000647162,-0.290757,0.117828,3.08621,3.08735
20.4396,-6.30709,0.970605,-0.066207,-1.14733,1.15555,-0.0087236,-0.205392,0.360095,-0.00542259,-0.0612406,-0.0584557,0.0366284,0.00594987,-0.0447759,-0.000617533,-0.290714,0.117728,3.08438,3.08525
20.5103,-6.36889,1.0229,-0.0696931,-1.15959,1.17092,-0.0110392,-0.223724,0.370769,-0.0052824,-0.0616929,-0.0594903,0.0367207,0.00594302,-0.0447811,-0.000939813,-0.290535,0.117377,3.09248,3.08329
20.5808,-6.4291,1.07903,-0.0716836,-1.17139,1.1874,-0.0119753,-0.234955,0.35768,-0.000196457,-0.061901,-0.0599629,0.0367624,0.00593637,-0.0447861,-0.000896025,-0.290241,0.116844,3.09022,3.09145
20.6515,-6.49075,1.13492,-0.0742859,-1.18219,1.20406,-0.0139963,-0.206448,0.374542,-0.0142212,-0.0621966,-0.0606297,0.0368205,0.00592925,-0.0447909,-0.000863045,-0.289987,0.116792,3.08834,3.08931
20.722,-6.55172,1.19332,-0.0761064,-1.19252,1.22104,-0.0146142,-0.208101,0.36159,0.00161362,-0.0623582,-0.0609918,0.0368517,0.00592233,-0.0447957,-0.00101354,-0.289587,0.116813,3.09168,3.08745
20.7927,-6.61197,1.25411,-0.0771609,-1.20186,1.23914,-0.0150924,-0.198293,0.366781,-0.00703621,-0.0623916,-0.0610662,0.036858,0.0059153,-0.0448003,-0.00114739,-0.289371,0.116988,3.09465,3.09089
20.8632,-6.67368,1.31465,-0.0788624,-1.21168,1.25728,-0.0163475,-0.199651,0.380691,-0.0138664,-0.0625243,-0.0613594,0.0368827,0.00590781,-0.0448049,-0.00119782,-0.289189,0.117197,3.09518,3.09381
20.934,-6.73458,1.37763,-0.0798112,-1.22154,1.27624,-0.016619,-0.213113,0.37985,-0.00575066,-0.0625266,-0.0613644,0.0368831,0.00590053,-0.0448097,-0.00124563,-0.288961,0.117219,3.09557,3.09427
21.0045,-6.7959,1.44173,-0.0807111,-1.23091,1.29491,-0.0169386,-0.203557,0.371945,-0.00750351,-0.0625179,-0.0613455,0.0368815,0.0058933,-0.0448144,-0.00128278,-0.288747,0.117308,3.09564,3.09464
21.0752,-6.85638,1.50823,-0.0808798,-1.24023,1.31451,-0.0167822,-0.214253,0.374531,-0.00876236,-0.0623839,-0.0610548,0.036858,0.00588593,-0.0448192,-0.00140167,-0.288389,0.117134,3.09811,3.09471
21.1457,-6.91728,1.57577,-0.0810333,-1.2504,1.33437,-0.0167353,-0.233022,0.378553,-0.0110693,-0.0622466,-0.0607587,0.0368343,0.00587854,-0.0448243,-0.0015052,-0.28786,0.116524,3.10013,3.09716
21.2164,-6.97742,1.64568,-0.0804775,-1.25891,1.35503,-0.015596,-0.208828,0.379648,0.0008564,-0.0619889,-0.0602061,0.0367908,0.00587103,-0.0448289,-0.00155051,-0.287605,0.116309,3.10032,3.09909
21.2869,-7.03803,1.71659,-0.0799203,-1.26729,1.37595,-0.0149542,-0.205193,0.385305,-0.00848675,-0.0617356,-0.0596661,0.0367487,0.0058633,-0.0448336,-0.00169688,-0.287369,0.116089,3.1034,3.09918
21.3577,-7.09905,1.78845,-0.0793456,-1.27614,1.39715,-0.0132867,-0.216197,0.391785,0.0124025,-0.061487,-0.059139,0.0367081,0.0058555,-0.0448383,-0.00182747,-0.287082,0.115658,3.10601,3.10224
21.4281,-7.16057,1.86135,-0.0787693,-1.28426,1.41837,-0.0131664,-0.199105,0.392781,-0.0176315,-0.0612434,-0.0586252,0.0366691,0.00584739,-0.0448428,-0.00189194,-0.286899,0.115523,3.10668,3.10487
21.4989,-7.2225,1.93523,-0.0782134,-1.29278,1.4395,-0.012636,-0.208873,0.392409,-0.00908852,-0.0610046,-0.0581242,0.0366315,0.00583948,-0.0448473,-0.00171453,-0.286655,0.115043,3.1005,3.10566
21.5696,-7.28356,2.01154,-0.077,-1.30039,1.46171,-0.0121178,-0.20018,0.399118,-0.0184011,-0.0606474,-0.057378,0.0365762,0.00583125,-0.0448518,-0.00156874,-0.28644,0.114659,3.09532,3.09957
21.6403,-7.34509,2.08878,-0.0758326,-1.30777,1.48435,-0.0110169,-0.195,0.409582,-0.00576305,-0.0603023,-0.0566607,0.0365236,0.00582305,-0.0448564,-0.00160287,-0.286346,0.11439,3.09526,3.09436
21.7108,-7.40712,2.16704,-0.074683,-1.31468,1.50684,-0.00943127,-0.183246,0.407816,0.00521851,-0.0599696,-0.0559722,0.0364738,0.00581474,-0.0448607,-0.0016532,-0.286263,0.114339,3.09566,3.0943
21.7815,-7.46959,2.24626,-0.073547,-1.32154,1.52896,-0.00850687,-0.181432,0.402338,-0.00686169,-0.0596495,-0.0553122,0.0364266,0.00580652,-0.044865,-0.00191558,-0.28612,0.114265,3.10235,3.09461
21.852,-7.53253,2.32647,-0.0724347,-1.32862,1.55094,-0.00715512,-0.184226,0.400308,0.00289536,-0.0593419,-0.0546805,0.0363821,0.0057983,-0.0448692,-0.00214236,-0.285974,0.114142,3.1081,3.10142
21.9228,-7.59593,2.40762,-0.0713444,-1.33569,1.57347,-0.00618076,-0.183769,0.413592,-0.00361061,-0.0590468,-0.0540767,0.0363399,0.00578982,-0.0448733,-0.00191942,-0.285874,0.114039,3.10096,3.10724
21.9933,-7.65982,2.48977,-0.0702854,-1.34213,1.59602,-0.00519971,-0.169544,0.415979,-0.00225067,-0.0587642,-0.0535002,0.0363002,0.00578125,-0.0448775,-0.00216413,-0.285907,0.114339,3.10722,3.10003
22.064,-7.72413,2.57289,-0.0692495,-1.34934,1.619,-0.00417051,-0.184743,0.42517,-0.000402451,-0.0584939,-0.0529507,0.0362628,0.00577253,-0.0448815,-0.00237806,-0.28585,0.114274,3.11266,3.10628
22.1345,-7.78585,2.66002,-0.0668489,-1.3555,1.64294,-0.0018656,-0.187268,0.412818,0.00653934,-0.0579727,-0.051894,0.0361917,0.005764,-0.0448858,-0.00257935,-0.285614,0.114122,3.11764,3.11169
22.2053,-7.84975,2.74651,-0.0652028,-1.36188,1.66611,-0.000576828,-0.176172,0.417682,-0.00149822,-0.0576137,-0.0511679,0.0361434,0.00575517,-0.0448896,-0.00263644,-0.285518,0.114201,3.11828,3.11665
22.2758,-7.91418,2.83397,-0.0636112,-1.36874,1.68873,0.00044162,-0.186678,0.409834,-0.00519943,-0.0572751,-0.0504847,0.0360985,0.00574661,-0.0448937,-0.00268948,-0.285349,0.113763,3.11882,3.11731
22.3465,-7.97918,2.92232,-0.0620793,-1.37506,1.71133,0.00145016,-0.172303,0.411695,-0.0037756,-0.0569562,-0.0498428,0.0360568,0.00573789,-0.0448974,-0.00276918,-0.285279,0.113553,3.12021,3.11785
22.417,-8.04469,3.01162,-0.0606192,-1.38169,1.73399,0.00186211,-0.179272,0.415696,-0.0141773,-0.0566566,-0.0492408,0.0360182,0.00572924,-0.0449013,-0.00287524,-0.285413,0.113055,3.12229,3.11911
22.4878,-8.11076,3.10182,-0.0592024,-1.38837,1.75657,0.00379754,-0.178553,0.415692,0.0176086,-0.0563758,-0.0486776,0.0359825,0.00572059,-0.044905,-0.00292985,-0.285612,0.112427,3.12291,3.12131
22.5583,-8.1757,3.19451,-0.0571267,-1.39455,1.78055,0.0053073,-0.180234,0.429427,0.000638008,-0.0559767,-0.0478784,0.0359324,0.00571159,-0.0449089,-0.00298187,-0.285807,0.111599,3.12335,3.12183
22.629,-8.23792,3.2912,-0.0537399,-1.39922,1.80508,0.00744317,-0.171682,0.408842,-0.00441551,-0.0553295,-0.0465841,0.0358522,0.00570297,-0.0449125,-0.00302499,-0.285896,0.110924,3.1235,3.12223
22.6995,-8.3026,3.38709,-0.051166,-1.40353,1.82827,0.00953391,-0.145771,0.405881,0.00799942,-0.0548659,-0.0456577,0.0357955,0.00569427,-0.0449158,-0.00314978,-0.285933,0.110855,3.12631,3.12241
22.7703,-8.36619,3.48533,-0.0479666,-1.40785,1.85204,0.0124367,-0.156846,0.403308,0.01682,-0.0542983,-0.0445241,0.0357268,0.00568569,-0.044919,-0.00325995,-0.286021,0.110434,3.12879,3.12531
22.8408,-8.43224,3.58271,-0.045579,-1.41266,1.87549,0.0134041,-0.150098,0.421091,-0.00843525,-0.0539141,-0.0437569,0.0356809,0.00567647,-0.0449222,-0.00326826,-0.286268,0.110196,3.12794,3.12777
22.9115,-8.49894,3.6809,-0.0432975,-1.41707,1.89852,0.0148087,-0.138233,0.416542,0.00264072,-0.0535627,-0.043055,0.0356394,0.00566759,-0.0449252,-0.00298479,-0.286782,0.109948,3.11808,3.12679
22.982,-8.56799,3.77832,-0.0418118,-1.42183,1.92039,0.0151445,-0.130378,0.41627,-0.0063715,-0.0533837,-0.0426975,0.0356185,0.00565852,-0.0449282,-0.0027494,-0.287264,0.109692,3.10986,3.11705
23.0528,-8.63579,3.87821,-0.0397072,-1.42627,1.94324,0.0164939,-0.135521,0.419989,0.0052557,-0.0530841,-0.0420984,0.0355839,0.00564958,-0.0449313,-0.00275555,-0.287657,0.109348,3.10888,3.10878
23.1234,-8.70065,3.98222,-0.0362863,-1.42945,1.96596,0.0188051,-0.132727,0.38514,0.0067749,-0.0525306,-0.0409901,0.0355206,0.0056413,-0.0449344,-0.00274504,-0.287821,0.109021,3.1075,3.10791
23.1941,-8.76629,4.08683,-0.0329919,-1.43226,1.98883,0.0211663,-0.118556,0.393893,0.0112257,-0.0520257,-0.0399777,0.0354634,0.00563285,-0.0449373,-0.00274087,-0.28799,0.109273,3.10643,3.10665
23.2647,-8.83441,4.19043,-0.030532,-1.4363,2.01124,0.0220087,-0.127791,0.40894,-0.00567627,-0.0517107,-0.0393447,0.0354281,0.00562402,-0.0449403,-0.00258172,-0.288107,0.109265,3.10082,3.10554
23.3355,-8.90142,4.29644,-0.0274958,-1.43937,2.03372,0.0236309,-0.116467,0.396304,0.00241566,-0.0512877,-0.038493,0.0353812,0.00561562,-0.0449433,-0.00251986,-0.28828,0.109526,3.09806,3.09993
23.406,-8.96732,4.4048,-0.023899,-1.44252,2.05685,0.0255684,-0.127517,0.396258,0.0016861,-0.0507651,-0.0374379,0.0353237,0.00560706,-0.0449464,-0.00258465,-0.288376,0.10944,3.09894,3.09707
23.4768,-9.03226,4.51546,-0.019753,-1.44531,2.08047,0.0283211,-0.12771,0.393354,0.0116749,-0.0501512,-0.0361946,0.0352568,0.00559877,-0.0449495,-0.0026451,-0.288586,0.109278,3.09947,3.09775
