time,x_hat,y_hat,z_hat,Vx_hat,Vy_hat,Vz_hat,ax_hat,ay_hat,az_hat,ax_bias,ay_bias,az_bias,gx_bias,gy_bias,gz_bias,roll,pitch,yaw,est_heading,mag_correction,pr_correction
2.3335,0,0,0.000248756,0,0,0,-5.96046e-08,-3.35276e-08,0.0407295,-0.047293,-0.01987,0.002095,0.006321,-0.0443,0.003061,-0.329249,0.0968658,3.12449,3.12449,1,1
2.4033,-9.62929e-06,-3.19245e-05,0.000115242,0.00177493,0.000286445,0.00123424,5.96046e-08,-2.73809e-07,0.0407295,-0.047293,-0.01987,0.002095,0.00632159,-0.0443016,0.00305311,-0.339544,0.0974076,3.13623,3.12329,1,1
2.47101,-5.74414e-05,-3.25121e-05,0.000132408,0.00164793,-0.00642393,0.00286612,0.00318873,-0.104284,0.0505686,-0.047293,-0.01987,0.00209501,0.00633768,-0.0442992,0.00301076,-0.339709,0.0946408,-3.14052,3.13503,1,1
2.54128,2.20081e-05,-0.000174311,0.000198464,0.00429126,-0.0106791,0.00474615,0.0308208,-0.0964207,0.0538206,-0.047293,-0.01987,0.00209505,0.00635987,-0.0442959,0.00297434,-0.339311,0.0948145,-3.1369,3.14142,1,1
2.61166,-2.92298e-05,-0.000997612,0.000294502,0.00415973,-0.0169252,0.0050301,0.00168306,-0.0953211,0.0289345,-0.047293,-0.01987,0.00209513,0.00637848,-0.0442937,0.00285597,-0.340864,0.0845864,-3.1287,-3.13815,1,1
2.68193,-0.000322999,-0.00186299,0.000422082,0.00807103,-0.0230096,0.00769497,0.110598,-0.109717,0.0605965,-0.047293,-0.0198701,0.00209528,0.00640647,-0.044287,0.00305978,-0.330859,0.103029,3.14158,-3.12994,1,1
2.75234,-0.000565943,-0.00370106,0.000608507,0.00420857,-0.0244397,0.00959593,-0.0716298,-0.0190305,0.0489092,-0.0472931,-0.0198702,0.00209556,0.00640953,-0.044287,0.00323942,-0.325496,0.102122,3.13264,3.14035,1,1
2.82261,0.00035024,-0.00551418,0.000781525,0.00460832,-0.0211223,0.0103999,-0.0506853,0.0499211,0.0342817,-0.0472931,-0.0198704,0.00209602,0.0063984,-0.044291,0.00340547,-0.323108,0.103985,3.12451,3.13142,1,1
2.89301,-8.56864e-05,-0.00725246,0.000975463,0.00115243,-0.0171707,0.0111298,-0.0779784,0.0647276,0.0298271,-0.0472932,-0.0198706,0.00209671,0.00638255,-0.0442932,0.00327495,-0.32659,0.0899149,3.12834,3.12329,1,1
2.96328,-0.000493488,-0.00865402,0.00119359,0.00359657,-0.015876,0.0125328,0.0588544,0.0252893,0.0395575,-0.0472933,-0.019871,0.00209775,0.00637814,-0.0442925,0.00316308,-0.329323,0.0883824,3.13158,3.12712,1,1
3.03368,0.000147897,-0.0096769,0.00146245,0.00836789,-0.0158568,0.0139421,0.0835552,-0.00155833,0.0403728,-0.0472934,-0.0198715,0.00209927,0.00638096,-0.044292,0.00327816,-0.328516,0.100726,3.12653,3.13035,1,1
3.10396,0.00170324,-0.0106273,0.00179865,0.00851727,-0.0149999,0.0158901,-0.0588065,0.00484722,0.0480566,-0.0472937,-0.0198722,0.00210148,0.00637934,-0.0442958,0.00267183,-0.332654,0.0303081,-3.13023,3.1253,1,1
3.17439,0.00759993,-0.00990272,0.00201936,0.0408335,-0.0217732,0.0137861,0.648356,-0.0980218,-0.0486145,-0.047294,-0.0198732,0.00210438,0.00642253,-0.0442819,0.00220765,-0.337169,0.0398936,-3.11027,-3.13143,1,1
3.24468,0.00455914,-0.0135094,0.0024485,0.049907,-0.0140453,0.0298086,0.406196,0.181396,0.253331,-0.0472944,-0.0198746,0.00210847,0.00638784,-0.0442657,0.00149893,-0.352819,-0.0264276,-3.075,-3.11145,1,1
3.31512,0.019398,-0.0103508,0.00348777,0.114418,-0.0313078,0.0248353,1.24523,-0.229253,-0.194786,-0.0472949,-0.0198767,0.00211459,0.00649075,-0.0442089,0.001073,-0.351349,0.0348864,-3.05579,-3.07623,1,1
3.38539,0.0190467,-0.013325,0.0036143,0.135872,-0.0566757,0.0125784,0.747603,-0.345729,-0.121903,-0.0472956,-0.0198796,0.00212289,0.00659653,-0.0441573,0.000718274,-0.34678,0.0582835,-3.04154,-3.05681,1,1
3.45581,0.0302026,-0.0172332,0.00407678,0.143054,-0.0491602,0.0353638,0.120498,0.117354,0.34117,-0.0472964,-0.0198829,0.00213231,0.00657383,-0.0441486,0.000452219,-0.356514,0.0439093,-3.03227,-3.0426,1,1
3.52609,0.0306156,-0.022302,0.00448709,0.167351,-0.0694622,0.0167631,0.727159,-0.265086,-0.253702,-0.0472973,-0.0198872,0.00214482,0.0066456,-0.0440872,-0.000326632,-0.364063,0.0386674,-3.00752,-3.03346,1,1
3.59651,0.0481626,-0.0247129,0.00484953,0.199101,-0.0867466,0.0174821,0.615057,-0.270822,0.0145044,-0.0472982,-0.0198919,0.00215822,0.00672933,-0.0440442,0.000772117,-0.321385,0.128044,-3.03399,-3.00865,1,1
3.66678,0.0669557,-0.0295141,0.00511687,0.189546,-0.0834189,0.0196474,-0.313537,0.0436771,0.0355749,-0.0472992,-0.0198974,0.0021739,0.00673116,-0.0440753,0.00160164,-0.309579,0.136973,-3.05218,-3.03495,1,1
3.73722,0.0754325,-0.0374453,0.00517237,0.167583,-0.0748883,0.0203706,-0.43112,0.151901,0.03755,-0.0473004,-0.0199039,0.00219221,0.00669546,-0.0441228,0.00233976,-0.304375,0.133284,-3.06929,-3.05333,1,1
3.80749,0.0912589,-0.0420486,0.00563049,0.158789,-0.0539369,0.0285333,-0.26474,0.337642,0.124803,-0.0473018,-0.019911,0.00221252,0.00664111,-0.0440952,0.00233976,-0.320143,0.115202,-3.07246,-3.07058,0,1
3.87792,0.100675,-0.046875,0.00630494,0.155663,-0.0419311,0.0347265,-0.0833547,0.210619,0.114964,-0.0473036,-0.0199199,0.00223793,0.00660095,-0.0440959,0.00233976,-0.330293,0.109195,-3.07481,-3.07376,0,1
3.94821,0.110741,-0.0501055,0.00724373,0.160472,-0.0408727,0.03562,0.0991714,0.0156036,0.0388145,-0.0473058,-0.0199308,0.00226893,0.00659679,-0.0440853,0.00131097,-0.36217,0.0778188,-3.05964,-3.07607,1,1
4.01863,0.124691,-0.0516291,0.00840256,0.181884,-0.0560885,0.0381677,0.388943,-0.250763,0.0522623,-0.0473087,-0.019944,0.00230676,0.00665654,-0.0440475,0.000406062,-0.366959,0.0843229,-3.04705,-3.06081,1,1
4.08891,0.134136,-0.055758,0.00937812,0.195397,-0.0750365,0.038491,0.304626,-0.307072,0.0375414,-0.0473124,-0.01996,0.00235255,0.00672567,-0.0440164,-0.000264668,-0.366617,0.0910504,-3.0384,-3.04801,1,1
4.15935,0.149145,-0.0600659,0.0104152,0.208091,-0.0942512,0.0391356,0.221202,-0.309974,0.0374098,-0.0473166,-0.0199784,0.00240546,0.00680377,-0.0440013,-0.00131215,-0.37303,0.0871108,-3.02486,-3.03964,1,1
4.22963,0.161536,-0.0664862,0.0113243,0.217803,-0.118193,0.0405529,0.201017,-0.384014,0.0559616,-0.0473217,-0.0199999,0.00246664,0.00689681,-0.0439935,-0.00252425,-0.378996,0.0796499,-3.00999,-3.02596,1,1
4.30006,0.178069,-0.0735536,0.0123257,0.230385,-0.14709,0.0401241,0.223169,-0.46224,0.0259895,-0.0473275,-0.0200242,0.0025357,0.00701798,-0.0439822,-0.00050535,-0.341817,0.103722,-3.03275,-3.01081,1,1
4.37048,0.194131,-0.0836063,0.0128747,0.226922,-0.154633,0.0386259,-0.0722246,-0.125101,0.0184488,-0.047334,-0.0200509,0.00261132,0.00705587,-0.0439971,0.00115997,-0.320976,0.112478,-3.05126,-3.03381,1,1
4.44091,0.20983,-0.0948139,0.0132164,0.218488,-0.150563,0.0390888,-0.171087,0.0627739,0.0469551,-0.047341,-0.0200796,0.00269202,0.00704355,-0.0440228,0.00316864,-0.302377,0.119232,-3.07445,-3.05223,1,1
4.51121,0.226396,-0.105526,0.0134678,0.20832,-0.135227,0.0390359,-0.22713,0.248733,0.0353069,-0.0473485,-0.0201098,0.00277685,0.00699519,-0.0440419,0.00526278,-0.289863,0.120742,-3.09756,-3.07554,1,1
4.58164,0.240449,-0.116112,0.0135051,0.196412,-0.111705,0.0370542,-0.248941,0.381153,0.0106249,-0.0473565,-0.0201412,0.00286512,0.00690524,-0.0440717,0.00700726,-0.283715,0.119081,-3.11832,-3.09877,1,1
4.65194,0.255626,-0.124448,0.0135434,0.185703,-0.0850154,0.0377476,-0.249906,0.434945,0.0440817,-0.0473648,-0.0201733,0.00295561,0.00681404,-0.0440906,0.00814789,-0.285415,0.112503,-3.13229,-3.11958,1,1
4.72238,0.268173,-0.131519,0.0135285,0.17766,-0.0586434,0.0375568,-0.177857,0.425137,0.0365429,-0.0473736,-0.0202062,0.00304878,0.00671116,-0.044112,0.00899479,-0.289201,0.107851,3.13951,-3.13371,1,1
4.79267,0.281502,-0.136199,0.0135377,0.17341,-0.0341296,0.0363908,-0.115426,0.395592,0.0207014,-0.0473826,-0.0202396,0.00314361,0.00662112,-0.0441204,0.00970336,-0.293427,0.105092,3.13005,3.13804,1,1
4.86312,0.293353,-0.139437,0.013476,0.169986,-0.0121301,0.0358486,-0.0862331,0.352109,0.0319786,-0.0473921,-0.0202733,0.00324019,0.0065338,-0.0441339,0.0108836,-0.291764,0.104973,3.116,3.12846,1,1
4.93343,0.305886,-0.140874,0.0134202,0.167273,0.0110134,0.035398,-0.0796315,0.369539,0.0312929,-0.0474018,-0.0203071,0.00333766,0.00644735,-0.0441429,0.0113374,-0.296345,0.101686,3.10934,3.11447,1,1
5.00387,0.317337,-0.140831,0.0133601,0.166573,0.0319315,0.0359411,-0.0276084,0.330201,0.0474501,-0.0474117,-0.020341,0.00343632,0.00636365,-0.0441516,0.0116949,-0.300644,0.101554,3.10352,3.10767,1,1
5.07418,0.329352,-0.139044,0.0133507,0.16473,0.0500495,0.0348887,-0.0538505,0.285586,0.0236769,-0.0474219,-0.0203749,0.00353583,0.00629526,-0.0441591,0.0121316,-0.303436,0.0991664,3.09708,3.1017,1,1
5.14463,0.340706,-0.136045,0.0132754,0.164174,0.0664279,0.0338852,-0.0199009,0.257137,0.0254364,-0.0474322,-0.0204088,0.00363591,0.00623019,-0.0441669,0.0115677,-0.31246,0.0964355,3.10055,3.09539,1,1
5.21492,0.352356,-0.131664,0.0132373,0.164381,0.076969,0.0336232,-0.00875157,0.165063,0.0357895,-0.0474426,-0.0204426,0.00373631,0.00619074,-0.0441724,0.0120702,-0.312013,0.0961184,3.09404,3.09887,1,1
5.28537,0.363756,-0.126601,0.0131812,0.16499,0.0883741,0.0336434,0.00575584,0.178383,0.0396299,-0.0474532,-0.0204761,0.00383693,0.00614559,-0.0441778,0.0124872,-0.312362,0.0956192,3.08839,3.0923,1,1
5.35568,0.375405,-0.120679,0.013138,0.165931,0.0989256,0.0334411,0.0112738,0.165158,0.0365257,-0.0474638,-0.0205095,0.00393756,0.00610569,-0.0441828,0.0124103,-0.316718,0.097891,3.08694,3.08655,1,1
5.42615,0.386969,-0.113951,0.0131223,0.166175,0.106824,0.0333462,-0.00328028,0.123184,0.0380011,-0.0474745,-0.0205428,0.00403836,0.00607551,-0.044188,0.0122532,-0.320651,0.0994887,3.08645,3.08523,1,1
5.49649,0.398667,-0.106588,0.0131313,0.16534,0.112439,0.0331995,-0.0310292,0.0861188,0.0372782,-0.0474852,-0.0205759,0.00413929,0.00605649,-0.044193,0.0120926,-0.323626,0.0991073,3.08601,3.08465,1,1
5.56697,0.410257,-0.0988116,0.0131482,0.164702,0.116792,0.0332705,-0.0286694,0.066291,0.040556,-0.047496,-0.020609,0.0042404,0.00604112,-0.0441984,0.0115847,-0.329721,0.101319,3.0887,3.08418,1,1
5.63727,0.4218,-0.0905962,0.0131911,0.163141,0.117194,0.0324688,-0.0528356,0.00139695,0.0279293,-0.0475069,-0.020642,0.00434164,0.00604245,-0.0442004,0.01189,-0.32534,0.093883,3.08459,3.08698,1,1
5.70774,0.433209,-0.0824138,0.0131606,0.16468,0.119559,0.0323125,0.0215941,0.0371432,0.0372887,-0.0475177,-0.0206748,0.00444247,0.00603477,-0.0442019,0.0121448,-0.323405,0.0922541,3.08075,3.08283,1,1
5.77806,0.444728,-0.0741131,0.013125,0.166517,0.122826,0.0327326,0.0279045,0.0525031,0.0455666,-0.0475284,-0.0207073,0.00454273,0.00602333,-0.0442043,0.0121921,-0.324597,0.0946249,3.07847,3.07898,1,1
5.84851,0.456386,-0.0655671,0.0130938,0.166957,0.126549,0.0320012,-0.00348842,0.058599,0.0289087,-0.0475391,-0.0207397,0.00464239,0.00601046,-0.0442082,0.0117999,-0.331882,0.101199,3.08004,3.07676,1,1
5.91883,0.468081,-0.0566316,0.0130858,0.165591,0.125749,0.0312096,-0.0529367,-0.0193289,0.0274849,-0.0475497,-0.0207718,0.00474152,0.00601562,-0.0442093,0.0114424,-0.335978,0.102846,3.08145,3.07807,1,1
5.98929,0.479744,-0.0477634,0.0130931,0.163169,0.123404,0.0320695,-0.0832763,-0.0454485,0.0514231,-0.0475603,-0.0208039,0.00484036,0.00602552,-0.0442103,0.0115078,-0.331676,0.0946029,3.07959,3.07971,1,1
6.0596,0.491127,-0.0390596,0.0131157,0.16399,0.121912,0.032481,-0.0001809,-0.0270821,0.0452881,-0.0475709,-0.0208359,0.00493876,0.00603255,-0.0442093,0.0117615,-0.325506,0.0879439,3.07606,3.07781,1,1
6.13006,0.502534,-0.0305464,0.0131137,0.167953,0.124681,0.0334157,0.0797943,0.0473228,0.0521841,-0.0475813,-0.0208678,0.00503664,0.0060236,-0.0442099,0.0116003,-0.331912,0.099415,3.07526,3.07418,1,1
6.20037,0.514288,-0.0217666,0.013203,0.166859,0.124167,0.033405,-0.0463151,-0.0136046,0.0388012,-0.0475918,-0.0208998,0.00513461,0.00602725,-0.0442109,0.0114348,-0.334171,0.100231,3.0748,3.07323,1,1
6.27084,0.526032,-0.0129965,0.01331,0.165547,0.121584,0.0337248,-0.0572726,-0.0478004,0.0447321,-0.0476022,-0.0209319,0.00523291,0.00603766,-0.0442111,0.0112571,-0.335344,0.100208,3.07472,3.07287,1,1
6.34117,0.537606,-0.00438355,0.0134159,0.164491,0.119056,0.0337108,-0.0464267,-0.0472856,0.0394421,-0.0476127,-0.0209642,0.0053313,0.00604848,-0.0442101,0.0110442,-0.337925,0.10231,3.07508,3.07296,1,1
6.41163,0.549195,0.00406682,0.0135357,0.162809,0.114369,0.0340438,-0.0702041,-0.0838602,0.0451508,-0.0476232,-0.0209967,0.00543012,0.00606648,-0.0442086,0.0108362,-0.338846,0.102358,3.07556,3.07331,1,1
6.48238,0.560638,0.0122835,0.0136889,0.160892,0.109183,0.0343948,-0.0712226,-0.0928745,0.0449572,-0.0476337,-0.0210295,0.00552943,0.00608721,-0.0442056,0.0106094,-0.340401,0.103148,3.07633,3.0739,1,1
6.55286,0.571985,0.0200647,0.0138261,0.158884,0.103083,0.0346522,-0.0798913,-0.107642,0.0446358,-0.0476443,-0.0210626,0.00562925,0.00611029,-0.0442029,0.0103897,-0.341047,0.102985,3.07721,3.0747,1,1
6.62317,0.583086,0.0274456,0.0139506,0.156832,0.0974155,0.0344647,-0.0771486,-0.101437,0.0384207,-0.0476549,-0.0210959,0.00572925,0.00613241,-0.0442,0.0101803,-0.34176,0.10281,3.07778,3.07534,1,1
6.69365,0.594159,0.0343938,0.0140433,0.155073,0.0912755,0.034236,-0.0758136,-0.108562,0.0382481,-0.0476655,-0.0211293,0.00582942,0.00615558,-0.044198,0.00959245,-0.350657,0.109929,3.08304,3.07604,1,1
6.76398,0.605004,0.0410834,0.0142125,0.149933,0.0799322,0.0343718,-0.161497,-0.204117,0.0408401,-0.0476762,-0.0211632,0.00593012,0.00619859,-0.0441912,0.00930228,-0.348633,0.103107,3.08531,3.08123,1,1
6.83445,0.615596,0.0468628,0.014324,0.148183,0.0695846,0.0346031,-0.0827514,-0.179587,0.04636,-0.047687,-0.0211973,0.00603117,0.00623721,-0.0441854,0.0090293,-0.348732,0.103414,3.08712,3.08349,1,1
6.90478,0.625909,0.0519788,0.0144325,0.14609,0.0595303,0.0343227,-0.0843453,-0.177183,0.0368643,-0.0476978,-0.0212316,0.00613225,0.0062758,-0.0441783,0.00890569,-0.344984,0.0990953,3.08747,3.08537,1,1
6.97524,0.636182,0.056301,0.0144329,0.1455,0.0509246,0.032934,-0.0488923,-0.148372,0.0238762,-0.0477086,-0.0212659,0.00623297,0.00630887,-0.0441723,0.00906146,-0.334992,0.0877671,3.0848,3.08573,1,1
7.04558,0.646223,0.0599272,0.014336,0.149745,0.0467526,0.0337812,0.0842465,-0.0677267,0.0545912,-0.0477193,-0.0213001,0.00633239,0.0063256,-0.044167,0.00926056,-0.328324,0.0858244,3.08145,3.08316,1,1
7.11606,0.656595,0.0631965,0.0142428,0.154056,0.0466854,0.033856,0.0881773,0.000554435,0.0433502,-0.0477298,-0.0213339,0.00643069,0.00632718,-0.0441654,0.00942905,-0.324685,0.085803,3.07818,3.07989,1,1
7.1864,0.667257,0.0664115,0.0141133,0.159214,0.0481902,0.0331924,0.111228,0.0282743,0.0322514,-0.0477402,-0.0213675,0.00652766,0.00632259,-0.0441646,0.00963126,-0.321628,0.0868142,3.0744,3.07664,1,1
7.25688,0.678304,0.0697234,0.0154784,0.163942,0.0521148,0.0345538,0.103791,0.0678809,0.0352497,-0.0477442,-0.0213805,0.00656512,0.00630865,-0.0441664,0.0095881,-0.326935,0.0984958,3.07287,3.07275,1,1
7.32722,0.689782,0.0733218,0.0167839,0.163774,0.0535932,0.0362673,-0.0255213,0.021283,0.0443916,-0.0477491,-0.0213966,0.00661132,0.00630434,-0.0441687,0.00953184,-0.328828,0.0993673,3.07173,3.07111,1,1
7.3977,0.701316,0.0770784,0.0194895,0.16343,0.0532431,0.0377111,-0.0337205,-0.00922712,0.0190744,-0.0477488,-0.0213954,0.00660787,0.00630647,-0.0441697,0.00937919,-0.332521,0.10336,3.07193,3.0701,1,1
7.46803,0.71281,0.0808239,0.0219222,0.160963,0.0520863,0.0397488,-0.085849,-0.0261359,0.0336218,-0.0477501,-0.0213999,0.00662084,0.00631145,-0.044171,0.00921699,-0.33508,0.103297,3.07213,3.0701,1,1
7.53852,0.724198,0.0844901,0.0256201,0.159061,0.0500845,0.0426619,-0.0755132,-0.0392448,0.028409,-0.047747,-0.0213896,0.00659138,0.00631944,-0.0441713,0.00906031,-0.337553,0.104284,3.07252,3.07054,1,1
7.60887,0.735379,0.0880695,0.0289776,0.156251,0.046117,0.0453283,-0.0982866,-0.0747595,0.0332727,-0.0477463,-0.0213872,0.00658446,0.00633517,-0.0441696,0.0090292,-0.334266,0.0974173,3.07165,3.07084,1,1
7.67939,0.746379,0.091317,0.0319638,0.15615,0.0433062,0.0479375,-0.0298355,-0.050468,0.0433025,-0.0477477,-0.0213918,0.00659765,0.00634614,-0.0441685,0.00873072,-0.341841,0.107602,3.07369,3.06994,1,1
7.74976,0.757317,0.0944245,0.0332344,0.152229,0.0372779,0.0493049,-0.12586,-0.112385,0.0556087,-0.0477569,-0.0214227,0.00668582,0.00636923,-0.044165,0.00882346,-0.331997,0.0917869,3.07195,3.07215,1,1
7.82027,0.767879,0.0970229,0.0311839,0.155113,0.0356523,0.044612,0.0491129,-0.0271391,0.0262842,-0.0477787,-0.0214953,0.00689322,0.00637617,-0.0441628,0.00890457,-0.328888,0.0917014,3.06964,3.0704,1,1
7.89061,0.778645,0.0994562,0.0307204,0.157471,0.0358753,0.0442316,0.039236,0.00374164,0.0566578,-0.0477931,-0.0215434,0.0070306,0.00637659,-0.0441624,0.00891617,-0.329329,0.0947951,3.06799,3.06812,1,1
7.96112,0.789618,0.101929,0.0287519,0.158737,0.0352907,0.0403747,0.0099625,-0.010994,0.0313072,-0.0478131,-0.02161,0.00722074,0.00637957,-0.044162,0.00895297,-0.327552,0.0938689,3.06615,3.06643,1,1
8.03145,0.800661,0.104345,0.0283581,0.160775,0.0361674,0.0389897,0.0306827,0.0143669,0.0352354,-0.0478257,-0.0216524,0.00734178,0.00637752,-0.0441625,0.00897603,-0.327701,0.0957038,3.06433,3.06458,1,1
8.10195,0.811864,0.106812,0.0264495,0.162084,0.0369095,0.0365671,0.0114335,0.0111137,0.04457,-0.0478439,-0.0217133,0.00751573,0.00637592,-0.0441633,0.00901397,-0.326708,0.0950341,3.06243,3.0628,1,1
8.17229,0.823138,0.109313,0.0231329,0.16286,0.0384877,0.0319315,0.000107348,0.0249785,0.0330324,-0.0478665,-0.0217893,0.00773304,0.00637132,-0.0441654,0.00905292,-0.325828,0.0933671,3.06053,3.06088,1,1
8.2428,0.834482,0.111962,0.0215455,0.165529,0.0404191,0.0292657,0.0481185,0.0329375,0.0261307,-0.0478812,-0.0218386,0.00787401,0.00636484,-0.0441666,0.00907737,-0.326761,0.0965983,3.05856,3.05893,1,1
8.31313,0.846015,0.114718,0.0185423,0.166047,0.0420066,0.0256419,-0.00526488,0.0249041,0.0336008,-0.0479005,-0.0219036,0.0080603,0.00636014,-0.0441689,0.00912196,-0.325558,0.094304,3.05664,3.05705,1,1
8.38364,0.857584,0.117595,0.0142295,0.167539,0.0443058,0.0201424,0.0194494,0.0378571,0.0239258,-0.0479236,-0.0219813,0.00828325,0.00635252,-0.0441713,0.00885228,-0.337524,0.109229,3.05796,3.05518,1,1
8.45399,0.869307,0.120676,0.00888453,0.162459,0.040608,0.0150864,-0.149121,-0.0721827,0.0402746,-0.0479497,-0.0220691,0.00853579,0.00636687,-0.0441727,0.00859207,-0.341446,0.108601,3.05972,3.05635,1,1
8.52449,0.880734,0.123505,0.00400583,0.158338,0.0346884,0.0100776,-0.134726,-0.108849,0.0314064,-0.0479725,-0.0221458,0.00875652,0.00638997,-0.0441714,0.00867298,-0.331523,0.0935179,3.05812,3.05818,1,1
8.59483,0.891731,0.125907,-0.000487912,0.160451,0.0332467,0.0062467,0.0309902,-0.0249461,0.033577,-0.0479922,-0.0222121,0.00894741,0.00639618,-0.0441694,0.00894205,-0.319801,0.0811218,3.05443,3.05661,1,1
8.66536,0.90283,0.128169,-0.0061093,0.166722,0.0375525,0.00205656,0.141579,0.0773931,0.0396404,-0.0480148,-0.0222879,0.0091661,0.00638098,-0.0441693,0.00873301,-0.333676,0.102881,3.05474,3.05297,1,1
8.73569,0.914468,0.130767,-0.0110254,0.164185,0.0358307,-0.00169495,-0.082558,-0.0363536,0.0308943,-0.0480341,-0.0223526,0.00935261,0.00638874,-0.0441706,0.00853176,-0.338101,0.10487,3.05554,3.05304,1,1
8.80621,0.925994,0.133258,-0.0154212,0.161871,0.0315128,-0.00466659,-0.0859061,-0.0796327,0.0323267,-0.0480504,-0.0224073,0.00951075,0.00640549,-0.04417,0.00824336,-0.344499,0.110234,3.05745,3.05389,1,1
8.87655,0.937296,0.135502,-0.0192352,0.156634,0.0243086,-0.00724955,-0.152123,-0.133707,0.0203896,-0.0480641,-0.0224533,0.00964367,0.00643284,-0.0441679,0.00813611,-0.340404,0.10246,3.05766,3.0557,1,1
8.94707,0.948285,0.13719,-0.0226862,0.154779,0.0183249,-0.00815559,-0.0751154,-0.106697,0.040309,-0.0480756,-0.0224917,0.00975464,0.00645572,-0.044165,0.00803024,-0.33911,0.101085,3.05774,3.05608,1,1
9.01743,0.959049,0.138471,-0.0271683,0.153201,0.0132128,-0.0106324,-0.0593361,-0.0919607,0.0310259,-0.0480907,-0.0225421,0.00990023,0.00647597,-0.0441618,0.0080642,-0.333309,0.0948458,3.05633,3.05612,1,1
9.08794,0.969749,0.139368,-0.0312155,0.15488,0.0115771,-0.0127561,0.0181,-0.0287007,0.0261917,-0.0481032,-0.0225836,0.0100199,0.00648321,-0.0441602,0.007747,-0.344425,0.109218,3.05829,3.05476,1,1
9.1583,0.980548,0.140194,-0.034651,0.150454,0.00494072,-0.0145748,-0.130367,-0.122074,0.0150871,-0.0481133,-0.0226173,0.0101172,0.00650931,-0.0441589,0.00744603,-0.347952,0.10932,3.0606,3.05661,1,1
9.22882,0.991079,0.140491,-0.0392034,0.145418,-0.00493941,-0.0164418,-0.157915,-0.174413,0.0369072,-0.0481272,-0.0226632,0.0102494,0.00654733,-0.0441548,0.00741782,-0.3398,0.0976021,3.06035,3.05906,1,1
9.29917,1.00114,0.140102,-0.0462134,0.145316,-0.0110027,-0.0206566,-0.0266602,-0.104876,0.0399342,-0.0481497,-0.0227374,0.0104629,0.00657098,-0.0441507,0.00744697,-0.334809,0.0943312,3.05907,3.0589,1,1
9.36969,1.01124,0.139258,-0.0540243,0.146311,-0.0141723,-0.0261349,0.000543475,-0.0547012,0.0297775,-0.0481736,-0.0228165,0.0106899,0.00658392,-0.044148,0.00746544,-0.332318,0.093879,3.05769,3.05765,1,1
9.44006,1.02136,0.138185,-0.0624737,0.147765,-0.0162021,-0.0311882,0.0157003,-0.0347692,0.0399866,-0.0481987,-0.0228988,0.010926,0.00659231,-0.0441462,0.00741191,-0.333293,0.0975579,3.05688,3.05621,1,1
9.51058,1.03163,0.13696,-0.0699431,0.148229,-0.0185876,-0.034636,-0.0113236,-0.0420862,0.0406733,-0.0482187,-0.0229647,0.0111148,0.00660232,-0.0441449,0.00711774,-0.3422,0.108279,3.05844,3.05514,1,1
9.58093,1.04186,0.135576,-0.0778769,0.143974,-0.0260587,-0.0380333,-0.12538,-0.13304,0.0450869,-0.04824,-0.023035,0.0113159,0.00663167,-0.0441433,0.00690718,-0.342579,0.106276,3.05983,3.057,1,1
9.65146,1.05188,0.133657,-0.08493,0.140959,-0.0326761,-0.0425395,-0.100326,-0.116049,0.0109034,-0.0482567,-0.0230898,0.0114727,0.00665829,-0.0441415,0.00670907,-0.343726,0.106005,3.06097,3.05829,1,1
9.72181,1.06165,0.131312,-0.0895938,0.137404,-0.039456,-0.0430184,-0.1092,-0.120617,0.0222683,-0.0482637,-0.0231125,0.0115375,0.00668641,-0.0441398,0.00688801,-0.331825,0.0904209,3.05845,3.0595,1,1
9.79235,1.07122,0.128489,-0.0952226,0.140467,-0.0405274,-0.0444565,0.0527971,-0.0169723,0.0233889,-0.0482735,-0.0231448,0.0116294,0.00669089,-0.0441375,0.00676942,-0.336064,0.0992944,3.05821,3.0569,1,1
9.86274,1.08098,0.125587,-0.100004,0.140108,-0.0441698,-0.0443309,-0.0293556,-0.0645469,0.0303469,-0.0482801,-0.0231665,0.0116914,0.00670601,-0.0441357,0.006651,-0.336996,0.1012,3.05842,3.05683,1,1
9.93329,1.09074,0.122393,-0.104051,0.138551,-0.0483894,-0.0429176,-0.05992,-0.0744778,0.0385303,-0.0482841,-0.0231795,0.0117283,0.00672326,-0.0441344,0.00671461,-0.330948,0.09408,3.05668,3.05687,1,1
10.0037,1.10037,0.118925,-0.108949,0.140424,-0.0491131,-0.0421981,0.0252395,-0.0126344,0.0430946,-0.0482915,-0.0232035,0.0117966,0.0067269,-0.0441335,0.00700282,-0.321612,0.0854502,3.05252,3.05529,1,1
10.0742,1.11021,0.115446,-0.11313,0.145238,-0.0454508,-0.0409415,0.0976249,0.0631839,0.0372438,-0.048296,-0.0232184,0.0118389,0.00671347,-0.0441344,0.00724735,-0.317302,0.0839204,3.04833,3.05112,1,1
10.1446,1.12037,0.112245,-0.116693,0.151705,-0.038205,-0.0398064,0.140114,0.12661,0.025609,-0.0482982,-0.0232256,0.0118593,0.00668631,-0.0441359,0.00687286,-0.336093,0.107141,3.05046,3.04699,1,1
10.2151,1.13093,0.109464,-0.119444,0.147584,-0.0412663,-0.037097,-0.117975,-0.0598592,0.0379267,-0.0482986,-0.0232268,0.0118628,0.00669952,-0.0441388,0.00632756,-0.349808,0.114807,3.05545,3.04894,1,1
10.2855,1.14118,0.106489,-0.121512,0.139711,-0.0513543,-0.0349075,-0.21277,-0.183737,0.0244217,-0.0482976,-0.0232236,0.0118535,0.00673807,-0.0441407,0.00578947,-0.356229,0.113557,3.06089,3.05398,1,1
10.3561,1.15083,0.102698,-0.124603,0.132595,-0.0649459,-0.0331867,-0.20539,-0.242585,0.0359612,-0.0483011,-0.0232352,0.0118866,0.00679056,-0.0441366,0.00551988,-0.352351,0.105093,3.06364,3.05934,1,1
10.4264,1.16002,0.0980239,-0.127159,0.128569,-0.0769461,-0.0311464,-0.12868,-0.210949,0.037014,-0.048303,-0.0232413,0.011904,0.00683496,-0.0441329,0.00500793,-0.357874,0.107915,3.06894,3.06205,1,1
10.497,1.16886,0.0924364,-0.129148,0.124309,-0.0925928,-0.0286141,-0.139539,-0.274433,0.0339527,-0.0483035,-0.0232431,0.0119091,0.00689494,-0.0441223,0.0049229,-0.348751,0.0986541,3.06964,3.06746,1,1
10.5673,1.17747,0.0858182,-0.1308,0.123967,-0.103659,-0.0265707,-0.0410304,-0.188554,0.0274487,-0.048303,-0.0232414,0.0119043,0.00693625,-0.0441152,0.00483981,-0.344509,0.0976373,3.06988,3.06827,1,1
10.6379,1.18609,0.078413,-0.132092,0.12406,-0.112274,-0.0240394,-0.0281006,-0.147835,0.0281954,-0.0483016,-0.0232369,0.0118916,0.00696978,-0.0441087,0.00448827,-0.350116,0.105036,3.07319,3.06858,1,1
10.7082,1.19465,0.0703554,-0.132993,0.120994,-0.123871,-0.0208247,-0.105098,-0.201098,0.0361671,-0.0482997,-0.0232306,0.0118737,0.00701506,-0.0441035,0.00453024,-0.340384,0.0947035,3.07225,3.0718,1,1
10.7793,1.20323,0.0615111,-0.130563,0.122365,-0.1307,-0.013115,0.00155157,-0.11614,0.0475368,-0.0482862,-0.0231865,0.0117496,0.00704189,-0.0440979,0.00456426,-0.335717,0.0935776,3.07088,3.07085,1,1
10.8497,1.21177,0.0522799,-0.129643,0.123664,-0.134446,-0.00909265,0.0079546,-0.0640875,0.028347,-0.04828,-0.0231658,0.0116916,0.00705662,-0.0440949,0.0044106,-0.338233,0.0989085,3.07171,3.06964,1,1
10.9202,1.22052,0.0428134,-0.125569,0.123354,-0.1385,-0.00208398,-0.0345938,-0.0730194,0.0230484,-0.0482633,-0.0231111,0.0115382,0.00707332,-0.0440935,0.00425003,-0.339915,0.100919,3.07261,3.07034,1,1
10.9906,1.22908,0.0329982,-0.123169,0.121571,-0.144302,0.00336209,-0.0679603,-0.103373,0.0374289,-0.0482548,-0.023083,0.0114594,0.00709612,-0.0440914,0.0040987,-0.33966,0.0999203,3.07374,3.07139,1,1
11.0612,1.23764,0.022791,-0.119285,0.120404,-0.150013,0.0100759,-0.0578705,-0.101626,0.0375957,-0.0482423,-0.0230418,0.0113443,0.0071181,-0.0440892,0.00390894,-0.341355,0.101582,3.07505,3.07243,1,1
11.1315,1.24604,0.0122033,-0.114059,0.118422,-0.155508,0.0182844,-0.0745718,-0.0983481,0.0440903,-0.0482268,-0.0229905,0.011201,0.00713967,-0.0440879,0.00352473,-0.348738,0.106853,3.07889,3.0737,1,1
11.2021,1.25443,0.00118194,-0.107576,0.114694,-0.165842,0.026075,-0.129696,-0.183118,0.0265856,-0.048209,-0.0229318,0.0110371,0.00717866,-0.0440849,0.00317321,-0.351083,0.105357,3.0828,3.07748,1,1
11.2725,1.26237,-0.0105839,-0.100082,0.112082,-0.177921,0.0344651,-0.0957367,-0.208587,0.0285578,-0.0481897,-0.0228678,0.0108588,0.00722488,-0.0440775,0.00319973,-0.342013,0.0954012,3.08211,3.0815,1,1
11.343,1.27032,-0.0231954,-0.093279,0.112075,-0.185266,0.0419119,-0.0338089,-0.126598,0.0361872,-0.0481747,-0.0228184,0.0107212,0.00725457,-0.0440737,0.00340221,-0.331624,0.0847402,3.07888,3.08084,1,1
11.4134,1.27825,-0.0361977,-0.0871986,0.117948,-0.187141,0.0470839,0.118648,-0.0274963,0.0214005,-0.0481637,-0.0227819,0.0106197,0.00726214,-0.044069,0.0035571,-0.327842,0.0883,3.07571,3.07753,1,1
11.484,1.28651,-0.0493973,-0.0832485,0.121429,-0.18605,0.0500649,0.0654914,0.0189846,0.032752,-0.0481616,-0.022775,0.0106006,0.00725909,-0.0440684,0.00369118,-0.325118,0.088475,3.0728,3.07443,1,1
11.5544,1.29506,-0.0624584,-0.0782003,0.125301,-0.184176,0.0546221,0.074184,0.0322464,0.0398254,-0.0481564,-0.0227577,0.0105524,0.00725317,-0.0440685,0.00375784,-0.325275,0.092359,3.07071,3.07163,1,1
11.6249,1.3038,-0.0754793,-0.0751555,0.126791,-0.182007,0.0563091,0.0161163,0.0346761,0.0382442,-0.0481595,-0.0227679,0.0105808,0.00724586,-0.0440707,0.00351093,-0.334418,0.103328,3.07269,3.06959,1,1
11.6953,1.31251,-0.0884097,-0.072434,0.124167,-0.184264,0.0568019,-0.0867633,-0.0447655,0.0293226,-0.0481642,-0.0227838,0.0106251,0.00725558,-0.044072,0.00328444,-0.338576,0.104438,3.07464,3.07134,1,1
11.7659,1.32119,-0.101645,-0.0715379,0.121786,-0.189173,0.055787,-0.0915473,-0.0887561,0.0393066,-0.0481757,-0.0228224,0.0107329,0.0072741,-0.0440727,0.00274695,-0.349834,0.111239,3.08182,3.07339,1,1
11.8363,1.32934,-0.115324,-0.072304,0.116417,-0.19995,0.0527699,-0.164174,-0.195595,0.0367069,-0.0481928,-0.0228801,0.0108945,0.00731429,-0.0440681,0.00242508,-0.35011,0.105382,3.08654,3.08072,1,1
11.9068,1.33746,-0.129809,-0.0731544,0.113694,-0.211048,0.0484411,-0.113386,-0.194958,0.0174646,-0.0482093,-0.0229359,0.0110507,0.0073542,-0.0440642,0.00213076,-0.350885,0.10412,3.09058,3.0854,1,1
11.9772,1.34511,-0.145005,-0.0725645,0.110869,-0.222507,0.0483772,-0.103908,-0.204371,0.0487003,-0.0482201,-0.0229721,0.011152,0.00739642,-0.0440575,0.00190371,-0.349156,0.100495,3.09381,3.08935,1,1
12.0478,1.35271,-0.161127,-0.0736161,0.110592,-0.23333,0.045812,-0.0457895,-0.187038,0.0418692,-0.0482363,-0.0230267,0.0113049,0.00743667,-0.0440496,0.00194373,-0.340677,0.0933903,3.09296,3.0927,1,1
12.1182,1.36019,-0.177875,-0.0762988,0.11243,-0.239265,0.0404067,0.0200252,-0.100267,0.023263,-0.048257,-0.0230963,0.0114997,0.00745999,-0.0440446,0.00197847,-0.336532,0.0930624,3.09165,3.09177,1,1
12.1888,1.36792,-0.195059,-0.0789012,0.114452,-0.243575,0.0359738,0.0239016,-0.072633,0.0294819,-0.0482761,-0.0231604,0.0116791,0.00747755,-0.0440412,0.00163,-0.345102,0.103635,3.09711,3.09051,1,1
12.2592,1.37562,-0.212531,-0.0797341,0.111788,-0.251924,0.0353479,-0.0953757,-0.148538,0.0491152,-0.0482885,-0.0232021,0.0117958,0.00750902,-0.0440365,0.00160302,-0.339756,0.0954929,3.09713,3.09602,1,1
12.3298,1.38336,-0.230614,-0.0805754,0.113019,-0.25803,0.0332824,-0.00097096,-0.102983,0.028924,-0.0483003,-0.0232421,0.0119074,0.00753272,-0.0440328,0.00159738,-0.336731,0.0951923,3.09634,3.09589,1,1
12.4002,1.39104,-0.249058,-0.0829477,0.113709,-0.262831,0.0294209,-0.00684011,-0.0825084,0.0248289,-0.0483168,-0.0232975,0.0120624,0.00755167,-0.0440295,0.00158755,-0.33439,0.0947008,3.09567,3.0952,1,1
12.4708,1.39891,-0.267872,-0.0851944,0.114808,-0.265949,0.0268399,-0.00195038,-0.05362,0.0375013,-0.0483318,-0.0233483,0.0122043,0.00756435,-0.044028,0.00143669,-0.337418,0.0994872,3.09774,3.09459,1,1
12.5411,1.40677,-0.286821,-0.0856687,0.114289,-0.270689,0.0272752,-0.0413501,-0.084913,0.0474157,-0.0483405,-0.0233776,0.012286,0.00758262,-0.0440257,0.00118805,-0.341385,0.100451,3.10248,3.09655,1,1
12.6117,1.4148,-0.306204,-0.084565,0.113815,-0.276792,0.0283118,-0.0497339,-0.107592,0.0314484,-0.0483438,-0.0233887,0.0123171,0.00760611,-0.044023,0.000971254,-0.344025,0.100448,3.10672,3.10132,1,1
12.6821,1.42254,-0.325995,-0.0850368,0.113316,-0.284386,0.0275477,-0.0401808,-0.134001,0.0320978,-0.0483528,-0.0234191,0.0124021,0.007635,-0.0440183,0.000949983,-0.339806,0.0965056,3.10665,3.10563,1,1
12.7527,1.43046,-0.34634,-0.0840079,0.113048,-0.289842,0.028948,-0.0408243,-0.0959523,0.0380812,-0.0483564,-0.0234313,0.0124361,0.00765607,-0.0440151,0.00110898,-0.329266,0.0818035,3.10321,3.10565,1,1
12.8231,1.4383,-0.366838,-0.0816026,0.119119,-0.290252,0.0328769,0.136432,-0.0024317,0.0498943,-0.0483554,-0.023428,0.0124271,0.00765969,-0.0440126,0.00124993,-0.325155,0.085049,3.09946,3.10212,1,1
12.8937,1.44657,-0.387246,-0.0778539,0.124246,-0.288327,0.0365792,0.117863,0.0351324,0.0289822,-0.0483507,-0.0234122,0.0123827,0.00765449,-0.0440121,0.00114021,-0.332228,0.101133,3.10098,3.09853,1,1
12.9643,1.45524,-0.407663,-0.0743378,0.123612,-0.290025,0.0409465,-0.0453111,-0.033911,0.0484753,-0.0483482,-0.0234034,0.0123582,0.00766153,-0.0440117,0.00117784,-0.328915,0.0949018,3.09932,3.09993,1,1
13.0349,1.46391,-0.428162,-0.0711745,0.124969,-0.289767,0.0432213,0.00949848,0.00284812,0.0288582,-0.0483475,-0.0234011,0.0123516,0.00766135,-0.044012,0.00120954,-0.327698,0.0938697,3.09755,3.09824,1,1
13.1052,1.47265,-0.448552,-0.0668312,0.126647,-0.289021,0.0473459,0.0191461,0.0111171,0.0382643,-0.0483435,-0.0233874,0.0123132,0.00765978,-0.0440125,0.00123072,-0.327422,0.0945279,3.09589,3.09639,1,1
13.1758,1.48153,-0.468937,-0.0629156,0.128523,-0.287968,0.0500621,0.023798,0.0168021,0.029829,-0.0483418,-0.0233816,0.0122969,0.00765678,-0.0440132,0.0011132,-0.334038,0.104832,3.09772,3.09476,1,1
13.2462,1.49052,-0.489254,-0.059391,0.126692,-0.289329,0.0516839,-0.0791557,-0.0307626,0.0233316,-0.0483422,-0.0233828,0.0123003,0.00766171,-0.0440137,0.000959827,-0.338208,0.103048,3.10181,3.09666,1,1
13.3168,1.49948,-0.509931,-0.0562543,0.124941,-0.294054,0.0534578,-0.0852188,-0.0877626,0.0366325,-0.0483443,-0.0233902,0.0123213,0.00767842,-0.0440115,0.00083272,-0.339731,0.099994,3.10542,3.10069,1,1
13.3872,1.5081,-0.53086,-0.0534621,0.123949,-0.299675,0.0547608,-0.0553694,-0.104079,0.0366659,-0.0483481,-0.0234031,0.0123577,0.00769915,-0.0440081,0.000759745,-0.339194,0.098651,3.10715,3.10437,1,1
13.4578,1.5168,-0.552301,-0.0495194,0.124022,-0.305226,0.0572996,-0.0318521,-0.0997096,0.0377264,-0.0483483,-0.023404,0.0123604,0.00771972,-0.0440045,0.000706555,-0.338203,0.0987094,3.1083,3.10606,1,1
13.5282,1.52536,-0.573969,-0.046019,0.123912,-0.309591,0.0594146,-0.0320103,-0.080579,0.0411186,-0.0483506,-0.0234118,0.0123825,0.00773582,-0.0440019,0.000659884,-0.337407,0.0979818,3.10947,3.10734,1,1
13.5988,1.53409,-0.596089,-0.0429421,0.123581,-0.314044,0.0604657,-0.0443811,-0.0818429,0.035924,-0.0483546,-0.0234255,0.0124217,0.00775214,-0.0439997,0.000424205,-0.344389,0.0899407,3.12189,3.10851,1,1
13.6692,1.54244,-0.618623,-0.040246,0.126359,-0.323078,0.0602009,0.0554656,-0.158834,0.0241432,-0.0483602,-0.0234445,0.0124756,0.00778725,-0.0439927,0.000211732,-0.34585,0.0728149,3.13718,3.12082,1,1
13.7398,1.55083,-0.642027,-0.0379559,0.134844,-0.333351,0.060919,0.214663,-0.170328,0.042819,-0.048367,-0.0234678,0.0125422,0.00782997,-0.0439828,6.69288e-05,-0.346319,0.0739329,-3.13473,3.13618,1,1
13.8102,1.55979,-0.66615,-0.0390598,0.143153,-0.343963,0.0561234,0.217221,-0.175114,0.0214949,-0.0483844,-0.0235276,0.0127128,0.00787273,-0.0439744,0.000521915,-0.307747,0.0316285,3.13055,-3.13592,1,1
13.8808,1.56898,-0.689955,-0.0420432,0.165048,-0.332442,0.0512999,0.633806,0.203541,0.00593853,-0.0484056,-0.0236009,0.0129215,0.00783889,-0.043975,0.000862142,-0.293099,0.0124296,3.11746,3.12964,1,1
13.9512,1.58068,-0.713136,-0.0467255,0.196721,-0.315783,0.0444158,0.837801,0.328018,0.00692081,-0.0484293,-0.0236847,0.0131604,0.00777832,-0.0439788,0.00096117,-0.307031,0.0896877,3.1098,3.11657,1,1
14.0218,1.59464,-0.734879,-0.0522173,0.19989,-0.302661,0.0370682,0.0568938,0.22234,0.0370245,-0.0484545,-0.0237763,0.0134223,0.0077286,-0.0439855,0.00102827,-0.310724,0.0899108,3.10448,3.10891,1,1
14.0922,1.60906,-0.755884,-0.0573578,0.203922,-0.292261,0.0300934,0.0653101,0.179067,0.0258837,-0.0484764,-0.0238576,0.0136558,0.00769137,-0.0439906,0.000983187,-0.319689,0.0972801,3.10601,3.10344,1,1
14.1628,1.62376,-0.776316,-0.0635623,0.204461,-0.28662,0.0222163,-0.0205896,0.0943748,0.0260553,-0.0484996,-0.0239456,0.0139098,0.00767027,-0.0439943,0.00091788,-0.326419,0.0962772,3.10958,3.10483,1,1
14.2332,1.63838,-0.796485,-0.0692286,0.206115,-0.285175,0.0168359,-0.00528872,0.0214456,0.0460281,-0.0485195,-0.0240224,0.0141324,0.00766578,-0.0439953,0.000863105,-0.330564,0.0976736,3.11246,3.10842,1,1
14.3038,1.65335,-0.816732,-0.0758255,0.206022,-0.286105,0.0108092,-0.0302383,-0.0185359,0.0448027,-0.0485406,-0.024105,0.0143731,0.00766949,-0.0439948,0.000851697,-0.330543,0.0955496,3.11249,3.11145,1,1
14.3742,1.66812,-0.836885,-0.0818614,0.207249,-0.28652,0.00444015,-0.017262,-0.0122102,0.0248032,-0.0485587,-0.024176,0.0145807,0.00767192,-0.0439947,0.000859865,-0.329262,0.0931265,3.11081,3.11134,1,1
14.4449,1.68304,-0.857124,-0.087357,0.208929,-0.286553,-0.000563596,0.0268283,-0.000988439,0.0264635,-0.048574,-0.0242364,0.014758,0.00767319,-0.0439945,0.000862535,-0.329377,0.0955647,3.1094,3.10962,1,1
14.5152,1.69796,-0.877269,-0.0923203,0.210778,-0.2864,-0.0045718,0.00282246,-0.00138144,0.0263119,-0.0485868,-0.0242873,0.014908,0.00767399,-0.0439944,0.000860125,-0.329725,0.0963451,3.10843,3.10819,1,1
14.5858,1.71312,-0.897493,-0.0967055,0.211433,-0.286392,-0.00604789,-0.00699377,-0.00148373,0.0482092,-0.0485976,-0.02433,0.0150339,0.00767435,-0.0439945,0.00084743,-0.331268,0.0984761,3.10861,3.10742,1,1
14.6562,1.72823,-0.917629,-0.102087,0.212163,-0.287165,-0.0101307,-0.0264046,-0.0189485,0.0259666,-0.0486105,-0.0243809,0.0151845,0.00767781,-0.0439941,0.000834953,-0.331817,0.0982949,3.10889,3.10755,1,1
14.7268,1.74358,-0.937963,-0.106835,0.211636,-0.288489,-0.012595,-0.0457165,-0.0269586,0.0332451,-0.0486211,-0.024423,0.0153091,0.00768285,-0.0439932,0.000912247,-0.31279,0.0413399,3.10511,3.1077,1,1
14.7972,1.75846,-0.958145,-0.108082,0.232204,-0.281281,-0.00992079,0.541523,0.141437,0.00979137,-0.048622,-0.0244263,0.0153188,0.00766414,-0.0439938,0.000870582,-0.331494,0.109424,3.10717,3.10413,1,1
14.8679,1.77502,-0.978164,-0.10724,0.229028,-0.282538,-0.00463185,-0.136377,-0.0333016,0.0403509,-0.0486186,-0.0244131,0.0152797,0.00766827,-0.0439933,0.000857052,-0.330299,0.0967643,3.10861,3.10617,1,1
14.9382,1.79093,-0.998138,-0.104828,0.22814,-0.282661,0.000918071,-0.0301781,-0.00310244,0.0364618,-0.0486119,-0.0243866,0.0152008,0.00766848,-0.0439934,0.000845357,-0.331864,0.0979184,3.10886,3.10755,1,1
15.0089,1.80682,-1.01831,-0.100806,0.229379,-0.283754,0.00825942,-0.0320804,-0.0278599,0.0342197,-0.0486023,-0.0243493,0.0150899,0.00767355,-0.0439927,0.000851449,-0.32926,0.0931429,3.10722,3.10785,1,1
15.0798,1.82289,-1.03858,-0.0970263,0.229156,-0.284213,0.0149888,0.00478727,-0.00677783,0.0429068,-0.0485945,-0.0243191,0.015,0.00767488,-0.0439925,0.000881868,-0.321492,0.0741824,3.10387,3.10623,1,1
15.1505,1.83838,-1.05867,-0.0920782,0.238531,-0.28099,0.0224307,0.204294,0.0619283,0.0416336,-0.0485845,-0.0242804,0.0148846,0.00766677,-0.0439936,0.00090533,-0.320233,0.0768056,3.1007,3.10278,1,1
15.2209,1.85499,-1.07836,-0.0872023,0.245009,-0.277083,0.0291371,0.189998,0.0773863,0.0334606,-0.0485766,-0.02425,0.014794,0.00765534,-0.0439953,0.000884976,-0.330887,0.106756,3.10157,3.0997,1,1
15.2915,1.87222,-1.09802,-0.0810773,0.243311,-0.277144,0.0360022,-0.117708,-0.0113782,0.0246105,-0.048567,-0.0242132,0.0146841,0.00765492,-0.0439956,0.000874278,-0.331091,0.0989453,3.1025,3.10063,1,1
15.3619,1.88918,-1.11766,-0.0756034,0.242014,-0.277719,0.0420727,-0.0320815,-0.0106244,0.0389729,-0.04856,-0.0241863,0.0146038,0.00765623,-0.0439955,0.000865135,-0.332532,0.100643,3.10267,3.1013,1,1
15.4325,1.90619,-1.13743,-0.0704973,0.241988,-0.279085,0.0471875,-0.0493734,-0.0335556,0.0357151,-0.0485552,-0.0241681,0.0145497,0.00766129,-0.0439947,0.000839986,-0.33558,0.101205,3.1069,3.10155,1,1
15.5029,1.92308,-1.15731,-0.0660134,0.240451,-0.282141,0.0507838,-0.055786,-0.063423,0.0355911,-0.0485526,-0.024158,0.0145195,0.00767118,-0.0439927,0.000838142,-0.332389,0.0966443,3.10652,3.10579,1,1
15.5735,1.94001,-1.17738,-0.0618918,0.241251,-0.283848,0.0545182,-0.0108789,-0.0369523,0.045331,-0.0485517,-0.0241548,0.0145098,0.00767728,-0.0439917,0.000835848,-0.331148,0.0973967,3.10601,3.10548,1,1
15.6439,1.9569,-1.19747,-0.0567386,0.240875,-0.28431,0.0586227,-0.0267705,-0.011485,0.0382204,-0.0485486,-0.0241434,0.0144761,0.00767906,-0.0439914,0.000848031,-0.326425,0.0879264,3.10264,3.10491,1,1
15.7145,1.97371,-1.21759,-0.0521552,0.244962,-0.283423,0.0623276,0.0870571,0.0178167,0.0460119,-0.0485477,-0.0241399,0.0144654,0.00767779,-0.0439916,0.000838326,-0.331587,0.102213,3.10332,3.10151,1,1
15.7849,1.99096,-1.23763,-0.0480272,0.243095,-0.284448,0.0650114,-0.0854223,-0.02619,0.0431681,-0.0485486,-0.0241432,0.0144754,0.0076804,-0.0439912,0.000826792,-0.333438,0.10068,3.10516,3.10237,1,1
15.8556,2.00824,-1.2578,-0.0443184,0.241983,-0.285794,0.0664661,-0.0599092,-0.0327166,0.038063,-0.0485512,-0.0241527,0.0145036,0.00768493,-0.0439904,0.000817446,-0.334861,0.101456,3.10642,3.10412,1,1
15.926,2.02527,-1.27804,-0.0411335,0.240665,-0.287742,0.0673326,-0.0679877,-0.0464733,0.0379257,-0.0485554,-0.0241676,0.0145477,0.00769104,-0.0439893,0.000789808,-0.33951,0.095101,3.11585,3.10514,1,1
15.9966,2.04232,-1.29861,-0.038322,0.241141,-0.291912,0.0674808,-0.00612271,-0.094282,0.0377703,-0.0485609,-0.0241872,0.0146057,0.00770564,-0.0439862,0.000785554,-0.335576,0.0941124,3.11703,3.11471,1,1
16.067,2.05923,-1.31936,-0.0359633,0.24168,-0.294885,0.0676173,-0.00620246,-0.0684475,0.0431843,-0.0485676,-0.0242108,0.0146755,0.00771622,-0.0439842,0.000782725,-0.332849,0.0945601,3.11749,3.11602,1,1
16.1377,2.07634,-1.34027,-0.0339592,0.242907,-0.296131,0.0675423,-7.78437e-05,-0.0323808,0.0474548,-0.0485753,-0.0242379,0.0147554,0.00772156,-0.0439831,0.000806947,-0.316315,0.0615147,3.11115,3.11633,1,1
16.2081,2.09337,-1.36083,-0.032468,0.255724,-0.29079,0.0665434,0.340791,0.113168,0.0291843,-0.0485839,-0.0242676,0.0148427,0.00770911,-0.043985,0.00080325,-0.328148,0.101404,3.11018,3.11006,1,1
16.2787,2.11159,-1.38129,-0.0310881,0.254693,-0.29014,0.0652172,-0.0552667,0.00925394,0.0354824,-0.0485931,-0.0242996,0.0149368,0.00770665,-0.0439855,0.000798967,-0.32977,0.0968256,3.11131,3.10923,1,1
16.3491,2.12949,-1.40174,-0.0300256,0.256238,-0.290268,0.0632695,-0.02065,-0.00775601,0.0345659,-0.0486028,-0.0243334,0.015036,0.00770743,-0.0439854,0.000758657,-0.335031,0.0328546,-3.1396,3.11029,1,1
16.4198,2.14654,-1.42293,-0.0293877,0.276217,-0.295305,0.0619621,0.619086,-0.0587069,0.0157785,-0.0486129,-0.0243684,0.0151388,0.0077323,-0.0439793,0.000754634,-0.33531,0.0800864,-3.1356,-3.1408,1,1
16.4902,2.16581,-1.44397,-0.0287862,0.283296,-0.29782,0.0591353,0.165437,-0.0583943,0.0253057,-0.0486231,-0.0244045,0.0152445,0.00774448,-0.043977,0.000817248,-0.294581,0.0283637,3.12379,-3.13679,1,1
16.5609,2.1852,-1.46454,-0.028731,0.308494,-0.283274,0.0597803,0.679199,0.333942,0.0102749,-0.0486333,-0.0244408,0.0153508,0.00770094,-0.0439823,0.000868864,-0.281517,-0.0541816,3.11645,3.12274,1,1
16.6313,2.20641,-1.48245,-0.0292265,0.359953,-0.262654,0.0559941,1.47088,0.430273,-0.0954075,-0.0486434,-0.0244773,0.0154579,0.00764538,-0.0439906,0.000900674,-0.296143,0.021773,3.10982,3.1156,1,1
16.702,2.23156,-1.50043,-0.0292812,0.388532,-0.249318,0.0521563,0.747717,0.297503,0.00300789,-0.0486526,-0.0245126,0.0155619,0.00760385,-0.0439959,0.000890383,-0.322782,0.10165,3.1113,3.10889,1,1
16.7698,2.25902,-1.51686,-0.0294357,0.390375,-0.245174,0.050902,-0.0770903,0.0782713,0.0482416,-0.0486612,-0.0245473,0.0156646,0.00759008,-0.0439984,0.000882301,-0.327444,0.0861975,3.11539,3.11028,1,1
16.8404,2.28779,-1.53403,-0.029536,0.398596,-0.244371,0.0493806,0.10359,0.00848678,0.0446033,-0.0486692,-0.0245816,0.0157667,0.00759064,-0.0439983,0.000916379,-0.306735,0.0355702,3.10677,3.11415,1,1
16.9108,2.31764,-1.55024,-0.0300531,0.427085,-0.234129,0.0475869,0.599756,0.206114,0.0174398,-0.0486768,-0.024615,0.0158665,0.00756985,-0.044001,0.000857646,-0.335978,0.0246047,-3.13169,3.10584,1,1
16.9815,2.3484,-1.56742,-0.0304022,0.454137,-0.239566,0.0451298,0.690611,-0.0623724,0.00915146,-0.0486838,-0.0246473,0.0159636,0.00759825,-0.043993,0.00083882,-0.332109,-0.0146108,-3.10068,-3.13281,1,1
17.0519,2.38474,-1.5837,-0.0341231,0.502091,-0.23914,0.0408997,1.07477,0.0126708,-0.0253553,-0.0486956,-0.0247059,0.0161402,0.00762383,-0.0439862,0.000891075,-0.317787,0.150807,-3.13333,-3.10165,1,1
17.1226,2.4256,-1.59898,-0.0356022,0.491307,-0.232054,0.0395886,-0.539556,0.110844,-2.19345e-05,-0.0487029,-0.0247449,0.0162581,0.00759302,-0.0439913,0.000897371,-0.321148,0.107654,-3.13958,-3.13458,1,1
17.193,2.46756,-1.61418,-0.0405648,0.508027,-0.22599,0.0305123,-0.118158,0.0727235,0.0425882,-0.048714,-0.0248075,0.0164477,0.00757862,-0.0439938,0.000898668,-0.324342,0.100031,3.14106,-3.14067,1,1
17.2637,2.50938,-1.62925,-0.0436647,0.512896,-0.222281,0.0253599,-0.0525172,0.0638037,0.0390949,-0.0487209,-0.0248483,0.0165716,0.00756617,-0.0439956,0.000922267,-0.325335,0.127029,3.12674,3.14003,1,1
17.3341,2.55067,-1.64432,-0.0469701,0.516858,-0.218848,0.0191033,-0.307116,0.0396598,0.0289412,-0.0487269,-0.0248835,0.0166787,0.00755241,-0.0439983,0.000923684,-0.324909,0.0981994,3.12504,3.12573,1,1
17.4047,2.5904,-1.6593,-0.0481039,0.519518,-0.216099,0.0179743,-0.0234275,0.0491348,0.0367708,-0.0487298,-0.0249009,0.0167318,0.00754307,-0.0439998,0.000936457,-0.326158,0.108392,3.11771,3.12388,1,1
17.4751,2.62975,-1.67415,-0.0492368,0.522072,-0.213169,0.016257,-0.142466,0.0431178,0.0244274,-0.0487325,-0.0249163,0.0167787,0.00753269,-0.0440016,0.000940048,-0.326544,0.0960837,3.1151,3.11655,1,1
17.5458,2.66963,-1.68884,-0.0501263,0.524218,-0.21175,0.0156265,-0.0223824,0.0238438,0.0316486,-0.0487349,-0.0249299,0.01682,0.00752822,-0.0440024,0.000952753,-0.324876,0.0948963,3.10954,3.11388,1,1
17.6162,2.70925,-1.70339,-0.0508798,0.531,-0.209343,0.0161018,0.00886124,0.036136,0.0429029,-0.0487372,-0.024942,0.0168571,0.00752221,-0.0440035,0.000917865,-0.334517,0.0929397,3.1209,3.10832,1,1
17.6869,2.74951,-1.71814,-0.0514029,0.534306,-0.211813,0.0155613,0.0276673,-0.0521743,0.0239153,-0.0487394,-0.0249531,0.016891,0.00753219,-0.0440017,0.000898102,-0.334972,0.0769999,3.13122,3.1199,1,1
17.7573,2.78686,-1.73345,-0.0501556,0.541012,-0.214871,0.0180664,0.184133,-0.0612466,0.0315638,-0.0487393,-0.0249529,0.0168903,0.00754722,-0.0439991,0.000953054,-0.313138,0.0600303,3.11404,3.13015,1,1
17.828,2.82288,-1.74887,-0.0494776,0.552583,-0.208378,0.0191191,0.356573,0.147912,0.0164766,-0.0487395,-0.0249539,0.0168934,0.00752769,-0.0440016,0.000934191,-0.330261,0.102188,3.11977,3.11306,1,1
17.8984,2.86182,-1.76374,-0.0483883,0.551856,-0.208851,0.0218825,-0.0545483,-0.0152301,0.0436926,-0.04874,-0.024956,0.0168997,0.00752923,-0.0440014,0.000922558,-0.32962,0.0738178,3.12881,3.11881,1,1
17.9691,2.90062,-1.7788,-0.0473945,0.55939,-0.20936,0.0231712,0.206722,-0.00629712,0.0209188,-0.0487407,-0.0249593,0.0169097,0.00753427,-0.0440005,0.000963316,-0.311954,0.0608177,3.11327,3.12773,1,1
18.0395,2.94283,-1.7923,-0.0464797,0.574595,-0.201717,0.0247831,0.337986,0.153616,0.0349312,-0.0487417,-0.0249637,0.0169231,0.00751321,-0.0440038,0.00101222,-0.282575,-0.0760086,3.11302,3.11232,1,1
18.1102,2.97549,-1.80708,-0.0459246,0.626607,-0.184958,0.0356318,1.69406,0.40568,-0.121918,-0.0487429,-0.024969,0.0169393,0.0074586,-0.0440112,0.00105648,-0.278133,-0.0805132,3.11278,3.11217,1,1
18.1806,3.02654,-1.81602,-0.0457607,0.692526,-0.162687,0.0272054,1.71822,0.450817,-0.13969,-0.0487444,-0.024976,0.0169604,0.00739638,-0.0440185,0.00108535,-0.300781,0.0297993,3.10903,3.11173,1,1
18.2513,3.07401,-1.82694,-0.0447422,0.715135,-0.150428,0.0290459,0.647876,0.264244,0.0107794,-0.0487458,-0.0249826,0.0169807,0.00735547,-0.0440242,0.00110148,-0.312026,0.0710057,3.1051,3.10802,1,1
18.3217,3.12721,-1.83621,-0.0441279,0.726667,-0.141968,0.0289943,0.229772,0.157216,0.0275507,-0.0487472,-0.0249907,0.0170055,0.00732901,-0.0440281,0.00113785,-0.303755,0.0301238,3.10154,3.10404,1,1
18.3924,3.17852,-1.8455,-0.0433277,0.750499,-0.131231,0.0317927,0.644763,0.217875,0.0182905,-0.0487487,-0.0249993,0.0170324,0.00729561,-0.0440328,0.00117032,-0.303935,0.0317101,3.09863,3.10032,1,1
18.4628,3.23477,-1.85286,-0.0431028,0.775857,-0.119334,0.0305591,0.630484,0.227423,0.0127563,-0.0487501,-0.025009,0.0170625,0.00725998,-0.0440382,0.00121282,-0.297551,0.00423898,3.09768,3.09745,1,1
18.5335,3.29015,-1.86001,-0.0423645,0.808949,-0.105698,0.034617,0.902428,0.271625,0.00928307,-0.0487514,-0.0250187,0.017093,0.00721683,-0.0440436,0.00127231,-0.293174,-0.00571263,3.09405,3.09672,1,1
18.6039,3.35058,-1.86506,-0.0424927,0.848247,-0.0891802,0.0323226,1.0237,0.323888,-0.0274878,-0.0487527,-0.0250293,0.0171263,0.00716921,-0.0440508,0.00133011,-0.295537,0.00870966,3.0914,3.09301,1,1
18.6746,3.41222,-1.86986,-0.0418777,0.880335,-0.0755324,0.0334401,0.86058,0.271677,-0.00294113,-0.0487537,-0.0250394,0.0171584,0.00712831,-0.0440564,0.00137368,-0.301245,0.0356532,3.08908,3.09031,1,1
18.7451,3.47742,-1.87334,-0.0417835,0.905196,-0.0628277,0.0321792,0.594958,0.240199,0.0113087,-0.0487546,-0.0250501,0.0171926,0.00709202,-0.0440613,0.00133816,-0.331168,0.119873,3.08865,3.08792,1,1
18.8158,3.54476,-1.87706,-0.0412695,0.901745,-0.0618172,0.032769,-0.237937,-7.50273e-06,0.0335045,-0.0487553,-0.0250609,0.0172276,0.0070868,-0.0440632,0.00130039,-0.336358,0.114363,3.09081,3.08733,1,1
18.8863,3.61145,-1.88112,-0.040728,0.899589,-0.0641278,0.0330347,-0.187564,-0.057323,0.0438108,-0.0487559,-0.0250722,0.0172643,0.00709378,-0.0440624,0.00132315,-0.324799,0.0812891,3.08915,3.0897,1,1
18.9569,3.67819,-1.88492,-0.0404216,0.908321,-0.0618876,0.0319803,0.135452,0.0364896,0.0217123,-0.0487565,-0.0250838,0.0173019,0.00708911,-0.0440632,0.00134626,-0.320138,0.0727436,3.08781,3.08793,1,1
19.0274,3.74548,-1.88828,-0.0402203,0.920112,-0.0575937,0.0317837,0.221009,0.0742437,0.0293331,-0.0487571,-0.0250955,0.0173399,0.00707804,-0.0440648,0.00136898,-0.319576,0.0755796,3.08583,3.08662,1,1
19.0981,3.81366,-1.89127,-0.0400718,0.930648,-0.0523757,0.0315735,0.1939,0.0903507,0.0329514,-0.0487578,-0.0251074,0.0173785,0.00706341,-0.044067,0.00133021,-0.335425,0.116661,3.08589,3.08482,1,1
19.1685,3.88241,-1.89453,-0.0397923,0.927867,-0.05375,0.0312014,-0.197462,-0.0400902,0.0256672,-0.0487586,-0.0251196,0.0174182,0.00706786,-0.0440669,0.00133855,-0.328612,0.0928131,3.08512,3.08482,1,1
19.2392,3.95113,-1.89771,-0.0396236,0.932363,-0.0530334,0.0302631,0.0203695,0.00508223,0.0225306,-0.0487595,-0.0251321,0.0174586,0.00706739,-0.044067,0.00139585,-0.313897,0.0529233,3.08363,3.08405,1,1
19.3097,4.02489,-1.89922,-0.0429905,0.955255,-0.0458518,0.0262128,0.439479,0.121914,0.0232735,-0.0487623,-0.0251649,0.0175643,0.00704901,-0.0440688,0.00145418,-0.311706,0.0576714,3.08092,3.08252,1,1
19.381,4.09734,-1.90067,-0.0443111,0.972864,-0.0369461,0.0249617,0.38496,0.155094,0.0272417,-0.0487642,-0.0251842,0.0176261,0.00702255,-0.0440718,0.00144602,-0.325887,0.098769,3.0791,3.07975,1,1
19.4515,4.16982,-1.90221,-0.0453323,0.975339,-0.0344759,0.0238596,-0.0474252,0.0327252,0.0306463,-0.0487661,-0.0252024,0.0176844,0.0070148,-0.044074,0.00137035,-0.338501,0.118343,3.08138,3.07804,1,1
19.5222,4.24221,-1.90436,-0.0461798,0.971445,-0.0381521,0.0213287,-0.234778,-0.0826995,0.00648212,-0.0487681,-0.0252198,0.0177401,0.00702614,-0.0440732,0.00129844,-0.342709,0.118195,3.08406,3.08034,1,1
19.5926,4.3133,-1.90713,-0.0469039,0.966291,-0.0440336,0.0207809,-0.237861,-0.121627,0.0280104,-0.0487703,-0.0252366,0.0177932,0.00704545,-0.0440699,0.00134493,-0.32412,0.0731414,3.08358,3.08298,1,1
19.6633,4.38422,-1.90939,-0.0477389,0.976614,-0.0407815,0.0204502,0.216668,0.0566922,0.0260658,-0.0487726,-0.0252526,0.0178436,0.00703753,-0.0440703,0.0014297,-0.314375,0.0568059,3.08028,3.0824,1,1
19.7338,4.45392,-1.91147,-0.047059,0.99179,-0.0344487,0.0208978,0.382293,0.122379,0.0139103,-0.0487732,-0.0252566,0.0178562,0.00701926,-0.0440723,0.00150759,-0.312431,0.0630324,3.07693,3.07926,1,1
19.8045,4.52472,-1.91282,-0.046304,1.00455,-0.026362,0.0228328,0.332485,0.149874,0.0289288,-0.048774,-0.0252615,0.0178716,0.0069953,-0.0440746,0.00136848,-0.343412,0.128235,3.08037,3.07582,1,1
19.8749,4.59853,-1.91446,-0.0483321,0.996493,-0.0312711,0.0218241,-0.317336,-0.113365,0.0308628,-0.0487792,-0.0252912,0.0179639,0.0070111,-0.0440728,0.00143703,-0.322226,0.0777435,3.07898,3.07914,1,1
19.9456,4.67295,-1.91542,-0.0518926,1.00617,-0.0277472,0.0185098,0.161344,0.0555832,0.0289812,-0.0487865,-0.0253304,0.0180854,0.00700382,-0.0440732,0.00134537,-0.340517,0.118398,3.08013,3.07782,1,1
20.0161,4.74571,-1.91734,-0.0532558,1.0001,-0.0321371,0.0186146,-0.229105,-0.0997367,0.0290527,-0.0487911,-0.0253539,0.0181582,0.00701767,-0.0440719,0.00125906,-0.342141,0.110879,3.08333,3.07896,1,1
20.0868,4.81947,-1.91951,-0.0578059,0.999379,-0.0375623,0.013113,-0.155652,-0.111231,0.0335112,-0.0488007,-0.0254006,0.0183016,0.00703571,-0.0440688,0.001224,-0.339703,0.105149,3.08384,3.08205,1,1
20.1573,4.89207,-1.92219,-0.0616746,0.997777,-0.0431021,0.0103714,-0.109423,-0.112272,0.0360126,-0.0488096,-0.0254419,0.0184276,0.0070552,-0.0440653,0.00123547,-0.33134,0.0917775,3.08305,3.08259,1,1
20.228,4.96475,-1.92473,-0.0669111,1.00249,-0.0435436,0.00556223,0.0282314,-0.015935,0.0340815,-0.0488208,-0.0254911,0.0185769,0.00705915,-0.0440643,0.0012439,-0.329823,0.0921659,3.08171,3.08184,1,1
20.2984,5.03722,-1.92725,-0.073155,1.0056,-0.0439223,-0.000192663,0.0250173,-0.0103574,0.0307198,-0.0488339,-0.0255464,0.0187442,0.00706173,-0.0440637,0.00100105,-0.35312,0.121306,3.09207,3.08072,1,1
20.3691,5.10839,-1.93163,-0.0788806,0.99954,-0.0551465,-0.00547805,-0.272198,-0.223852,0.0242672,-0.0488456,-0.0255942,0.0188879,0.0070994,-0.044055,0.00103192,-0.334439,0.0867662,3.09178,3.09097,1,1
20.4396,5.17892,-1.9359,-0.0823654,1.00396,-0.0584355,-0.00697447,0.0859058,-0.0584147,0.0308313,-0.0488525,-0.0256213,0.0189688,0.00711289,-0.0440516,0.00106845,-0.328563,0.0849537,3.09008,3.09066,1,1
20.5103,5.24985,-1.93989,-0.0869791,1.00883,-0.0579299,-0.00961911,0.0868827,0.0085029,0.0322361,-0.0488619,-0.025657,0.019075,0.00711319,-0.0440509,0.00089326,-0.348289,0.115421,3.0971,3.08886,1,1
20.5808,5.32016,-1.94528,-0.0876632,1.00156,-0.0675187,-0.00718912,-0.232329,-0.182983,0.0333395,-0.0488628,-0.0256605,0.0190854,0.00714492,-0.0440453,0.000932995,-0.332763,0.083464,3.09612,3.09596,1,1
20.6515,5.39052,-1.95042,-0.0899353,1.00662,-0.0693457,-0.00755084,0.110499,-0.0299747,0.0233555,-0.0488672,-0.0256764,0.0191321,0.00715342,-0.044043,0.000970616,-0.328521,0.0838884,3.09415,3.09508,1,1
20.722,5.46133,-1.9555,-0.0903505,1.0115,-0.0697481,-0.00479593,0.10617,-0.00435248,0.0390196,-0.048867,-0.0256759,0.0191305,0.00715682,-0.0440416,0.00089463,-0.337215,0.106143,3.09604,3.09307,1,1
20.7927,5.53308,-1.9611,-0.0889639,1.00896,-0.0738182,-0.000812215,-0.105547,-0.0765235,0.0302582,-0.048863,-0.0256616,0.019089,0.00717119,-0.0440398,0.000826562,-0.339106,0.105498,3.09857,3.09499,1,1
20.8632,5.60383,-1.96698,-0.089002,1.00644,-0.078201,0.000832297,-0.0986068,-0.082855,0.0241261,-0.0488634,-0.0256632,0.0190934,0.00718624,-0.0440378,0.000806913,-0.336251,0.0985989,3.09877,3.09741,1,1
20.934,5.67534,-1.97304,-0.0874816,1.00626,-0.0814744,0.0047109,-0.0406356,-0.0606817,0.0331593,-0.0488599,-0.0256511,0.0190586,0.00719838,-0.0440359,0.000788702,-0.335105,0.0976525,3.09871,3.09759,1,1
21.0045,5.7465,-1.9793,-0.0859294,1.00659,-0.0846975,0.00820356,-0.0209988,-0.0597433,0.0309963,-0.0488571,-0.0256415,0.0190307,0.00721051,-0.0440337,0.000775387,-0.333892,0.0979915,3.0984,3.09758,1,1
21.0752,5.81875,-1.98559,-0.0829175,1.0067,-0.0871972,0.0130366,-0.0337867,-0.0472849,0.0301056,-0.0488508,-0.0256205,0.0189703,0.00721967,-0.0440325,0.000712744,-0.336838,0.10195,3.10113,3.09728,1,1
21.1457,5.89039,-1.99215,-0.0800162,1.00453,-0.0909103,0.0172278,-0.0936089,-0.0738319,0.0277462,-0.0488458,-0.0256041,0.0189233,0.00723189,-0.0440307,0.000660313,-0.336764,0.0970865,3.1038,3.10001,1,1
21.2164,5.96282,-1.99912,-0.075805,1.00498,-0.0950948,0.0232982,-0.0267161,-0.0791901,0.0394583,-0.048838,-0.0255782,0.0188494,0.00724766,-0.0440277,0.000645274,-0.334847,0.0968329,3.10379,3.10261,1,1
21.2869,6.03469,-2.00615,-0.071885,1.00545,-0.0980369,0.0279812,-0.0224874,-0.057248,0.0302773,-0.048832,-0.0255587,0.0187938,0.00725846,-0.0440258,0.000572697,-0.339557,0.103451,3.1075,3.1026,1,1
21.3577,6.10655,-2.0138,-0.0682292,1.00336,-0.103024,0.0333223,-0.101032,-0.0980471,0.0506439,-0.0488278,-0.0255453,0.0187554,0.00727555,-0.0440229,0.000514497,-0.339828,0.0978152,3.11146,3.10634,1,1
21.4281,6.17741,-2.0219,-0.0648509,1.00313,-0.108424,0.0358164,-0.0321179,-0.102593,0.0205612,-0.0488254,-0.0255373,0.0187327,0.00729486,-0.0440195,0.000495674,-0.336741,0.0953457,3.11245,3.11033,1,1
21.4989,6.24831,-2.03027,-0.0618582,1.00368,-0.112361,0.0382959,-0.0178401,-0.0761212,0.0293427,-0.0488244,-0.0255342,0.018724,0.00730956,-0.0440166,0.000597373,-0.319669,0.0699825,3.10525,3.11141,1,1
21.5696,6.32048,-2.03753,-0.0578252,1.0135,-0.107923,0.0415578,0.237846,0.0851892,0.0169935,-0.0488204,-0.0255214,0.0186876,0.00729801,-0.0440181,0.000681368,-0.313255,0.0635531,3.09976,3.10427,1,1
21.6403,6.39284,-2.04398,-0.0542484,1.02491,-0.100237,0.0444777,0.303579,0.150411,0.0270901,-0.0488182,-0.0255144,0.0186678,0.00727495,-0.0440221,0.000675746,-0.324962,0.0956412,3.09817,3.09869,1,1
21.7108,6.46533,-2.05062,-0.0508871,1.02586,-0.0976053,0.0477357,-0.00783294,0.0454458,0.0431948,-0.0488178,-0.0255129,0.0186637,0.00726594,-0.044024,0.000659404,-0.329608,0.101105,3.09776,3.09709,1,1
21.7815,6.53769,-2.05756,-0.0478122,1.02481,-0.0975846,0.0494315,-0.0625972,-0.00399467,0.030468,-0.0488189,-0.0255165,0.0186739,0.00726523,-0.0440246,0.000544494,-0.342634,0.108117,3.10846,3.0966,1,1
21.852,6.6087,-2.06567,-0.0449904,1.02046,-0.104275,0.0513188,-0.136771,-0.133244,0.038228,-0.0488214,-0.0255247,0.0186972,0.00728729,-0.0440207,0.00045974,-0.343244,0.0876748,3.12041,3.10741,1,1
21.9228,6.67925,-2.07464,-0.0425301,1.02336,-0.111452,0.0520803,0.066803,-0.132339,0.0327368,-0.0488251,-0.0255369,0.0187319,0.00731484,-0.0440151,0.000571432,-0.314965,0.0374185,3.11403,3.11934,1,1
21.9933,6.75005,-2.08212,-0.0407187,1.0447,-0.105072,0.0529866,0.577766,0.130348,0.0169334,-0.0488298,-0.0255521,0.0187752,0.00730262,-0.0440146,0.000495035,-0.338865,0.112606,3.12034,3.11294,1,1
22.064,6.82255,-2.09033,-0.038772,1.03932,-0.108286,0.0540466,-0.177856,-0.0747915,0.0351086,-0.0488352,-0.0255703,0.0188271,0.00731327,-0.0440135,0.000440013,-0.337477,0.0725477,3.1326,3.11921,1,1
22.1345,6.89563,-2.099,-0.0340679,1.04764,-0.113062,0.0585215,0.217031,-0.0796536,0.0404196,-0.0488333,-0.0255637,0.0188081,0.00733401,-0.0440092,0.000400695,-0.339659,0.084503,3.13941,3.13147,1,1
22.2053,6.96794,-2.10845,-0.0313521,1.05158,-0.118524,0.0590828,0.110529,-0.0960034,0.033597,-0.0488374,-0.0255776,0.0188481,0.00735755,-0.0440051,0.000420146,-0.335305,0.10464,3.13348,3.13827,1,1
22.2758,7.04041,-2.11759,-0.0291392,1.04953,-0.121688,0.0582598,-0.0976356,-0.0617509,0.0297928,-0.0488425,-0.0255953,0.0188985,0.00736707,-0.0440041,0.000429031,-0.331408,0.0981572,3.13062,3.13239,1,1
22.3465,7.11301,-2.12669,-0.0271832,1.04854,-0.122906,0.0579238,-0.0236661,-0.024107,0.0313101,-0.0488484,-0.0256158,0.0189571,0.00737172,-0.0440037,0.000422344,-0.330629,0.0913342,3.13169,3.12953,1,1
22.417,7.18495,-2.1359,-0.0256702,1.05143,-0.123531,0.0562142,0.0345143,-0.0138299,0.0208635,-0.0488549,-0.0256387,0.0190225,0.00737581,-0.044003,0.000405459,-0.331426,0.0842388,3.13548,3.13051,1,1
22.4878,7.2571,-2.14541,-0.0244423,1.0543,-0.125166,0.0564598,0.101609,-0.0222144,0.0517979,-0.0488619,-0.0256634,0.0190933,0.0073833,-0.0440017,0.000409289,-0.331209,0.096628,3.13336,3.13446,1,1
22.5583,7.3304,-2.15447,-0.0218985,1.05474,-0.125177,0.0571276,-0.0289124,-0.00326985,0.035676,-0.0488656,-0.0256763,0.0191301,0.00738352,-0.0440018,0.000409364,-0.330967,0.0937678,3.13226,3.13221,1,1
22.629,7.40568,-2.16346,-0.0165337,1.05648,-0.125991,0.06069,-0.000302553,-0.0200425,0.0292101,-0.0488627,-0.025666,0.0191006,0.00738797,-0.0440013,0.000409929,-0.33024,0.0940574,3.13105,3.13112,1,1
22.6995,7.47921,-2.17273,-0.0133829,1.05831,-0.126838,0.0620781,0.0158858,-0.0163356,0.0405502,-0.0488656,-0.0256763,0.0191303,0.00739177,-0.0440009,0.00038234,-0.330504,0.0707167,3.13993,3.12997,1,1
22.7703,7.5533,-2.1825,-0.00915785,1.06732,-0.12883,0.0653353,0.23527,-0.0223979,0.0461836,-0.048866,-0.0256778,0.0191344,0.0074027,-0.0439984,0.000369791,-0.331636,0.0805916,-3.13928,3.1389,1,1
22.8408,7.62667,-2.19221,-0.00686413,1.07353,-0.129699,0.0641952,0.140024,-0.0135659,0.0229626,-0.0488716,-0.0256981,0.0191927,0.00740962,-0.0439972,0.000392252,-0.331443,0.114695,3.13495,-3.14038,1,1
22.9115,7.70108,-2.20152,-0.0048359,1.06757,-0.129824,0.0636212,-0.18661,-0.0140175,0.0324974,-0.048878,-0.0257214,0.0192596,0.00740975,-0.0439978,0.000504013,-0.32041,0.126883,3.1077,3.13376,1,1
22.982,7.77414,-2.20974,-0.00491909,1.0592,-0.123914,0.0600602,-0.301766,0.106287,0.0195827,-0.0488886,-0.0257601,0.0193708,0.0073834,-0.0440015,0.000566312,-0.312077,0.0768794,3.09744,3.10671,1,1
23.0528,7.84766,-2.21714,-0.00380545,1.0663,-0.114733,0.0593518,0.183597,0.176088,0.0330782,-0.0488955,-0.025785,0.0194428,0.00734977,-0.0440061,0.000542032,-0.324122,0.0962519,3.10033,3.09636,1,1
23.1234,7.92297,-2.22484,0.000380004,1.06712,-0.112707,0.0618645,-0.0137679,0.0349373,0.0359821,-0.0488957,-0.0257856,0.0194445,0.00734242,-0.0440074,0.000531886,-0.327182,0.0975277,3.10105,3.09933,1,1
23.1941,7.9981,-2.2327,0.00410317,1.06778,-0.111785,0.0637885,-0.0175502,0.014536,0.040184,-0.0488974,-0.0257919,0.0194627,0.00733933,-0.0440081,0.00052287,-0.329793,0.100877,3.10121,3.10006,1,1
23.2647,8.07175,-2.24071,0.00582879,1.0665,-0.111367,0.0622448,-0.0592669,0.00654728,0.0234394,-0.0489042,-0.025816,0.0195327,0.00733704,-0.0440086,0.000556039,-0.315727,0.0560053,3.09817,3.1001,1,1
