time,x_hat,y_hat,z_hat,Vx_hat,Vy_hat,Vz_hat,ax_hat,ay_hat,az_hat,ax_bias,ay_bias,az_bias,gx_bias,gy_bias,gz_bias,roll,pitch,yaw,est_heading,mag_correction,pr_correction,P_trace
2.3335,0,0,0.00454546,0,0,0,-5.96046e-08,-3.35276e-08,0.0407295,-0.047293,-0.01987,0.002095,0.006321,-0.0443,0.003061,-0.329249,0.0968658,3.12449,3.12449,1,1,5.11459
2.4033,-9.62943e-06,-3.19245e-05,0.00236943,0.00184176,0.000306668,0.00118914,1.19209e-07,-2.75671e-07,0.0407295,-0.047293,-0.01987,0.002095,0.00632163,-0.0443016,0.00305318,-0.339537,0.0972814,3.13622,3.12329,1,1,5.05735
2.47101,-5.19815e-05,-0.000127237,0.0016666,0.00223028,-0.00626572,0.00296965,0.00443304,-0.104223,0.0505686,-0.047293,-0.01987,0.00209501,0.00633557,-0.0443028,0.00301361,-0.337132,0.0940772,-3.14006,3.13502,1,1,5.00388
2.54128,7.43199e-05,-0.000324654,0.00136238,0.00533196,-0.00846247,0.00501345,0.0363656,-0.0711036,0.0540161,-0.047293,-0.01987,0.00209502,0.00635262,-0.0443032,0.00298094,-0.335691,0.0949047,-3.1363,-3.1413,1,1,4.9469
2.61166,0.000147951,-0.00105039,0.00122664,0.00544999,-0.0120639,0.00535725,0.000639081,-0.0598653,0.0292149,-0.047293,-0.01987,0.00209505,0.00636475,-0.0443044,0.00287799,-0.337683,0.0858842,-3.12773,-3.13754,1,1,4.87707
2.68193,0.000124154,-0.00168176,0.00119412,0.00945448,-0.0155873,0.00801144,0.0974364,-0.0785353,0.0610332,-0.047293,-0.01987,0.00209509,0.00638592,-0.0443047,0.00305947,-0.323839,0.102151,3.1415,-3.12896,1,1,4.83864
2.75234,0.000222707,-0.00290628,0.0012434,0.00646137,-0.0128461,0.00991802,-0.0629598,0.0498703,0.0488605,-0.047293,-0.01987,0.00209514,0.00637431,-0.0443027,0.00320967,-0.320623,0.100448,3.13147,3.14029,1,1,4.82707
2.82261,0.000871739,-0.00410343,0.00132002,0.00639223,-0.00787732,0.0107329,-0.0336245,0.097562,0.0339975,-0.047293,-0.0198701,0.0020952,0.00635156,-0.0443008,0.00334013,-0.321504,0.102578,3.12251,3.13027,1,1,4.86752
2.89301,0.000781489,-0.00479791,0.00145258,0.0038347,-0.00351558,0.0114339,-0.0636977,0.0803301,0.0298157,-0.047293,-0.0198701,0.00209528,0.00633214,-0.0442978,0.00322603,-0.329689,0.0909519,3.12709,3.1213,1,1,4.93956
2.96328,0.000811069,-0.00508923,0.0016479,0.00631989,-0.00375705,0.0127877,0.0482298,-0.00500869,0.0396481,-0.047293,-0.0198701,0.00209539,0.00633476,-0.0442978,0.00313251,-0.332317,0.08905,3.13125,3.12587,1,1,5.05797
3.03368,0.00140011,-0.00532315,0.00189722,0.0104873,-0.00530288,0.01418,0.0766789,-0.0308786,0.0403833,-0.0472931,-0.0198702,0.00209554,0.00634436,-0.0442992,0.00321695,-0.328283,0.0989488,3.12613,3.13002,1,1,5.20163
3.10396,0.00279273,-0.00560737,0.0021964,0.010925,-0.00453431,0.0161255,-0.0412543,0.00688754,0.0481472,-0.0472931,-0.0198703,0.00209573,0.00634296,-0.0443005,0.00275596,-0.338771,0.0405318,-3.12843,3.1249,1,1,5.38216
3.17439,0.00685428,-0.0049316,0.00243758,0.0362454,-0.0136774,0.0136652,0.549528,-0.157731,-0.0433273,-0.0472931,-0.0198703,0.00209597,0.00639188,-0.0443117,0.00243102,-0.336131,0.0457648,-3.10647,-3.12966,1,1,5.57992
3.24468,0.00464309,-0.00743026,0.00284505,0.0441154,-0.00615809,0.0301125,0.346094,0.191275,0.255403,-0.0472931,-0.0198704,0.00209628,0.0063532,-0.0443007,0.00192552,-0.36194,-0.0107412,-3.07008,-3.10767,1,1,5.8096
3.31512,0.0150435,-0.0057306,0.00387361,0.0962027,-0.0277275,0.0244054,1.102,-0.321631,-0.179949,-0.0472932,-0.0198706,0.00209675,0.00646586,-0.0443292,0.00165977,-0.340442,0.0420007,-3.04943,-3.07135,1,1,6.05452
3.38539,0.0157633,-0.00839236,0.00397503,0.115222,-0.0440577,0.0135333,0.671281,-0.242419,-0.113163,-0.0472932,-0.0198708,0.0020973,0.00654852,-0.0443427,0.00142996,-0.326525,0.0687712,-3.03509,-3.05046,1,1,6.33014
3.45581,0.0250734,-0.0117856,0.00432594,0.116525,-0.0270661,0.0362513,-0.0076381,0.310747,0.337832,-0.0472933,-0.019871,0.00209796,0.00647065,-0.0443171,0.00128349,-0.351994,0.0516053,-3.02713,-3.03614,1,1,6.62305
3.52609,0.0262736,-0.0147549,0.00489301,0.137778,-0.0432183,0.0190473,0.650442,-0.227013,-0.247158,-0.0472933,-0.0198713,0.00209879,0.00654117,-0.0443392,0.00077371,-0.350902,0.04283,-2.99757,-3.02836,1,1,6.94051
3.59651,0.040863,-0.0166748,0.00523038,0.164853,-0.0534856,0.019914,0.558583,-0.142987,0.0206165,-0.0472934,-0.0198717,0.00209977,0.00659202,-0.0443543,0.00157407,-0.297536,0.140791,-3.0333,-2.99874,1,1,7.28042
3.66678,0.0579699,-0.0196545,0.00556941,0.150797,-0.038893,0.0228233,-0.462938,0.262378,0.0263424,-0.0472935,-0.0198721,0.00210093,0.00653052,-0.0443356,0.00213797,-0.298843,0.13514,-3.05916,-3.03426,1,1,7.6426
3.73722,0.0640796,-0.0234967,0.00575468,0.130793,-0.0238761,0.0234845,-0.420383,0.261397,0.0357943,-0.0472936,-0.0198725,0.00210224,0.0064741,-0.0443155,0.00257648,-0.303185,0.128103,-3.0815,-3.06032,1,1,8.02477
3.80749,0.0759262,-0.0252219,0.00635672,0.123839,-0.00493664,0.0320034,-0.209872,0.355688,0.12558,-0.0472937,-0.0198731,0.00210382,0.00639177,-0.044282,0.00129811,-0.383379,0.00145376,-3.02961,-3.0828,1,1,8.42717
3.87792,0.0934357,-0.0243802,0.00796847,0.180514,-0.027979,0.0433087,1.09734,-0.287274,0.0526466,-0.0472939,-0.0198738,0.00210599,0.00646546,-0.0442774,0.000208241,-0.387972,0.0156909,-2.97748,-3.03103,1,1,8.85034
3.94821,0.0973775,-0.0275021,0.00877499,0.225135,-0.0534062,0.0389024,1.09632,-0.380818,-0.0291491,-0.0472941,-0.0198747,0.00210859,0.00657044,-0.0442986,0.000134326,-0.342135,0.0914462,-2.97348,-2.97877,1,1,9.2945
4.01863,0.114439,-0.0312101,0.00999159,0.237652,-0.05696,0.0419074,0.243341,-0.0452237,0.0601816,-0.0472943,-0.0198758,0.00211181,0.00659051,-0.0442951,0.000243327,-0.329537,0.113517,-2.97758,-2.97451,1,1,9.75967
4.08891,0.131351,-0.03525,0.0111615,0.23756,-0.0550589,0.0436884,-0.0189871,0.0293278,0.0471821,-0.0472946,-0.0198772,0.0021157,0.00658612,-0.0442934,0.00033774,-0.328978,0.116168,-2.98169,-2.97844,1,1,10.2445
4.15935,0.147667,-0.0392162,0.0123035,0.23502,-0.0529863,0.0451388,-0.0651375,0.0274889,0.0447683,-0.0472949,-0.0198788,0.00212034,0.00658136,-0.0442963,0.000172093,-0.339725,0.106583,-2.97745,-2.98287,1,1,10.7504
4.22963,0.164178,-0.0428836,0.0135651,0.234816,-0.0570333,0.0480539,-0.0248505,-0.0829356,0.0654011,-0.0472954,-0.0198807,0.00212586,0.00660697,-0.0443135,-0.000163559,-0.348672,0.0936273,-2.96746,-2.97855,1,1,11.2755
4.30006,0.181176,-0.0467248,0.0149425,0.238674,-0.0667956,0.0491131,0.0547761,-0.183706,0.0378704,-0.0472959,-0.019883,0.00213239,0.00665968,-0.044341,0.00119512,-0.294631,0.114765,-3.00915,-2.96836,1,1,11.8222
4.37048,0.19878,-0.0516561,0.0160065,0.227947,-0.0498851,0.0491191,-0.237202,0.316601,0.0119753,-0.0472965,-0.0198856,0.00213991,0.00658763,-0.0443113,0.00226961,-0.284934,0.116424,-3.04327,-3.01019,1,1,12.3893
4.44091,0.213677,-0.0556259,0.016837,0.215656,-0.0273447,0.0500786,-0.243963,0.409563,0.0376081,-0.0472972,-0.0198886,0.00214837,0.00648836,-0.0442793,0.00340002,-0.2785,0.119694,-3.0812,-3.04421,1,1,12.9765
4.51121,0.229303,-0.0581192,0.017805,0.203964,-0.00227823,0.0512526,-0.243053,0.483569,0.0267677,-0.047298,-0.0198919,0.00215795,0.00637979,-0.0442393,0.00449493,-0.279713,0.116064,-3.11637,-3.08224,1,1,13.583
4.58164,0.242616,-0.0588196,0.0185649,0.193432,0.0236455,0.0502872,-0.197804,0.486169,0.00780869,-0.0472989,-0.0198956,0.00216861,0.00626276,-0.0442107,0.00530499,-0.287333,0.111932,3.13868,-3.11751,1,1,14.2108
4.65194,0.256255,-0.0577324,0.0194955,0.185167,0.0446319,0.0524521,-0.168278,0.405668,0.0478029,-0.0472999,-0.0198998,0.00218053,0.00617159,-0.044188,0.00573097,-0.300442,0.103568,3.12292,3.13751,1,1,14.8576
4.72238,0.268735,-0.054932,0.0204736,0.180861,0.0596864,0.053803,-0.0812426,0.281001,0.0438061,-0.0473011,-0.0199043,0.00219385,0.00610302,-0.0441773,0.00598633,-0.31055,0.100177,3.1125,3.12161,1,1,15.526
4.79267,0.281331,-0.0510182,0.0215523,0.179171,0.0695613,0.0541601,-0.0360002,0.187506,0.0283928,-0.0473024,-0.0199094,0.00220874,0.00605957,-0.0441699,0.00616555,-0.317217,0.0989655,3.10504,3.11117,1,1,16.2132
4.86312,0.293713,-0.0462769,0.0226383,0.178148,0.0759472,0.055135,-0.0262312,0.118999,0.0388937,-0.047304,-0.0199151,0.00222532,0.00603096,-0.0441676,0.006615,-0.312284,0.0967527,3.09067,3.10361,1,1,16.9221
4.93343,0.30602,-0.0411788,0.0237046,0.177842,0.0848103,0.0561431,-0.000224352,0.166547,0.0382214,-0.0473057,-0.0199213,0.0022437,0.00599085,-0.0441616,0.00667156,-0.320446,0.0968272,3.08695,3.08936,1,1,17.6499
5.00387,0.318343,-0.0353509,0.0248522,0.178659,0.0897901,0.0581377,0.014197,0.0920103,0.0537424,-0.0473076,-0.0199281,0.00226405,0.00596808,-0.0441591,0.00670028,-0.325106,0.098332,3.08427,3.08553,1,1,18.3993
5.07418,0.330863,-0.0291351,0.0260581,0.178053,0.0922976,0.0584102,-0.0308406,0.045654,0.0290632,-0.0473097,-0.0199357,0.00228656,0.00595789,-0.0441598,0.00678858,-0.324853,0.0946707,3.08023,3.08272,1,1,19.1674
5.14463,0.343291,-0.0227062,0.0272079,0.179262,0.0947837,0.0587054,0.0153903,0.0454299,0.0300303,-0.0473121,-0.019944,0.00231133,0.0059474,-0.0441593,0.00636751,-0.338154,0.0977425,3.09063,3.07884,1,1,19.9573
5.21492,0.356004,-0.0160067,0.0284395,0.179473,0.0904682,0.0596262,-0.0329106,-0.0857434,0.0381575,-0.0473147,-0.0199531,0.00233854,0.00596795,-0.0441626,0.00654935,-0.326238,0.0903144,3.0852,3.08922,1,1,20.7655
5.28537,0.368506,-0.0097097,0.0295707,0.182202,0.0923877,0.0608063,0.0564036,0.035873,0.0425053,-0.0473176,-0.019963,0.00236827,0.00596059,-0.04416,0.00670221,-0.323624,0.0904274,3.07996,3.08379,1,1,21.5956
5.35568,0.381162,-0.0032826,0.0306833,0.184936,0.0951584,0.0616578,0.0567743,0.0517547,0.0391788,-0.0473208,-0.0199737,0.00240061,0.00594931,-0.0441582,0.0066078,-0.330552,0.0981522,3.08071,3.07848,1,1,22.4444
5.42615,0.394187,0.00341613,0.0318667,0.185486,0.0946675,0.0625873,-0.0134216,-0.0119791,0.0403891,-0.0473243,-0.0199855,0.00243579,0.00595207,-0.0441599,0.00648637,-0.333456,0.0998482,3.08277,3.07934,1,1,23.3156
5.49649,0.407294,0.0100637,0.0330814,0.1851,0.0928668,0.0634699,-0.0416725,-0.0388625,0.0392427,-0.047328,-0.0199982,0.00247398,0.00596052,-0.0441623,0.00638252,-0.33402,0.0986946,3.08451,3.08132,1,1,24.2051
5.56697,0.420377,0.016626,0.0342748,0.185249,0.0912408,0.0644842,-0.0303578,-0.0356507,0.0424786,-0.0473321,-0.0200119,0.00251532,0.00596773,-0.0441648,0.00611783,-0.34119,0.102886,3.09058,3.08303,1,1,25.1169
5.63727,0.43356,0.023097,0.0355306,0.18402,0.0859428,0.0646825,-0.0739158,-0.110096,0.0290098,-0.0473366,-0.0200268,0.00256001,0.00599012,-0.0441693,0.00628737,-0.326051,0.0884743,3.08573,3.0892,1,1,26.0463
5.70774,0.446389,0.0290988,0.0366134,0.187475,0.0873858,0.0654835,0.0743421,0.0272516,0.0389576,-0.0473414,-0.0200428,0.002608,0.00598646,-0.0441673,0.0064264,-0.322619,0.0882391,3.08076,3.08434,1,1,26.9981
5.77806,0.459423,0.0351676,0.0376581,0.190714,0.0903247,0.0667252,0.0678781,0.0578083,0.0472908,-0.0473465,-0.0200599,0.00265934,0.00597538,-0.0441655,0.00645361,-0.326019,0.0937461,3.07831,3.07938,1,1,27.968
5.84851,0.47279,0.0414668,0.0387411,0.191628,0.0926735,0.0668501,0.00425833,0.0441627,0.030982,-0.047352,-0.0200782,0.00271425,0.0059663,-0.0441654,0.00625205,-0.337627,0.102638,3.0823,3.07697,1,1,28.9605
5.91883,0.486353,0.0480279,0.0398949,0.190345,0.0892548,0.0669578,-0.0703509,-0.0747876,0.0291586,-0.0473579,-0.0200978,0.00277293,0.00598044,-0.0441685,0.00607742,-0.339301,0.102127,3.08632,3.08068,1,1,29.9712
5.98929,0.499911,0.0543442,0.0409936,0.189059,0.0855346,0.0685207,-0.0777755,-0.0788399,0.0533466,-0.0473642,-0.0201187,0.00283545,0.00599416,-0.0441721,0.00614139,-0.329369,0.0900737,3.08409,3.08493,1,1,31.0039
6.0596,0.513132,0.0603366,0.0420625,0.191719,0.0852344,0.069686,0.0458058,-0.00705262,0.0473442,-0.0473709,-0.0201409,0.00290188,0.00599675,-0.0441718,0.00630823,-0.320523,0.0820398,3.07883,3.08268,1,1,32.0539
6.13006,0.526349,0.0662431,0.0431112,0.197313,0.0899293,0.0714007,0.140898,0.0927295,0.0533409,-0.047378,-0.0201644,0.00297232,0.00598066,-0.0441682,0.00624063,-0.332286,0.100498,3.07839,3.07734,1,1,33.1273
6.20037,0.540252,0.0725577,0.0442814,0.196293,0.0893173,0.0721493,-0.0571632,-0.0167407,0.0409298,-0.0473855,-0.0201895,0.00304707,0.00598294,-0.0441702,0.00616927,-0.333922,0.0995521,3.07885,3.07672,1,1,34.2185
6.27084,0.554176,0.0788498,0.0454347,0.195785,0.0871302,0.0730983,-0.0502685,-0.0460242,0.0469923,-0.0473935,-0.020216,0.00312624,0.00599114,-0.0441724,0.0060975,-0.333856,0.0994707,3.07965,3.07728,1,1,35.3327
6.34117,0.56796,0.0849872,0.0465883,0.195435,0.0856517,0.0737841,-0.0380601,-0.0334172,0.0417681,-0.047402,-0.0202441,0.00320993,0.00599705,-0.0441742,0.00600749,-0.335962,0.101995,3.08092,3.07824,1,1,36.4645
6.41163,0.581861,0.091028,0.0477175,0.194477,0.0825366,0.074717,-0.0654814,-0.0652479,0.0475731,-0.0474109,-0.0202737,0.00329823,0.0060086,-0.0441768,0.00592667,-0.335241,0.101584,3.08223,3.07949,1,1,37.6192
6.48238,0.595657,0.0968977,0.0489084,0.193398,0.0798481,0.0757495,-0.0609333,-0.058511,0.0475521,-0.0474203,-0.020305,0.0033914,0.00601916,-0.0441794,0.0058358,-0.335784,0.102588,3.08379,3.08091,1,1,38.7988
6.55286,0.609424,0.102525,0.0500192,0.192192,0.0768268,0.0765982,-0.0710235,-0.0633547,0.0473566,-0.0474303,-0.020338,0.00348934,0.00603025,-0.0441822,0.00575426,-0.335309,0.101963,3.08529,3.08249,1,1,39.9945
6.62317,0.622969,0.107953,0.0511243,0.191051,0.0747191,0.0770418,-0.0631804,-0.0464763,0.0412016,-0.0474407,-0.0203726,0.0035921,0.00603804,-0.0441846,0.00567882,-0.335623,0.101597,3.08627,3.08375,1,1,41.2075
6.69365,0.636541,0.113213,0.0521578,0.190174,0.0723983,0.0773702,-0.0596957,-0.0498106,0.0410976,-0.0474516,-0.0204088,0.00369964,0.00604699,-0.0441868,0.00538784,-0.346194,0.109614,3.09524,3.08484,1,1,42.4449
6.76398,0.650019,0.11844,0.0533166,0.185842,0.0648995,0.0781925,-0.154003,-0.162528,0.0439939,-0.0474631,-0.0204468,0.00381228,0.00607612,-0.0441918,0.00528397,-0.339283,0.0994638,3.0985,3.09372,1,1,43.6997
6.83445,0.663223,0.123019,0.0543171,0.185713,0.0605463,0.0789724,-0.0406902,-0.0905766,0.0500889,-0.0474751,-0.0204865,0.00392976,0.00609369,-0.0441949,0.00519768,-0.337854,0.101186,3.10044,3.09698,1,1,44.9775
6.90478,0.676291,0.127329,0.0553147,0.184788,0.0572418,0.0792686,-0.0558291,-0.072674,0.0406208,-0.0474876,-0.0205279,0.00405212,0.00610742,-0.0441975,0.00519577,-0.332579,0.095499,3.09965,3.09898,1,1,46.273
6.97524,0.689329,0.131356,0.0561587,0.185659,0.0559055,0.0783933,-0.0067628,-0.029113,0.0272779,-0.0475006,-0.020571,0.00417907,0.00611344,-0.0441986,0.00534792,-0.320763,0.0782459,3.09406,3.09819,1,1,47.591
7.04558,0.702192,0.135174,0.0568033,0.193123,0.0591779,0.0795908,0.185365,0.068158,0.0553856,-0.0475141,-0.0206154,0.00431015,0.00610374,-0.0441951,0.00551289,-0.316249,0.0758529,3.08806,3.09271,1,1,48.9256
7.11606,0.715429,0.139307,0.0575207,0.200601,0.0649975,0.0800349,0.192719,0.11418,0.0433435,-0.047528,-0.0206614,0.00444557,0.00608264,-0.0441914,0.00564308,-0.316843,0.0774713,3.08267,3.0868,1,1,50.2839
7.1864,0.729337,0.143763,0.0581076,0.208504,0.0700065,0.0795868,0.197564,0.10065,0.032527,-0.0475423,-0.0207088,0.004585,0.00606503,-0.0441877,0.00578716,-0.316358,0.0787989,3.07695,3.0814,1,1,51.6592
7.25688,0.74367,0.148666,0.0594893,0.215726,0.0758056,0.0798409,0.185775,0.114602,0.0356712,-0.0475547,-0.0207499,0.00470595,0.00604379,-0.0441851,0.00577534,-0.327385,0.0988141,3.07501,3.07557,1,1,53.0585
7.32722,0.758827,0.153962,0.0608796,0.21574,0.0768227,0.0806487,-0.0289959,0.0170323,0.0463629,-0.0475677,-0.020793,0.00483249,0.00603947,-0.0441859,0.00575339,-0.329503,0.098952,3.07406,3.07351,1,1,54.475
7.3977,0.77406,0.159357,0.0629664,0.21583,0.0761162,0.0799818,-0.0300758,-0.016177,0.0209637,-0.0475788,-0.02083,0.00494117,0.00604204,-0.0441869,0.00567528,-0.333561,0.105587,3.07509,3.07269,1,1,55.9154
7.46803,0.78929,0.164731,0.0649339,0.213011,0.0746505,0.0804294,-0.108327,-0.0351301,0.03514,-0.0475906,-0.0208693,0.00505665,0.00604608,-0.044189,0.00559403,-0.335446,0.104829,3.07616,3.07351,1,1,57.373
7.53852,0.804428,0.169962,0.0675122,0.211025,0.0727377,0.0806279,-0.0906488,-0.042153,0.0299292,-0.0476006,-0.0209026,0.00515454,0.00605189,-0.044191,0.00552114,-0.336934,0.10561,3.07724,3.0748,1,1,58.8542
7.60887,0.819317,0.17512,0.0699886,0.208177,0.0697085,0.0813125,-0.11058,-0.0683409,0.0347137,-0.0476114,-0.0209387,0.00526042,0.00606218,-0.0441937,0.00552516,-0.330115,0.0941123,3.07643,3.0758,1,1,60.352
7.67939,0.833964,0.180003,0.0722385,0.209422,0.0691887,0.0823603,0.00554341,-0.0121065,0.0448713,-0.047623,-0.0209773,0.00537383,0.00606458,-0.0441941,0.00536871,-0.34095,0.112477,3.07991,3.07497,1,1,61.8754
7.74976,0.848788,0.184931,0.0737922,0.204245,0.0647257,0.0842167,-0.172652,-0.101485,0.0563173,-0.0476379,-0.0210272,0.00552016,0.00607937,-0.0441972,0.00545507,-0.324357,0.084182,3.07742,3.07859,1,1,63.4154
7.82027,0.862956,0.189488,0.0735237,0.209624,0.0669042,0.0828019,0.12873,0.0429811,0.0267448,-0.0476586,-0.0210963,0.00572271,0.00607451,-0.0441953,0.00552946,-0.322512,0.0845941,3.07395,3.07611,1,1,64.9777
7.89061,0.877554,0.194095,0.0739181,0.21461,0.0698533,0.0834418,0.113452,0.0616583,0.0571346,-0.0476768,-0.0211571,0.00590089,0.00606552,-0.0441937,0.0055574,-0.326019,0.0917062,3.07155,3.07267,1,1,66.5569
7.96112,0.892586,0.198998,0.0736044,0.217053,0.0708715,0.0821235,0.0426039,0.0192606,0.0324068,-0.047698,-0.0212279,0.00610843,0.00606256,-0.0441934,0.00559643,-0.32432,0.0897812,3.06918,3.07022,1,1,68.1607
8.03145,0.907738,0.20392,0.0739375,0.220621,0.0730211,0.0814061,0.0730876,0.0431411,0.036109,-0.0477166,-0.0212901,0.00629064,0.00605599,-0.0441924,0.0056264,-0.325834,0.0928388,3.06684,3.06785,1,1,69.7808
8.10195,0.923183,0.209031,0.0735089,0.223043,0.0744661,0.0809992,0.0409375,0.0272955,0.045577,-0.0477382,-0.0213624,0.00650231,0.0060515,-0.0441922,0.00566223,-0.325066,0.0915987,3.06453,3.06554,1,1,71.4259
8.17229,0.938791,0.214218,0.0722264,0.225256,0.0764374,0.0792637,0.0350205,0.0384269,0.0340042,-0.0477626,-0.0214441,0.00674135,0.00604489,-0.0441921,0.00569783,-0.324989,0.089941,3.06225,3.06321,1,1,73.0868
8.2428,0.954501,0.219596,0.0717448,0.229019,0.0783948,0.0776705,0.082319,0.0385481,0.0269375,-0.047784,-0.021516,0.00695187,0.00603874,-0.044191,0.00572204,-0.326738,0.09443,3.06004,3.06088,1,1,74.7728
8.31313,0.970544,0.22507,0.0704054,0.230514,0.0796436,0.0760802,0.0159946,0.0233922,0.0345755,-0.0478083,-0.0215972,0.00718985,0.0060344,-0.0441913,0.00575903,-0.32535,0.0912007,3.05784,3.05875,1,1,76.475
8.38364,0.98667,0.230665,0.0682726,0.233137,0.0815721,0.0734607,0.0499943,0.0373652,0.0247478,-0.047835,-0.0216872,0.00745331,0.00602782,-0.0441909,0.00558994,-0.341805,0.115057,3.06064,3.05661,1,1,78.2034
8.45399,1.00325,0.236435,0.0656175,0.226898,0.0765401,0.0721586,-0.209497,-0.109792,0.0397148,-0.0478642,-0.0217854,0.0077409,0.0060441,-0.044196,0.00543157,-0.342128,0.11086,3.06452,3.05924,1,1,79.9485
8.52449,1.01953,0.241774,0.0628762,0.223012,0.0710799,0.0694902,-0.15688,-0.11444,0.0318632,-0.0478928,-0.0218816,0.00802235,0.00606211,-0.0442004,0.00550996,-0.325447,0.0866663,3.06242,3.06319,1,1,81.7179
8.59483,1.03507,0.246721,0.0600681,0.227602,0.0725141,0.0673398,0.103054,0.0292105,0.0338602,-0.0479207,-0.0219755,0.00829717,0.00605949,-0.0441985,0.00570827,-0.312129,0.0690027,3.05702,3.06113,1,1,83.5025
8.66536,1.05059,0.251835,0.0565925,0.23723,0.0795823,0.0657007,0.266754,0.142653,0.0370121,-0.0479508,-0.0220768,0.00859389,0.00603739,-0.0441918,0.00558275,-0.336425,0.107563,3.05775,3.0558,1,1,85.3137
8.73569,1.06737,0.257429,0.0534418,0.233679,0.0769901,0.0636586,-0.130593,-0.0595695,0.0308743,-0.0479801,-0.0221755,0.00888271,0.00604591,-0.0441953,0.00546191,-0.338286,0.10579,3.0601,3.05625,1,1,87.1413
8.80621,1.08405,0.2628,0.0502895,0.231897,0.0731396,0.0611484,-0.0947092,-0.0810865,0.0327396,-0.0480086,-0.0222715,0.00916349,0.00605892,-0.0441987,0.00529148,-0.343436,0.11289,3.06378,3.05866,1,1,88.9945
8.87655,1.10055,0.267973,0.0474284,0.226863,0.0675373,0.0589048,-0.176517,-0.122259,0.020504,-0.0480363,-0.0223649,0.00943687,0.00607743,-0.0442041,0.00525085,-0.334605,0.099924,3.06446,3.06223,1,1,90.8631
8.94707,1.11665,0.272674,0.0444389,0.226629,0.0650396,0.0573429,-0.0451438,-0.0524229,0.0411558,-0.0480632,-0.0224556,0.00970233,0.00608638,-0.0442063,0.00521481,-0.332719,0.0992747,3.06448,3.06309,1,1,92.7575
9.01743,1.13261,0.277223,0.040839,0.226363,0.0636672,0.055148,-0.0361627,-0.0312912,0.03158,-0.0480923,-0.0225538,0.00998932,0.00609174,-0.0442082,0.00527363,-0.325513,0.0899806,3.06213,3.06306,1,1,94.6679
9.08794,1.14839,0.281689,0.0372895,0.229695,0.0659473,0.0527125,0.0720426,0.0436996,0.0258007,-0.0481205,-0.0226486,0.0102664,0.00608464,-0.0442068,0.0050881,-0.342198,0.11318,3.06527,3.06077,1,1,96.6042
9.1583,1.16473,0.286339,0.0340885,0.2249,0.0615072,0.0502457,-0.166681,-0.0982767,0.0145493,-0.0481477,-0.0227404,0.0105346,0.00610091,-0.0442123,0.00491518,-0.343247,0.109491,3.06943,3.06378,1,1,98.5571
9.22882,1.18095,0.290559,0.0299704,0.221393,0.055145,0.0479043,-0.154791,-0.129647,0.0372124,-0.0481771,-0.022839,0.0108227,0.00612346,-0.0442177,0.00494092,-0.329959,0.0917824,3.0687,3.06807,1,1,100.535
9.29917,1.19647,0.29438,0.0244686,0.22386,0.0545399,0.0454399,0.0383689,-0.0130137,0.0398445,-0.0482113,-0.0229541,0.0111586,0.00612736,-0.0442176,0.00500828,-0.325479,0.0896037,3.06591,3.06744,1,1,102.529
9.36969,1.21212,0.298191,0.0184157,0.226647,0.0562582,0.0420657,0.0542102,0.0329333,0.0289927,-0.0482471,-0.0230741,0.0115086,0.00612165,-0.0442169,0.00505678,-0.325152,0.0903295,3.06325,3.06468,1,1,104.548
9.44006,1.22795,0.302087,0.0117958,0.229506,0.0579217,0.0391171,0.0562547,0.0326438,0.0389833,-0.0482841,-0.0231982,0.0118708,0.00611625,-0.044216,0.00505072,-0.328553,0.0964419,3.06184,3.06195,1,1,106.584
9.51058,1.24409,0.306107,0.00556045,0.230696,0.058175,0.0365709,0.00354916,0.00332908,0.0397739,-0.0483192,-0.023316,0.012214,0.00611572,-0.0442167,0.0048747,-0.3404,0.111595,3.06475,3.06028,1,1,108.646
9.58093,1.26052,0.310144,-0.000908349,0.226522,0.0527655,0.0345225,-0.155768,-0.113683,0.0437365,-0.0483556,-0.0234381,0.0125699,0.00613612,-0.0442227,0.00476293,-0.337234,0.105949,3.06724,3.06347,1,1,110.724
9.65146,1.27671,0.313768,-0.00727366,0.224751,0.0496216,0.0299184,-0.0924101,-0.0648826,0.0101309,-0.04839,-0.0235535,0.0129061,0.00614832,-0.0442265,0.00466548,-0.337575,0.105584,3.06895,3.06585,1,1,112.827
9.72181,1.29263,0.317217,-0.0125091,0.222451,0.0467459,0.0272071,-0.099773,-0.0616974,0.0214024,-0.0484195,-0.0236521,0.0131933,0.00615948,-0.0442309,0.00483355,-0.32143,0.0809757,3.06439,3.06763,1,1,114.946
9.79235,1.30795,0.320527,-0.0184499,0.228421,0.0507421,0.0243549,0.153361,0.0776307,0.0202942,-0.0484505,-0.0237556,0.0134947,0.00614638,-0.0442269,0.00478479,-0.332022,0.0999182,3.06363,3.06301,1,1,117.092
9.86274,1.32404,0.324049,-0.0240103,0.228297,0.0496529,0.0221656,-0.0320386,-0.024725,0.0285482,-0.0484797,-0.0238532,0.0137786,0.00615105,-0.0442287,0.00473272,-0.332732,0.100859,3.064,3.06239,1,1,119.255
9.93329,1.34023,0.327458,-0.0293128,0.227642,0.0480487,0.0205118,-0.0529103,-0.0333579,0.0365896,-0.0485072,-0.0239451,0.0140458,0.00615675,-0.044231,0.00480411,-0.324255,0.0885959,3.06135,3.06258,1,1,121.443
10.0037,1.35606,0.33078,-0.0351741,0.231451,0.0504939,0.0189808,0.0844281,0.048588,0.0402031,-0.0485362,-0.0240419,0.0143274,0.00614845,-0.044229,0.00503089,-0.314492,0.0757807,3.05465,3.0601,1,1,123.647
10.0742,1.37187,0.334395,-0.0406259,0.238806,0.0568948,0.0177082,0.198418,0.124644,0.032464,-0.0485635,-0.0241328,0.0145916,0.00612659,-0.0442246,0.0052079,-0.314196,0.0768084,3.04832,3.0534,1,1,125.876
10.1446,1.38822,0.338381,-0.0459831,0.246763,0.0643353,0.0153658,0.212581,0.150358,0.0210619,-0.0485889,-0.0242177,0.0148385,0.00609931,-0.0442188,0.00494623,-0.343997,0.114631,3.05248,3.04712,1,1,128.122
10.2151,1.40602,0.342737,-0.0507326,0.24137,0.0581125,0.0145175,-0.19804,-0.130654,0.0328026,-0.0486128,-0.0242974,0.0150703,0.00612217,-0.0442238,0.00458016,-0.354543,0.118689,3.06235,3.05106,1,1,130.395
10.2855,1.42353,0.346734,-0.0549112,0.23427,0.047194,0.0128714,-0.252997,-0.228309,0.0191374,-0.0486353,-0.0243724,0.0152885,0.00616066,-0.0442341,0.00424202,-0.355021,0.115486,3.07195,3.06098,1,1,132.682
10.3561,1.44073,0.349811,-0.0598006,0.228724,0.0360958,0.0119937,-0.220759,-0.231587,0.0322533,-0.0486596,-0.0244536,0.0155244,0.00620239,-0.044242,0.00411307,-0.343616,0.102467,3.07606,3.0705,1,1,134.997
10.4264,1.45705,0.352247,-0.0643756,0.226906,0.0299037,0.0110949,-0.0947625,-0.128675,0.0349636,-0.0486824,-0.0245297,0.0157454,0.00622526,-0.0442471,0.00382457,-0.349437,0.109484,3.08389,3.07459,1,1,137.327
10.497,1.47355,0.354145,-0.0686253,0.223652,0.0207598,0.0106376,-0.146224,-0.192936,0.0317211,-0.0487038,-0.024601,0.0159526,0.00626162,-0.0442527,0.00384414,-0.333147,0.0934004,3.08361,3.08251,1,1,139.684
10.5673,1.48929,0.355524,-0.0727269,0.225697,0.0188259,0.00944729,0.0218968,-0.0394875,0.0249529,-0.0487238,-0.0246678,0.0161463,0.00627035,-0.0442538,0.0038637,-0.32959,0.0938294,3.08213,3.08236,1,1,142.056
10.6379,1.50515,0.356794,-0.0766027,0.227448,0.0186827,0.00850836,0.0196876,-0.00450838,0.0248308,-0.0487426,-0.0247302,0.0163273,0.00627206,-0.0442542,0.00368256,-0.339328,0.105807,3.08637,3.08093,1,1,144.456
10.7082,1.5213,0.357968,-0.0801492,0.225106,0.0140212,0.00826748,-0.104292,-0.0963828,0.0330553,-0.0487602,-0.0247887,0.0164966,0.00629109,-0.0442584,0.00378495,-0.326126,0.0888616,3.08291,3.08506,1,1,146.871
10.7793,1.53714,0.358916,-0.0819189,0.228508,0.0150882,0.00991836,0.068399,0.0201856,0.0430632,-0.0487701,-0.0248217,0.0165922,0.00628883,-0.0442573,0.0038686,-0.323735,0.0893705,3.07916,3.08161,1,1,149.332
10.8497,1.55303,0.359983,-0.0842907,0.231377,0.0176657,0.00974802,0.0570861,0.05052,0.0231295,-0.0487828,-0.0248638,0.0167141,0.00627911,-0.0442564,0.0038076,-0.331175,0.0991778,3.07944,3.078,1,1,151.789
10.9202,1.56936,0.3612,-0.0848508,0.231289,0.0176375,0.0102673,-0.0323822,-0.00413814,0.0180016,-0.0487882,-0.0248817,0.0167659,0.00627936,-0.0442579,0.0037378,-0.334235,0.100786,3.08029,3.07812,1,1,154.274
10.9906,1.58568,0.362354,-0.0860726,0.230166,0.0154024,0.0113519,-0.0624626,-0.0483485,0.0323458,-0.0487967,-0.0249101,0.0168478,0.00628796,-0.04426,0.00367448,-0.333674,0.0992133,3.08144,3.07912,1,1,156.773
11.0612,1.60202,0.363372,-0.0863217,0.229778,0.0133906,0.0129591,-0.0466263,-0.0438642,0.0323677,-0.0488016,-0.0249263,0.0168947,0.00629565,-0.044262,0.00358398,-0.33576,0.102136,3.08302,3.08017,1,1,159.301
11.1315,1.61823,0.364235,-0.0856481,0.228189,0.0114118,0.0155023,-0.076021,-0.043767,0.0385838,-0.0488032,-0.0249315,0.0169097,0.00630307,-0.0442645,0.00336127,-0.345029,0.109578,3.08898,3.08171,1,1,161.843
11.2021,1.63481,0.364889,-0.08399,0.224453,0.00450443,0.0173869,-0.152683,-0.146632,0.0208092,-0.0488018,-0.0249268,0.016896,0.00633039,-0.0442696,0.00317091,-0.344111,0.104911,3.09515,3.08759,1,1,164.415
11.2725,1.65082,0.365022,-0.0815884,0.222673,-0.00235976,0.019648,-0.0856722,-0.141648,0.0236225,-0.0487976,-0.0249129,0.016856,0.0063584,-0.0442736,0.00324998,-0.328479,0.0879457,3.09282,3.09387,1,1,166.999
11.343,1.66645,0.364818,-0.0793378,0.225345,-0.00216031,0.0222843,0.0472168,0.00201356,0.0305805,-0.0487942,-0.0249017,0.0168237,0.0063598,-0.0442733,0.0034455,-0.317433,0.0732125,3.08593,3.09159,1,1,169.612
11.4134,1.682,0.364759,-0.0772353,0.234766,0.00300999,0.0238486,0.239614,0.105617,0.012187,-0.0487916,-0.024893,0.0167986,0.00634269,-0.0442695,0.00358347,-0.318096,0.0808877,3.08019,3.08462,1,1,172.238
11.484,1.69808,0.365085,-0.0759741,0.240384,0.00855361,0.0253621,0.144037,0.110043,0.0247593,-0.048793,-0.0248979,0.0168126,0.00632094,-0.0442663,0.00369558,-0.319383,0.0817847,3.07534,3.07894,1,1,174.893
11.5544,1.71475,0.365761,-0.0738593,0.246369,0.0128146,0.0279978,0.14351,0.0841177,0.0321589,-0.0487916,-0.0248932,0.0167992,0.00630588,-0.0442641,0.00375279,-0.32293,0.0891718,3.07209,3.07418,1,1,177.563
11.6249,1.7319,0.366712,-0.0725174,0.249004,0.0156706,0.0298036,0.0489407,0.0554164,0.0314083,-0.0487944,-0.0249022,0.0168252,0.00629432,-0.0442637,0.00359125,-0.337861,0.108998,3.07544,3.07097,1,1,180.262
11.6953,1.74952,0.367705,-0.0710756,0.244936,0.0122612,0.0309624,-0.144419,-0.0749137,0.0218315,-0.0487976,-0.0249131,0.0168564,0.00630681,-0.0442664,0.0034499,-0.339966,0.107061,3.07927,3.07407,1,1,182.975
11.7659,1.76715,0.368397,-0.0703677,0.242262,0.00749436,0.0323534,-0.117672,-0.101106,0.0322933,-0.0488048,-0.0249369,0.016925,0.00632482,-0.0442697,0.00310259,-0.352039,0.115904,3.09175,3.07801,1,1,185.717
11.8363,1.78446,0.368644,-0.0703868,0.235705,-0.00233763,0.0332969,-0.208987,-0.216376,0.0288458,-0.0488156,-0.0249729,0.0170288,0.00636239,-0.0442736,0.00292872,-0.345055,0.103157,3.09938,3.09061,1,1,188.475
11.9068,1.80151,0.368252,-0.0704059,0.234161,-0.00934515,0.0325905,-0.0869747,-0.147792,0.0120449,-0.0488264,-0.0250089,0.0171327,0.00638818,-0.0442775,0.00279084,-0.34286,0.103778,3.10451,3.09822,1,1,191.26
11.9772,1.81808,0.367412,-0.0696402,0.231662,-0.0150897,0.0348479,-0.0948448,-0.127103,0.0436354,-0.0488338,-0.0250337,0.0172042,0.00641032,-0.0442804,0.0027014,-0.3384,0.0979502,3.10809,3.10325,1,1,194.06
12.0478,1.83458,0.366152,-0.0696467,0.232338,-0.0189669,0.0358415,-0.0146508,-0.0830165,0.0369663,-0.048845,-0.0250709,0.0173112,0.00642633,-0.0442824,0.00278962,-0.325405,0.085089,3.1048,3.10695,1,1,196.89
12.1182,1.85074,0.3648,-0.0705563,0.237212,-0.0167086,0.0350166,0.108181,0.0463455,0.016717,-0.0488595,-0.0251192,0.0174504,0.00641963,-0.0442805,0.00286788,-0.323886,0.0866435,3.10074,3.10359,1,1,199.732
12.1888,1.8672,0.36364,-0.0714105,0.241341,-0.0142252,0.034726,0.0926569,0.0487513,0.0229073,-0.0488737,-0.0251666,0.0175868,0.00641151,-0.0442793,0.00267176,-0.338107,0.0998506,3.10949,3.09957,1,1,202.606
12.2592,1.88417,0.362465,-0.0712475,0.240175,-0.0179835,0.0365011,-0.0540839,-0.0822119,0.0439367,-0.0488843,-0.025202,0.0176886,0.00642789,-0.0442809,0.00270734,-0.329862,0.0920046,3.10737,3.10835,1,1,205.494
12.3298,1.90103,0.361121,-0.0711131,0.242509,-0.0182891,0.0366654,0.0376304,-0.00729495,0.0231361,-0.048895,-0.0252376,0.0177911,0.00643064,-0.0442811,0.0027488,-0.326789,0.0910733,3.10447,3.10608,1,1,208.41
12.4002,1.91798,0.359792,-0.071806,0.24487,-0.0175876,0.0360378,0.0378664,0.0132119,0.0188541,-0.0489092,-0.0252848,0.0179269,0.00642887,-0.044281,0.00277728,-0.326139,0.0927182,3.10191,3.10328,1,1,211.34
12.4708,1.93511,0.358538,-0.0724523,0.246728,-0.0161688,0.0363548,0.0210745,0.0264182,0.0313683,-0.0489231,-0.0253313,0.0180606,0.00642382,-0.0442808,0.00270321,-0.332535,0.0992147,3.10457,3.10076,1,1,214.301
12.5411,1.95241,0.357305,-0.0721383,0.24629,-0.0177327,0.0379636,-0.0363159,-0.0373739,0.0415201,-0.0489334,-0.0253659,0.01816,0.00643092,-0.0442816,0.00256467,-0.33672,0.0935754,3.11295,3.1033,1,1,217.276
12.6117,1.96984,0.355845,-0.0710136,0.247793,-0.0207424,0.0387469,0.0202932,-0.0642976,0.0257025,-0.0489404,-0.0253895,0.0182278,0.00644504,-0.0442825,0.0024646,-0.338262,0.0946703,3.11904,3.1117,1,1,220.283
12.6821,1.98719,0.354213,-0.070666,0.248769,-0.0243616,0.0392266,0.0195401,-0.0792517,0.0264845,-0.0489513,-0.025426,0.0183328,0.00646119,-0.0442839,0.00249953,-0.330655,0.0949703,3.11614,3.11786,1,1,223.301
12.7527,2.00475,0.352415,-0.0695896,0.249083,-0.0245579,0.0404324,-0.0225602,-0.00698599,0.0323162,-0.0489589,-0.0254514,0.018406,0.00646232,-0.0442842,0.0026324,-0.316902,0.0688272,3.10904,3.11505,1,1,226.35
12.8231,2.02208,0.350683,-0.0679233,0.26029,-0.0192361,0.0429858,0.268141,0.115435,0.0401821,-0.0489634,-0.0254665,0.0184494,0.0064453,-0.0442808,0.0027461,-0.316498,0.0738118,3.10229,3.10788,1,1,229.409
12.8937,2.03986,0.349606,-0.0653267,0.269549,-0.0135644,0.044246,0.231475,0.115784,0.0199566,-0.0489651,-0.0254724,0.0184662,0.0064253,-0.0442793,0.0026857,-0.331467,0.102123,3.10458,3.10127,1,1,232.503
12.9643,2.05883,0.348599,-0.0626867,0.268476,-0.0145508,0.046911,-0.0546241,-0.0262167,0.0419998,-0.0489678,-0.0254815,0.0184926,0.00642955,-0.0442799,0.00272224,-0.325952,0.0928701,3.10139,3.10343,1,1,235.618
13.0349,2.07764,0.347612,-0.060195,0.270804,-0.0129634,0.0480055,0.0306201,0.0310524,0.0222588,-0.0489715,-0.0254938,0.018528,0.00642423,-0.0442797,0.00274854,-0.325478,0.0905934,3.09859,3.10021,1,1,238.754
13.1052,2.09663,0.346691,-0.0570448,0.273941,-0.0114411,0.0500479,0.0522791,0.0314843,0.0315495,-0.0489726,-0.0254975,0.0185387,0.00641963,-0.0442794,0.00276513,-0.326429,0.0929399,3.09618,3.09733,1,1,241.903
13.1758,2.11583,0.345914,-0.0539991,0.276594,-0.0101451,0.0513987,0.0398294,0.0258123,0.0231552,-0.0489748,-0.0255051,0.0185605,0.00641569,-0.0442793,0.00269441,-0.337238,0.11106,3.09932,3.09494,1,1,245.085
13.2462,2.13528,0.345197,-0.0509914,0.272065,-0.0124258,0.0523869,-0.141489,-0.059521,0.0158567,-0.0489781,-0.0255164,0.0185932,0.00642298,-0.0442804,0.00260343,-0.339654,0.100695,3.10727,3.09813,1,1,248.281
13.3168,2.15467,0.344035,-0.0482016,0.269938,-0.0169587,0.0537066,-0.0620158,-0.103104,0.0299826,-0.0489825,-0.0255313,0.0186361,0.00643823,-0.0442811,0.00254239,-0.337756,0.0968897,3.11309,3.10603,1,1,251.512
13.3872,2.17352,0.342744,-0.0454797,0.268702,-0.020497,0.0552848,-0.0234694,-0.0859463,0.0302696,-0.0489878,-0.0255496,0.018689,0.00645108,-0.0442821,0.00251945,-0.333973,0.096825,3.11465,3.11192,1,1,254.753
13.4578,2.19253,0.341135,-0.0421727,0.268709,-0.022628,0.0570054,-0.0117762,-0.0492185,0.031436,-0.0489907,-0.0255595,0.0187176,0.00645861,-0.0442827,0.00250754,-0.331726,0.0968656,3.11508,3.11346,1,1,258.029
13.5282,2.21135,0.339505,-0.0389941,0.269079,-0.0232664,0.0589442,-0.0116432,-0.0177545,0.0347338,-0.0489948,-0.0255734,0.0187578,0.00646105,-0.044283,0.00249699,-0.331514,0.0963744,3.1154,3.11401,1,1,261.315
13.5988,2.23038,0.337748,-0.0359793,0.268966,-0.0242404,0.0602559,-0.0265842,-0.0247442,0.0295353,-0.049,-0.0255911,0.0188091,0.00646466,-0.0442833,0.00237486,-0.337789,0.0582837,3.13804,3.11433,1,1,264.635
13.6692,2.24878,0.335681,-0.0331659,0.279311,-0.0292071,0.0610441,0.369191,-0.0943347,0.0114164,-0.0490062,-0.0256125,0.0188708,0.00648648,-0.044284,0.00229519,-0.333519,0.0363088,-3.12342,3.13686,1,1,267.946
13.7398,2.26742,0.333428,-0.0304852,0.29675,-0.0320299,0.062959,0.575212,-0.0379025,0.0229616,-0.0490134,-0.0256373,0.0189425,0.00650441,-0.0442851,0.00226108,-0.331717,0.0701051,-3.11561,-3.12452,1,1,271.294
13.8102,2.28803,0.330898,-0.0295716,0.305441,-0.0339087,0.0620042,0.254154,-0.0270262,0.0153399,-0.0490283,-0.0256887,0.0190912,0.0065142,-0.0442858,0.0025993,-0.278868,0.0159554,3.13398,-3.11691,1,1,274.669
13.8808,2.30751,0.330361,-0.0296372,0.336421,-0.00739693,0.0639519,0.788636,0.486852,-0.0220623,-0.0490467,-0.0257528,0.0192767,0.00643627,-0.0442743,0.00281616,-0.280413,-0.068248,3.11909,3.13301,1,1,278.051
13.9512,2.33142,0.329683,-0.0315833,0.40335,0.00985984,0.0630021,1.62685,0.4357,-0.103707,-0.0490679,-0.0258272,0.0194922,0.00635926,-0.0442696,0.00289138,-0.316876,0.0972601,3.10711,3.11809,1,1,281.469
14.0218,2.3598,0.330879,-0.0329172,0.405644,0.0163986,0.0617272,-0.0205135,0.128237,0.0321264,-0.0490919,-0.0259127,0.0197401,0.00632802,-0.0442695,0.00293306,-0.321207,0.0934205,3.09996,3.10605,1,1,284.931
14.0922,2.38855,0.332113,-0.0342909,0.409828,0.020189,0.060096,0.0272146,0.0776213,0.0206861,-0.049115,-0.0259964,0.0199833,0.00631412,-0.044269,0.00288762,-0.330396,0.094031,3.10512,3.09875,1,1,288.393
14.1628,2.41765,0.333425,-0.0363617,0.411056,0.0197372,0.0578533,0.00755984,-0.0115209,0.0198107,-0.0491406,-0.0260902,0.0202564,0.00631679,-0.0442689,0.00283982,-0.334509,0.0916416,3.11212,3.10377,1,1,291.903
14.2332,2.44647,0.334697,-0.0384575,0.412265,0.017311,0.0563946,0.0379766,-0.0591985,0.0390739,-0.049165,-0.0261813,0.020522,0.00632678,-0.0442692,0.00280707,-0.334362,0.0955035,3.11642,3.1108,1,1,295.413
14.3038,2.47601,0.33566,-0.0410719,0.411711,0.0148332,0.0555137,-0.00970703,-0.0563778,0.0379257,-0.0491917,-0.0262818,0.0208155,0.00633559,-0.0442692,0.00280747,-0.330329,0.095476,3.11548,3.11526,1,1,298.972
14.3742,2.50517,0.336711,-0.0438308,0.412828,0.0146426,0.0524715,-0.0164468,-0.0101569,0.0179768,-0.0492172,-0.0263788,0.0210989,0.00633679,-0.0442692,0.00281971,-0.32728,0.0900554,3.11281,3.1142,1,1,302.531
14.4449,2.53453,0.337785,-0.0465925,0.415728,0.0154712,0.0497522,0.0575492,0.017607,0.0194035,-0.0492416,-0.0264721,0.0213722,0.00633532,-0.044269,0.00282551,-0.328475,0.0972931,3.11,3.11149,1,1,306.14
14.5152,2.5641,0.3389,-0.0492844,0.417681,0.0160907,0.0472489,-0.0138766,0.00800457,0.0192862,-0.0492648,-0.026562,0.0216356,0.00633414,-0.0442688,0.00282525,-0.328817,0.0942889,3.10917,3.10865,1,1,309.742
14.5858,2.59399,0.340038,-0.0518507,0.419081,0.0164253,0.0464831,0.0135514,0.00678435,0.0410662,-0.0492869,-0.0266485,0.0218895,0.00633336,-0.0442686,0.0028187,-0.331719,0.101298,3.10895,3.10802,1,1,313.394
14.6562,2.62379,0.341247,-0.0552205,0.418763,0.0157611,0.0435718,-0.0542306,-0.0224258,0.0185747,-0.0493111,-0.0267434,0.022168,0.00633541,-0.0442686,0.0028111,-0.331073,0.0963057,3.11001,3.10774,1,1,317.046
14.7268,2.65402,0.342307,-0.0582949,0.418207,0.014953,0.0416787,-0.0258738,-0.0203025,0.0259275,-0.0493341,-0.0268342,0.022435,0.00633761,-0.0442685,0.00285943,-0.305489,0.0135351,3.10693,3.10869,1,1,320.704
14.7972,2.68459,0.343213,-0.0591711,0.454528,0.0240398,0.0438891,0.815776,0.204261,-0.0178728,-0.0493503,-0.0268985,0.0226242,0.00632043,-0.0442654,0.00283325,-0.336887,0.117871,3.10855,3.10584,1,1,324.381
14.8679,2.71774,0.344668,-0.0590733,0.446418,0.0209557,0.0464283,-0.221006,-0.0835246,0.0307703,-0.0493633,-0.0269502,0.0227764,0.00632952,-0.044265,0.00282563,-0.330304,0.0939823,3.11097,3.10739,1,1,328.135
14.9382,2.74931,0.346149,-0.0585963,0.447895,0.020933,0.0463281,-0.00278944,-0.00403849,0.0285578,-0.0493731,-0.0269897,0.022893,0.00632992,-0.0442649,0.00282078,-0.331273,0.0955062,3.11109,3.10977,1,1,331.877
15.0089,2.78122,0.347573,-0.057154,0.447603,0.0200873,0.0473654,-0.00809032,-0.0228263,0.0261259,-0.0493802,-0.0270184,0.0229776,0.00633264,-0.0442649,0.00282824,-0.327526,0.0930895,3.10807,3.10996,1,1,335.676
15.0798,2.81316,0.349013,-0.0558977,0.450073,0.0206334,0.0483796,0.00588876,0.0102157,0.0345411,-0.0493877,-0.0270486,0.0230667,0.00633135,-0.0442648,0.00285028,-0.318187,0.0641918,3.10444,3.10694,1,1,339.483
15.1505,2.84435,0.350575,-0.0546705,0.463532,0.0242668,0.0481851,0.303577,0.0907243,0.0302944,-0.0493924,-0.0270677,0.0231231,0.00632452,-0.0442643,0.002868,-0.319693,0.0693202,3.10079,3.10323,1,1,343.275
15.2209,2.87722,0.352371,-0.052374,0.476197,0.027859,0.0501205,0.26362,0.0796399,0.0230093,-0.0493977,-0.0270895,0.0231877,0.00631794,-0.044264,0.00285327,-0.334449,0.110024,3.10197,3.09965,1,1,347.109
15.2915,2.91127,0.35431,-0.0493315,0.470928,0.0262638,0.0516234,-0.151022,-0.0449363,0.0151596,-0.049401,-0.0271027,0.0232266,0.00632102,-0.0442641,0.00284561,-0.332069,0.0986274,3.10353,3.10089,1,1,351
15.3619,2.94444,0.356126,-0.0469629,0.470742,0.0255237,0.0525446,-0.0292449,-0.0203058,0.0299101,-0.0494049,-0.0271187,0.0232739,0.00632254,-0.0442641,0.00284006,-0.332432,0.0998769,3.10389,3.10218,1,1,354.892
15.4325,2.97792,0.357912,-0.044402,0.469027,0.0243679,0.0539396,-0.0416867,-0.032862,0.0265598,-0.0494095,-0.0271377,0.0233302,0.00632512,-0.0442641,0.00282274,-0.33521,0.100809,3.10912,3.10264,1,1,358.838
15.5029,3.01091,0.359556,-0.0424399,0.466683,0.0222242,0.0540596,-0.0515468,-0.0599699,0.0263262,-0.0494147,-0.0271589,0.0233932,0.00632947,-0.0442641,0.00282349,-0.32915,0.0932286,3.10853,3.10787,1,1,362.791
15.5735,3.04404,0.361127,-0.0403545,0.467947,0.0219954,0.0554353,0.0238981,-0.00629652,0.0359678,-0.0494204,-0.0271825,0.0234631,0.00633004,-0.044264,0.00282388,-0.328842,0.0966526,3.10715,3.10736,1,1,366.756
15.6439,3.07712,0.362683,-0.0375829,0.469311,0.0226037,0.0566622,-0.0186067,0.0108526,0.0287485,-0.049424,-0.0271973,0.0235071,0.00632898,-0.044264,0.00283384,-0.324469,0.0853854,3.10266,3.10592,1,1,370.753
15.7145,3.11023,0.364279,-0.0351198,0.474892,0.0240418,0.0581469,0.112774,0.0360084,0.0361271,-0.0494284,-0.027215,0.0235594,0.00632712,-0.0442639,0.00282675,-0.33246,0.104598,3.10333,3.10139,1,1,374.803
15.7849,3.14381,0.365949,-0.0327083,0.471661,0.0229244,0.0594392,-0.109097,-0.0337957,0.0332689,-0.0494334,-0.0272354,0.0236198,0.00632853,-0.0442639,0.00281842,-0.333453,0.100235,3.10605,3.10225,1,1,378.855
15.8556,3.17743,0.367575,-0.0301598,0.469392,0.021827,0.060275,-0.0554106,-0.0330074,0.0283957,-0.0494391,-0.0272586,0.0236887,0.00633036,-0.0442639,0.00281257,-0.334345,0.102596,3.10727,3.10487,1,1,382.96
15.926,3.21061,0.369101,-0.0279942,0.466572,0.020462,0.0609919,-0.0788836,-0.0410098,0.0281334,-0.0494455,-0.0272842,0.0237647,0.00633233,-0.0442639,0.00279372,-0.338195,0.088945,3.11938,3.10584,1,1,387.075
15.9966,3.24371,0.370532,-0.0257517,0.465034,0.0175978,0.0615101,0.0550748,-0.0826455,0.0279522,-0.0494525,-0.0273124,0.0238482,0.00633752,-0.0442638,0.0027933,-0.33155,0.0936564,3.11914,3.11811,1,1,391.265
16.067,3.27658,0.371766,-0.023822,0.46497,0.0166721,0.0624058,-0.000671804,-0.0290142,0.0335827,-0.0494601,-0.0273427,0.0239379,0.00633911,-0.0442638,0.00279283,-0.329273,0.0927237,3.11887,3.118,1,1,395.443
16.1377,3.30971,0.372966,-0.0219619,0.466558,0.0169114,0.0634225,0.0188743,0.00232414,0.0376711,-0.0494682,-0.027375,0.0240337,0.00633913,-0.0442637,0.00281102,-0.311793,0.0529155,3.1114,3.11758,1,1,399.646
16.2081,3.34311,0.37439,-0.0203084,0.489069,0.0236686,0.0636902,0.426317,0.154857,0.0154362,-0.0494769,-0.0274092,0.0241349,0.00633219,-0.0442632,0.00280877,-0.331076,0.10497,3.10976,3.11018,1,1,403.791
16.2787,3.37817,0.37613,-0.0186089,0.486516,0.023206,0.0640291,-0.0911203,-0.0182397,0.0253534,-0.049486,-0.0274452,0.0242415,0.00633273,-0.0442632,0.00280558,-0.330855,0.0959435,3.11173,3.10865,1,1,408.088
16.3491,3.41268,0.377776,-0.0171273,0.486842,0.0226042,0.0636485,-0.0122296,-0.0186047,0.024703,-0.0494956,-0.0274828,0.0243527,0.00633369,-0.0442631,0.00277782,-0.332608,0.00243348,-3.13136,3.11056,1,1,412.322
16.4198,3.44555,0.379051,-0.0160947,0.509492,0.01891,0.0649369,0.916999,-0.0267388,-0.0173159,-0.0495055,-0.0275214,0.0244672,0.00634136,-0.0442628,0.00277883,-0.329698,0.0995753,-3.13468,-3.1327,1,1,416.34
16.4902,3.48183,0.380409,-0.0147539,0.510339,0.018827,0.0643721,-0.0265105,-0.0045768,0.0169449,-0.0495158,-0.0275617,0.0245863,0.00634136,-0.0442626,0.00282513,-0.28176,-0.0117503,3.12704,-3.13599,1,1,420.669
16.5609,3.51747,0.381196,-0.0139403,0.569809,0.0366721,0.0750191,1.0721,0.455568,-0.0397024,-0.0495263,-0.027603,0.0247084,0.00631735,-0.0442598,0.00287055,-0.284426,-0.0953736,3.12278,3.12589,1,1,424.759
16.6313,3.55685,0.385874,-0.0139443,0.647669,0.0557527,0.063688,1.86463,0.403252,-0.172183,-0.0495369,-0.0276445,0.0248312,0.00628909,-0.0442607,0.0029033,-0.307483,0.0146813,3.11385,3.12178,1,1,429.055
16.702,3.60231,0.38964,-0.01272,0.683419,0.062599,0.0622581,0.81218,0.18738,-0.00936317,-0.0495475,-0.0276874,0.0249584,0.00627449,-0.0442604,0.00289757,-0.330886,0.0956991,3.11548,3.11274,1,1,433.479
16.7698,3.64947,0.393999,-0.0119528,0.684889,0.0627278,0.0624878,-0.0208192,-0.00305272,0.0388718,-0.0495581,-0.0277311,0.025088,0.00627444,-0.0442603,0.0028939,-0.331045,0.0857284,3.11848,3.11431,1,1,437.68
16.8404,3.69866,0.398564,-0.0111505,0.690089,0.0622138,0.0622893,0.107329,-0.0265587,0.034544,-0.0495687,-0.0277757,0.0252206,0.00627743,-0.0442601,0.00292604,-0.303763,0.0287082,3.10742,3.11709,1,1,442.169
16.9108,3.7488,0.403941,-0.0113508,0.728357,0.0731117,0.0606593,0.667397,0.233116,0.00242996,-0.049579,-0.02782,0.0253526,0.00626569,-0.0442594,0.00287573,-0.342213,0.0234115,-3.12678,3.10636,1,1,446.581
16.9815,3.80025,0.409014,-0.0107917,0.743469,0.0674394,0.0603085,0.702873,-0.119739,-0.00232983,-0.0495891,-0.0278648,0.0254862,0.00627955,-0.0442589,0.00286408,-0.325379,-0.0169283,-3.09724,-3.12805,1,1,450.596
17.0519,3.85476,0.414731,-0.0127378,0.782481,0.0711869,0.059774,1.09337,0.0832123,-0.0379181,-0.0496035,-0.02793,0.0256808,0.00628663,-0.0442589,0.00292073,-0.305248,0.141105,-3.1312,-3.09833,1,1,455.081
17.1226,3.91345,0.420774,-0.0131408,0.783109,0.0824663,0.057615,-0.445035,0.233095,-0.00754738,-0.0496149,-0.027983,0.0258394,0.00625889,-0.044256,0.00293039,-0.323431,0.114472,-3.14092,-3.13255,1,1,459.598
17.193,3.9732,0.427425,-0.015549,0.787759,0.0861658,0.0542472,-0.184978,0.0504197,0.0315428,-0.0496299,-0.0280554,0.0260562,0.00625211,-0.044255,0.00293143,-0.327355,0.0960171,3.14085,3.14103,1,1,463.935
17.2637,4.03301,0.434236,-0.0170844,0.794903,0.0885229,0.0519552,-0.012944,0.0342591,0.0291901,-0.0496419,-0.0281144,0.026233,0.00624767,-0.0442543,0.00295958,-0.328096,0.129613,3.12532,3.13968,1,1,468.501
17.3341,4.09359,0.440991,-0.01888,0.792727,0.0897651,0.0483619,-0.33252,0.0134726,0.0179405,-0.0496532,-0.0281708,0.0264022,0.00624124,-0.0442539,0.00296009,-0.327601,0.0943071,3.12479,3.12416,1,1,473.053
17.4047,4.15356,0.447953,-0.0196694,0.799428,0.0913457,0.0468603,0.0144987,0.0221338,0.0265779,-0.0496619,-0.0282148,0.0265345,0.00623854,-0.0442535,0.0029749,-0.328502,0.10964,3.11686,3.12347,1,1,477.69
17.4751,4.21417,0.454974,-0.0205922,0.80203,0.0929148,0.044588,-0.155068,0.0206124,0.0139189,-0.0496702,-0.0282573,0.0266623,0.00623388,-0.0442532,0.00297828,-0.328528,0.093439,3.11492,3.11555,1,1,482.325
17.5458,4.27549,0.462254,-0.02146,0.807833,0.093794,0.0430375,0.00316054,0.00374677,0.0212278,-0.0496783,-0.0282984,0.0267858,0.0062334,-0.044253,0.00299263,-0.325824,0.0945398,3.10906,3.11356,1,1,487.041
17.6162,4.33732,0.469696,-0.0223363,0.816172,0.0958033,0.0424179,0.0121371,0.0267123,0.0323677,-0.049686,-0.028338,0.0269051,0.00623042,-0.0442527,0.00295435,-0.338019,0.0982341,3.12073,3.10769,1,1,491.738
17.6869,4.40061,0.477448,-0.0229259,0.817668,0.0936386,0.0408739,-0.0249886,-0.0852412,0.0130424,-0.0496936,-0.0283765,0.0270212,0.00623944,-0.0442526,0.00293333,-0.334154,0.0745348,3.13238,3.11958,1,1,496.501
17.7573,4.46175,0.484333,-0.0229174,0.826138,0.0918778,0.0403972,0.208378,-0.0531573,0.0203896,-0.0496991,-0.0284043,0.0271049,0.00624728,-0.0442528,0.0029938,-0.306388,0.0471677,3.11489,3.13117,1,1,501.257
17.828,4.52174,0.490156,-0.0239384,0.851909,0.0999886,0.0381731,0.484132,0.210678,-0.000967026,-0.0497043,-0.0284307,0.0271845,0.00622963,-0.0442516,0.00297379,-0.334823,0.111871,3.119,3.11378,1,1,506.089
17.8984,4.58537,0.497135,-0.0240797,0.849063,0.0981636,0.0389037,-0.150674,-0.0576718,0.0316286,-0.0497094,-0.0284567,0.0272629,0.00623396,-0.0442515,0.00296072,-0.329199,0.0637445,3.13086,3.11788,1,1,510.842
17.9691,4.64883,0.504232,-0.0241933,0.861041,0.098153,0.0385506,0.30552,-0.00277304,0.00736046,-0.0497146,-0.0284824,0.0273403,0.00623738,-0.0442514,0.00300878,-0.308129,0.0537193,3.11406,3.12963,1,1,515.75
18.0395,4.71564,0.513438,-0.024207,0.888469,0.107619,0.0369704,0.408394,0.189268,0.0205774,-0.0497197,-0.0285079,0.027417,0.00622283,-0.0442504,0.00306577,-0.282793,-0.0927504,3.11486,3.11299,1,1,520.435
18.1102,4.77566,0.519041,-0.0247169,0.964436,0.122451,0.0507909,1.85315,0.401917,-0.162259,-0.0497246,-0.0285327,0.0274917,0.00619064,-0.0442492,0.00311963,-0.290034,-0.0868418,3.11576,3.11386,1,1,525.201
18.1806,4.8505,0.53223,-0.0256089,1.04093,0.139264,0.0358567,1.77352,0.337654,-0.156435,-0.0497293,-0.0285565,0.0275636,0.00615713,-0.044248,0.00316003,-0.315093,0.0328203,3.11021,3.11453,1,1,530.066
18.2513,4.92675,0.542238,-0.0253671,1.06725,0.144284,0.0367023,0.612786,0.125664,0.00452328,-0.0497338,-0.0285804,0.0276359,0.0061443,-0.0442477,0.00318163,-0.321974,0.0733886,3.1051,3.10902,1,1,535.033
18.3217,5.00686,0.553551,-0.0255915,1.0802,0.14767,0.0354915,0.202542,0.0606365,0.0179281,-0.0497381,-0.028604,0.0277074,0.00613788,-0.0442473,0.00322538,-0.309601,0.0277981,3.10081,3.10387,1,1,539.962
18.3924,5.08623,0.564354,-0.0252995,1.10996,0.15459,0.0384753,0.664703,0.159049,0.00672531,-0.0497423,-0.0286278,0.0277796,0.00612243,-0.0442466,0.0032618,-0.310507,0.0288057,3.09785,3.09943,1,1,544.923
18.4628,5.16935,0.577097,-0.0260182,1.14092,0.162525,0.0354972,0.65563,0.161202,0.00100803,-0.0497462,-0.0286507,0.0278496,0.00610669,-0.0442458,0.00331048,-0.304617,0.0011102,3.09682,3.0965,1,1,549.866
18.5335,5.25297,0.589242,-0.0255227,1.17973,0.171581,0.0401143,0.929249,0.199977,-0.00297928,-0.0497499,-0.0286741,0.0279209,0.00608622,-0.0442441,0.00337875,-0.30083,-0.0104019,3.09297,3.09569,1,1,554.88
18.6039,5.34025,0.603514,-0.0266353,1.22519,0.183336,0.0361128,1.06511,0.245472,-0.0411692,-0.0497533,-0.0286963,0.0279887,0.00606241,-0.044243,0.00344675,-0.305214,0.00636725,3.09006,3.09177,1,1,559.911
18.6746,5.43027,0.617317,-0.0262241,1.26058,0.191259,0.0373193,0.878042,0.174451,-0.013833,-0.0497565,-0.0287188,0.0280577,0.00604655,-0.0442408,0.00349734,-0.310683,0.0356283,3.08752,3.0888,1,1,564.998
18.7451,5.5233,0.632293,-0.0267382,1.28691,0.198484,0.0354118,0.589901,0.146811,0.00188446,-0.0497594,-0.0287407,0.0281251,0.00603104,-0.0442391,0.00345081,-0.341918,0.124872,3.0876,3.08619,1,1,570.122
18.8158,5.61981,0.646819,-0.0267204,1.28012,0.194717,0.0358749,-0.292217,-0.102147,0.0199251,-0.0497621,-0.0287625,0.0281924,0.00604294,-0.0442395,0.00340178,-0.34063,0.112911,3.0918,3.08609,1,1,575.309
18.8863,5.71541,0.660827,-0.0263943,1.27644,0.190701,0.0360869,-0.174951,-0.099923,0.0320835,-0.0497646,-0.0287845,0.0282606,0.00605431,-0.04424,0.00343166,-0.32387,0.0777085,3.08996,3.09054,1,1,580.493
18.9569,5.8103,0.675152,-0.0263831,1.28655,0.192986,0.0349992,0.170946,0.0438553,0.00947857,-0.049767,-0.0288065,0.0283287,0.00605045,-0.0442391,0.00346133,-0.31997,0.0696997,3.08822,3.0886,1,1,585.706
19.0274,5.90541,0.689846,-0.026507,1.2998,0.196812,0.034811,0.250774,0.0743262,0.0169325,-0.0497693,-0.0288284,0.0283964,0.0060421,-0.0442377,0.00348996,-0.321088,0.0743071,3.0857,3.08688,1,1,590.934
19.0981,6.00164,0.704807,-0.0265827,1.31115,0.200679,0.0345578,0.205434,0.0747895,0.0211315,-0.0497716,-0.0288502,0.028464,0.00603191,-0.0442367,0.00344185,-0.339128,0.118704,3.08607,3.08453,1,1,596.224
19.1685,6.09926,0.719338,-0.0264823,1.30649,0.19779,0.0342488,-0.21911,-0.0750749,0.013258,-0.0497738,-0.028872,0.0285318,0.00604123,-0.0442375,0.00345287,-0.328733,0.0917085,3.08538,3.08484,1,1,601.528
19.2392,6.19636,0.734076,-0.0265167,1.31104,0.198365,0.0333329,0.0312102,0.00332468,0.0107288,-0.049776,-0.0288939,0.0285997,0.00604106,-0.0442372,0.00352302,-0.312679,0.0479729,3.08337,3.08416,1,1,606.868
19.3097,6.29596,0.749913,-0.0287252,1.33434,0.205013,0.0319421,0.488344,0.130749,0.00903606,-0.0497799,-0.0289324,0.0287192,0.00602614,-0.0442335,0.00359451,-0.313973,0.0558573,3.07985,3.08212,1,1,612.217
19.381,6.39598,0.766159,-0.0297161,1.3525,0.211834,0.0313613,0.401179,0.131294,0.0151119,-0.0497827,-0.0289608,0.0288073,0.00600664,-0.0442312,0.00358161,-0.33143,0.101241,3.07791,3.07852,1,1,617.677
19.4515,6.49702,0.781925,-0.0304788,1.35352,0.21144,0.0308358,-0.074937,-0.019812,0.0186634,-0.0497856,-0.0289885,0.0288935,0.00600833,-0.0442315,0.00348389,-0.342585,0.118979,3.08184,3.07668,1,1,623.105
19.5222,6.59899,0.797148,-0.0311694,1.34861,0.206357,0.0285546,-0.24289,-0.122112,-0.00600624,-0.0497884,-0.0290158,0.028978,0.00602512,-0.0442326,0.00339696,-0.342987,0.117577,3.08602,3.08063,1,1,628.582
19.5926,6.69991,0.811958,-0.0317932,1.34297,0.201221,0.0282608,-0.231313,-0.124975,0.0162153,-0.0497913,-0.0290426,0.0290612,0.00604086,-0.0442342,0.00345919,-0.319414,0.0677734,3.08512,3.0848,1,1,634.062
19.6633,6.79868,0.827449,-0.0326206,1.35566,0.206314,0.0282609,0.271707,0.0999969,0.012413,-0.0497943,-0.0290689,0.0291425,0.00602804,-0.0442314,0.00356568,-0.312559,0.0513239,3.0804,3.08381,1,1,639.591
19.7338,6.89606,0.843052,-0.032695,1.37412,0.212812,0.0271684,0.43671,0.136741,-0.000529289,-0.0497962,-0.0290856,0.0291942,0.00601143,-0.044228,0.00366109,-0.314183,0.0613544,3.0758,3.07924,1,1,645.132
19.8045,6.99485,0.859302,-0.0325401,1.38832,0.219298,0.0280504,0.347686,0.131164,0.016654,-0.0497983,-0.0291027,0.0292468,0.00599254,-0.0442255,0.00348883,-0.349817,0.131223,3.08106,3.07453,1,1,650.731
19.8749,7.09944,0.874852,-0.0337106,1.37851,0.21228,0.029052,-0.349694,-0.174211,0.016819,-0.0498027,-0.0291384,0.0293572,0.00601655,-0.044227,0.00357556,-0.320584,0.0752522,3.07915,3.07967,1,1,656.339
19.9456,7.20279,0.891306,-0.0359541,1.38878,0.216247,0.0285241,0.186692,0.0700867,0.0163698,-0.0498084,-0.0291823,0.0294924,0.00600844,-0.0442248,0.00346931,-0.343056,0.122749,3.08086,3.07785,1,1,661.995
20.0161,7.30631,0.906856,-0.0367012,1.38146,0.2117,0.0300596,-0.272766,-0.121959,0.0156012,-0.049813,-0.0292159,0.0295957,0.00602391,-0.0442267,0.0033674,-0.340806,0.108814,3.08605,3.07954,1,1,667.668
20.0868,7.41163,0.922421,-0.0395843,1.38108,0.207519,0.0273307,-0.134036,-0.0995583,0.0218372,-0.0498202,-0.0292674,0.0297538,0.00603709,-0.0442276,0.0033366,-0.335951,0.103094,3.08678,3.08463,1,1,673.388
20.1573,7.51584,0.937752,-0.0419591,1.38113,0.204662,0.0271051,-0.0866783,-0.0768629,0.0244484,-0.0498276,-0.0293172,0.029906,0.00604798,-0.0442286,0.00336181,-0.326128,0.0892625,3.08532,3.0854,1,1,679.118
20.228,7.61981,0.953601,-0.0452349,1.38706,0.206801,0.025682,0.0559309,0.03374,0.02176,-0.0498365,-0.0293747,0.0300817,0.00604284,-0.0442279,0.0033792,-0.326767,0.0900363,3.08326,3.08398,1,1,684.899
20.2984,7.72424,0.969488,-0.0492686,1.39266,0.208114,0.023296,0.0477828,0.0183559,0.0184393,-0.049847,-0.0294393,0.0302787,0.00604014,-0.044227,0.00309997,-0.353006,0.118482,3.09756,3.08213,1,1,690.695
20.3691,7.83006,0.983702,-0.0533749,1.3876,0.198598,0.0199706,-0.242729,-0.225133,0.0127878,-0.0498572,-0.0295005,0.0304647,0.00607487,-0.0442269,0.00315305,-0.326436,0.0817858,3.09645,3.09632,1,1,696.542
20.4396,7.93186,0.998414,-0.0562285,1.39523,0.199731,0.0187389,0.138656,0.01811,0.0181255,-0.0498657,-0.0295485,0.0306102,0.00607515,-0.044225,0.0032129,-0.321858,0.0792584,3.09344,3.09522,1,1,702.392
20.5103,8.03444,1.01391,-0.0595355,1.40346,0.203385,0.0174174,0.145989,0.0716854,0.0189495,-0.0498759,-0.0296047,0.0307801,0.00606331,-0.0442238,0.00302264,-0.346118,0.110603,3.10323,3.09209,1,1,708.303
20.5808,8.1372,1.02764,-0.0605198,1.39818,0.19617,0.0181365,-0.182669,-0.164707,0.0223131,-0.0498822,-0.029638,0.0308807,0.00609109,-0.0442262,0.00308965,-0.325155,0.0787005,3.10079,3.10195,1,1,714.222
20.6515,8.23831,1.0423,-0.0626459,1.40598,0.198452,0.0172334,0.160448,0.0430495,0.0101271,-0.0498905,-0.0296809,0.0310096,0.00608579,-0.0442243,0.00314795,-0.322697,0.078372,3.0974,3.09963,1,1,720.189
20.722,8.33853,1.05687,-0.0639907,1.41373,0.200909,0.017302,0.162956,0.0506109,0.0255365,-0.0498966,-0.0297112,0.0311006,0.00607836,-0.0442228,0.00307299,-0.334605,0.104459,3.09972,3.09619,1,1,726.171
20.7927,8.43977,1.07079,-0.0642422,1.41216,0.198633,0.0175453,-0.0873657,-0.0519537,0.0179253,-0.0499004,-0.0297298,0.0311564,0.00608787,-0.0442235,0.00300911,-0.335605,0.102464,3.10289,3.09852,1,1,732.208
20.8632,8.54095,1.08472,-0.0651146,1.41112,0.19651,0.0171761,-0.0668548,-0.0500605,0.0118389,-0.0499068,-0.0297597,0.0312456,0.00609622,-0.0442245,0.0030027,-0.331966,0.096439,3.10241,3.10159,1,1,738.254
20.934,8.64147,1.09857,-0.0652296,1.41194,0.195732,0.0177561,-0.0173432,-0.0196275,0.0205307,-0.0499107,-0.0297776,0.0312993,0.00609977,-0.0442248,0.00299487,-0.331097,0.0958328,3.10175,3.10109,1,1,744.355
21.0045,8.74168,1.11231,-0.0652348,1.41301,0.194879,0.018281,-0.00118268,-0.0212136,0.0182171,-0.0499147,-0.0297959,0.0313536,0.00610386,-0.044225,0.00299037,-0.329999,0.0964825,3.10091,3.10048,1,1,750.467
21.0752,8.84179,1.12605,-0.0644237,1.41361,0.194513,0.0191667,-0.0170892,-0.00981372,0.017211,-0.0499163,-0.0298029,0.0313743,0.00610517,-0.0442253,0.00293031,-0.334231,0.100423,3.1042,3.09964,1,1,756.632
21.1457,8.94182,1.13952,-0.0635006,1.41158,0.192473,0.0200111,-0.077168,-0.0490569,0.0149107,-0.0499182,-0.0298111,0.0313988,0.00611201,-0.0442259,0.00288315,-0.333708,0.094411,3.10735,3.10294,1,1,762.806
21.2164,9.04202,1.15266,-0.0618592,1.41222,0.190284,0.0219114,0.00108629,-0.0501349,0.0264778,-0.0499177,-0.0298087,0.0313917,0.00612125,-0.0442263,0.00287778,-0.330613,0.0950411,3.10679,3.10601,1,1,769.033
21.2869,9.14163,1.16595,-0.0602191,1.41293,0.189652,0.0231748,-0.00308228,-0.0164088,0.0171776,-0.0499176,-0.0298084,0.0313909,0.00612393,-0.0442267,0.00280904,-0.336569,0.101692,3.11125,3.10545,1,1,775.269
21.3577,9.24205,1.17883,-0.0586143,1.41069,0.186725,0.0257291,-0.0821855,-0.0694805,0.0377245,-0.0499181,-0.0298103,0.0313963,0.00613432,-0.0442273,0.00275811,-0.335624,0.0938495,3.11595,3.10994,1,1,781.564
21.4281,9.34182,1.19153,-0.0569662,1.41096,0.183997,0.0261362,0.00850612,-0.0624767,0.00756359,-0.0499191,-0.0298143,0.0314082,0.00614481,-0.0442281,0.00275124,-0.331595,0.0941951,3.11593,3.11469,1,1,787.866
21.4989,9.44164,1.20433,-0.0554837,1.41162,0.182961,0.0270362,-0.00481796,-0.0260026,0.0161963,-0.0499206,-0.0298204,0.0314262,0.00614889,-0.0442283,0.00286673,-0.31285,0.066356,3.10546,3.11475,1,1,794.224
21.5696,9.54051,1.21805,-0.0535139,1.42449,0.189872,0.0279941,0.275699,0.150478,0.00176525,-0.0499194,-0.0298156,0.0314121,0.00613014,-0.0442264,0.00295495,-0.311029,0.0557148,3.09871,3.10434,1,1,800.593
21.6403,9.63986,1.2325,-0.0515211,1.44013,0.19719,0.0290423,0.38136,0.168396,0.0106039,-0.0499188,-0.0298135,0.0314059,0.00610862,-0.0442256,0.0029461,-0.329745,0.0979718,3.09677,3.0975,1,1,807.011
21.7108,9.74128,1.24641,-0.0494421,1.44013,0.197291,0.0311743,-0.0326006,-0.000335973,0.0297613,-0.049919,-0.0298143,0.0314082,0.00610792,-0.0442258,0.00292525,-0.333366,0.103287,3.09683,3.09551,1,1,813.43
21.7815,9.84336,1.2601,-0.0473944,1.43785,0.195668,0.0321703,-0.0853968,-0.0396635,0.0167227,-0.04992,-0.029818,0.031419,0.00611283,-0.0442263,0.00280257,-0.345665,0.107138,3.11144,3.0955,1,1,819.918
21.852,9.94509,1.2728,-0.0452693,1.43095,0.188939,0.0340581,-0.127231,-0.16338,0.0244045,-0.0499219,-0.0298247,0.0314387,0.00613561,-0.044227,0.00272197,-0.33941,0.0761783,3.1271,3.11023,1,1,826.412
21.9228,10.0463,1.28523,-0.0433712,1.43542,0.184634,0.0351661,0.181266,-0.0957792,0.0182238,-0.0499245,-0.0298343,0.0314666,0.00615337,-0.0442276,0.00284724,-0.302837,0.0177345,3.11835,3.12589,1,1,832.953
21.9933,10.1453,1.29929,-0.0421373,1.46736,0.196013,0.0364728,0.772393,0.246848,-0.0122147,-0.0499276,-0.0298457,0.0315,0.00612845,-0.0442231,0.0027766,-0.33967,0.117414,3.1241,3.11715,1,1,839.506
22.064,10.2489,1.31254,-0.0402571,1.45972,0.193178,0.0388841,-0.224544,-0.0823384,0.0206175,-0.0499316,-0.02986,0.0315417,0.00613929,-0.0442234,0.00272743,-0.334104,0.0569447,3.13946,3.12282,1,1,846.106
22.1345,10.3527,1.32549,-0.0367953,1.47121,0.190686,0.0427626,0.370964,-0.045278,0.0225716,-0.0499288,-0.02985,0.0315124,0.00615338,-0.0442241,0.00269939,-0.333967,0.0826779,-3.13827,3.13819,1,1,852.724
22.2053,10.4563,1.33836,-0.0342428,1.47523,0.188749,0.0438376,0.128819,-0.0394441,0.0203123,-0.0499312,-0.0298586,0.0315374,0.00616357,-0.0442244,0.00273089,-0.329435,0.115849,3.13448,-3.13956,1,1,859.392
22.2758,10.5593,1.35167,-0.0319801,1.46971,0.188715,0.0436657,-0.207002,-0.00351648,0.0148554,-0.0499346,-0.0298706,0.0315725,0.00616051,-0.0442242,0.00274284,-0.327837,0.10111,3.13035,3.13324,1,1,866.072
22.3465,10.662,1.365,-0.0297011,1.46918,0.189498,0.0445776,-0.0520784,0.0112389,0.017807,-0.0499389,-0.0298862,0.0316178,0.00615794,-0.0442242,0.00273433,-0.328907,0.0902224,3.13166,3.12911,1,1,872.8
22.417,10.7641,1.37812,-0.0276464,1.4716,0.189742,0.0444501,0.0457286,0.00296145,0.00742149,-0.0499442,-0.029905,0.0316724,0.00615871,-0.0442242,0.00271397,-0.330358,0.0818418,3.13609,3.13032,1,1,879.54
22.4878,10.8663,1.39099,-0.0257604,1.47578,0.189037,0.0462727,0.125322,-0.0117313,0.0381489,-0.0499503,-0.0299267,0.0317356,0.00616353,-0.0442243,0.00271929,-0.329623,0.0975724,3.13341,3.13491,1,1,886.341
22.5583,10.9694,1.40431,-0.0231152,1.4759,0.189755,0.0473821,-0.0378658,0.0124111,0.0222549,-0.0499533,-0.0299373,0.0317663,0.00616075,-0.0442242,0.00271913,-0.330441,0.0937158,3.13213,3.1321,1,1,893.15
22.629,11.0751,1.41776,-0.0188297,1.47697,0.189312,0.049161,0.000419378,-0.0148349,0.0158415,-0.0499495,-0.0299237,0.0317268,0.00616366,-0.0442244,0.0027193,-0.32934,0.0933706,3.13098,3.13083,1,1,900.016
