time,x_hat,y_hat,z_hat,Vx_hat,Vy_hat,Vz_hat,ax_hat,ay_hat,az_hat,ax_bias,ay_bias,az_bias,gx_bias,gy_bias,gz_bias,roll,pitch,yaw,est_heading,mag_correction,pr_correction
2.3335,0,0,0.00454546,0,0,0,-5.96046e-08,-3.35276e-08,0.0407295,-0.047293,-0.01987,0.002095,0.006321,-0.0443,0.003061,-0.329249,0.0968658,3.12449,3.12449,1,1
2.4033,-9.62929e-06,-3.19245e-05,0.00236943,0.00177493,0.000286445,0.00118914,5.96046e-08,-2.73809e-07,0.0407295,-0.047293,-0.01987,0.002095,0.00632159,-0.0443016,0.00305311,-0.339544,0.0974076,3.13623,3.12329,1,1
2.47101,-5.74414e-05,-3.25121e-05,0.0016668,0.00164793,-0.00642393,0.00295346,0.00318873,-0.104284,0.0505686,-0.047293,-0.01987,0.00209501,0.00633768,-0.0442992,0.00301076,-0.339709,0.0946408,-3.14052,3.13503,1,1
2.54128,2.20074e-05,-0.000174312,0.00137645,0.00429125,-0.0106791,0.00497176,0.0308208,-0.0964207,0.0538206,-0.047293,-0.01987,0.00209502,0.00635987,-0.0442959,0.00297434,-0.339311,0.0948145,-3.1369,3.14142,1,1
2.61166,-2.92379e-05,-0.000997614,0.00125312,0.00415972,-0.0169252,0.00526263,0.00168306,-0.0953211,0.0289345,-0.047293,-0.01987,0.00209505,0.00637848,-0.0442937,0.00285597,-0.340864,0.0845864,-3.1287,-3.13815,1,1
2.68193,-0.000323023,-0.001863,0.0012227,0.00807089,-0.0230096,0.00785986,0.110598,-0.109717,0.0605965,-0.047293,-0.01987,0.00209509,0.00640647,-0.044287,0.00305978,-0.330859,0.103029,3.14158,-3.12994,1,1
2.75234,-0.00056609,-0.00370109,0.00129437,0.00420849,-0.0244398,0.0097189,-0.0716298,-0.0190305,0.0489092,-0.047293,-0.01987,0.00209514,0.00640953,-0.044287,0.00323942,-0.325496,0.102122,3.13264,3.14035,1,1
2.82261,0.000349834,-0.00551426,0.00137118,0.00460676,-0.0211225,0.01046,-0.0506853,0.0499213,0.0342817,-0.047293,-0.0198701,0.0020952,0.0063984,-0.044291,0.00340547,-0.323108,0.103985,3.12451,3.13142,1,1
2.89301,-8.66667e-05,-0.00725263,0.00148768,0.0011511,-0.017171,0.0111478,-0.0779785,0.0647274,0.0298281,-0.047293,-0.0198701,0.00209528,0.00638255,-0.0442932,0.00327495,-0.32659,0.0899149,3.12834,3.12329,1,1
2.96328,-0.000495245,-0.00865435,0.00164184,0.00359236,-0.0158767,0.0125237,0.0588545,0.0252893,0.0395594,-0.047293,-0.0198701,0.00209538,0.00637814,-0.0442925,0.00316308,-0.329323,0.0883824,3.13158,3.12712,1,1
3.03368,0.000144445,-0.00967756,0.00185907,0.00836454,-0.0158577,0.013925,0.0835551,-0.00155833,0.0403757,-0.0472931,-0.0198702,0.00209552,0.00638096,-0.044292,0.00327816,-0.328516,0.100726,3.12653,3.13035,1,1
3.10396,0.00169801,-0.0106284,0.00215656,0.00850854,-0.0150016,0.0158893,-0.0588065,0.00484722,0.0480604,-0.0472931,-0.0198702,0.00209569,0.00637934,-0.0442958,0.00267183,-0.332654,0.0303081,-3.13023,3.1253,1,1
3.17439,0.00759251,-0.00990422,0.00233609,0.0408247,-0.0217749,0.013786,0.648356,-0.0980222,-0.0486069,-0.0472931,-0.0198703,0.0020959,0.00642253,-0.0442819,0.00220765,-0.337169,0.0398935,-3.11027,-3.13143,1,1
3.24468,0.00455253,-0.0135106,0.00275735,0.0499054,-0.0140457,0.0298892,0.406197,0.181396,0.253341,-0.0472931,-0.0198704,0.00209618,0.00638784,-0.0442657,0.00149893,-0.352819,-0.0264275,-3.075,-3.11145,1,1
3.31512,0.0193958,-0.0103508,0.0037896,0.114412,-0.0313085,0.0250086,1.24523,-0.229253,-0.194774,-0.0472932,-0.0198705,0.00209658,0.00649075,-0.0442089,0.001073,-0.351349,0.0348864,-3.05579,-3.07623,1,1
3.38539,0.0190554,-0.013322,0.00393125,0.135887,-0.0566725,0.0128819,0.747604,-0.345729,-0.121884,-0.0472932,-0.0198707,0.0020971,0.00659653,-0.0441573,0.000718275,-0.34678,0.0582834,-3.04154,-3.05681,1,1
3.45581,0.0302305,-0.0172255,0.00441547,0.143056,-0.0491572,0.0358169,0.120499,0.117354,0.341198,-0.0472932,-0.0198709,0.00209769,0.00657383,-0.0441486,0.000452219,-0.356514,0.0439093,-3.03227,-3.0426,1,1
3.52609,0.0306627,-0.0222892,0.00485459,0.16736,-0.0694572,0.0173671,0.727161,-0.265086,-0.253666,-0.0472933,-0.0198712,0.00209846,0.0066456,-0.0440872,-0.000326631,-0.364063,0.0386673,-3.00752,-3.03346,1,1
3.59651,0.0482362,-0.0246931,0.00527311,0.199097,-0.0867414,0.0183178,0.615061,-0.270824,0.014554,-0.0472934,-0.0198715,0.00209928,0.00672933,-0.0440442,0.000772118,-0.321385,0.128044,-3.03399,-3.00865,1,1
3.66678,0.0670544,-0.0294871,0.00560731,0.189535,-0.0834139,0.0207265,-0.313539,0.0436776,0.0356379,-0.0472934,-0.0198718,0.00210025,0.00673116,-0.0440753,0.00160164,-0.309579,0.136973,-3.05218,-3.03495,1,1
3.73722,0.0755509,-0.0374123,0.0057277,0.167549,-0.0748832,0.0216616,-0.431123,0.151903,0.0376291,-0.0472935,-0.0198722,0.00210139,0.00669546,-0.0441228,0.00233976,-0.304375,0.133284,-3.06929,-3.05333,1,1
3.80749,0.0914007,-0.0420076,0.00629042,0.158738,-0.0539334,0.0301383,-0.264745,0.337643,0.124899,-0.0472936,-0.0198727,0.00210267,0.00664111,-0.0440952,0.00233976,-0.320143,0.115202,-3.07246,-3.07058,0,1
3.87792,0.100836,-0.046827,0.00708255,0.155579,-0.0419266,0.036661,-0.0833564,0.21062,0.11508,-0.0472937,-0.0198732,0.00210429,0.00660095,-0.0440959,0.00233976,-0.330293,0.109194,-3.07481,-3.07376,0,1
3.94821,0.110918,-0.0500492,0.00818163,0.160365,-0.0408733,0.0379842,0.0991704,0.0156035,0.0389557,-0.0472939,-0.0198739,0.00210629,0.00659679,-0.0440853,0.00131097,-0.36217,0.0778181,-3.05964,-3.07607,1,1
4.01863,0.124887,-0.0515637,0.00956535,0.181738,-0.0560924,0.0411125,0.388949,-0.250768,0.052434,-0.0472941,-0.0198748,0.00210877,0.00665654,-0.0440475,0.000406063,-0.366959,0.0843221,-3.04705,-3.06081,1,1
4.08891,0.134342,-0.0556849,0.0107936,0.195218,-0.0750472,0.042054,0.304632,-0.307079,0.0377522,-0.0472943,-0.0198759,0.00211185,0.00672567,-0.0440164,-0.000264667,-0.366618,0.0910494,-3.0384,-3.04801,1,1
4.15935,0.149359,-0.0599845,0.0121649,0.207864,-0.0942666,0.0434863,0.221207,-0.309982,0.0376663,-0.0472946,-0.0198772,0.0021155,0.00680377,-0.0440013,-0.00131215,-0.37303,0.0871097,-3.02486,-3.03964,1,1
4.22963,0.161751,-0.0663978,0.013451,0.217532,-0.118216,0.0457487,0.201024,-0.384026,0.0562687,-0.047295,-0.0198787,0.00211987,0.00689681,-0.0439935,-0.00252425,-0.378996,0.0796488,-3.00999,-3.02596,1,1
4.30006,0.178279,-0.073458,0.0149258,0.23006,-0.147119,0.0463436,0.223179,-0.462256,0.0263567,-0.0472954,-0.0198805,0.00212498,0.00701798,-0.0439823,-0.00050535,-0.341817,0.103721,-3.03275,-3.01081,1,1
4.37048,0.194326,-0.0835048,0.0159963,0.226546,-0.154668,0.0459128,-0.0722269,-0.125106,0.0188856,-0.0472959,-0.0198826,0.00213085,0.00705587,-0.0439971,0.00115997,-0.320976,0.112477,-3.05126,-3.03381,1,1
4.44091,0.210002,-0.0947074,0.0169192,0.218057,-0.1506,0.0475051,-0.171096,0.0627789,0.0474663,-0.0472964,-0.0198849,0.00213743,0.00704355,-0.0440228,0.00316864,-0.302378,0.119231,-3.07445,-3.05223,1,1
4.51121,0.226538,-0.105415,0.0178147,0.207836,-0.135269,0.0486471,-0.227146,0.248749,0.0358963,-0.0472971,-0.0198875,0.00214476,0.00699519,-0.0440419,0.00526278,-0.289864,0.120741,-3.09756,-3.07554,1,1
4.58164,0.240552,-0.115998,0.0185319,0.195877,-0.111746,0.0478535,-0.248959,0.38118,0.0112963,-0.0472978,-0.0198904,0.00215288,0.00690524,-0.0440717,0.00700726,-0.283716,0.119079,-3.11832,-3.09877,1,1
4.65194,0.255683,-0.124332,0.0193137,0.185119,-0.0850581,0.0497943,-0.249923,0.43498,0.0448389,-0.0472986,-0.0198935,0.00216176,0.00681404,-0.0440906,0.00814788,-0.285416,0.112501,-3.13229,-3.11958,1,1
4.72238,0.268178,-0.131401,0.0200701,0.177032,-0.0586849,0.0508249,-0.17787,0.425175,0.0373869,-0.0472995,-0.019897,0.00217154,0.00671116,-0.044112,0.00899478,-0.289202,0.10785,3.13951,-3.13371,1,1
4.79267,0.281449,-0.136082,0.0209101,0.172742,-0.0341719,0.0509298,-0.115437,0.395631,0.0216351,-0.0473005,-0.0199007,0.00218223,0.00662112,-0.0441204,0.00970335,-0.293428,0.10509,3.13005,3.13804,1,1
4.86312,0.293239,-0.139321,0.0217031,0.169284,-0.0121715,0.0516254,-0.0862423,0.352148,0.0330009,-0.0473015,-0.0199048,0.00219394,0.0065338,-0.0441339,0.0108836,-0.291765,0.104972,3.116,3.12846,1,1
4.93343,0.305709,-0.140761,0.0225525,0.16654,0.0109713,0.052442,-0.0796406,0.369583,0.0324039,-0.0473028,-0.0199093,0.00220667,0.00644734,-0.0441429,0.0113373,-0.296346,0.101685,3.10934,3.11447,1,1
5.00387,0.317095,-0.140722,0.023418,0.165815,0.0318895,0.0542174,-0.0276141,0.330242,0.0486526,-0.0473041,-0.0199141,0.00222057,0.00636365,-0.0441516,0.0116949,-0.300645,0.101553,3.10352,3.10767,1,1
5.07418,0.329042,-0.138941,0.0243796,0.163951,0.0500059,0.0544206,-0.0538548,0.285625,0.0249701,-0.0473056,-0.0199193,0.00223569,0.00629526,-0.0441591,0.0121316,-0.303437,0.0991648,3.09708,3.1017,1,1
5.14463,0.340329,-0.135949,0.0252937,0.163378,0.0663829,0.0546372,-0.0199041,0.257173,0.0268183,-0.0473072,-0.0199249,0.00225211,0.00623018,-0.0441669,0.0115677,-0.312461,0.0964339,3.10055,3.09539,1,1
5.21492,0.351913,-0.131578,0.0262786,0.163575,0.0769207,0.0555994,-0.00875163,0.165088,0.037261,-0.0473089,-0.019931,0.0022699,0.00619073,-0.0441724,0.0120702,-0.312014,0.096117,3.09404,3.09887,1,1
5.28537,0.363248,-0.126525,0.0272646,0.164174,0.0883226,0.0568145,0.00575572,0.178409,0.0411882,-0.0473108,-0.0199376,0.00228915,0.00614559,-0.0441778,0.0124872,-0.312363,0.0956177,3.08839,3.0923,1,1
5.35568,0.374834,-0.120616,0.0282885,0.165113,0.0988703,0.0577995,0.0112756,0.165186,0.0381699,-0.0473129,-0.0199446,0.00230994,0.00610568,-0.0441828,0.0124102,-0.316719,0.0978895,3.08694,3.08655,1,1
5.42615,0.386337,-0.113902,0.0293587,0.165354,0.106764,0.058867,-0.00328255,0.123204,0.039731,-0.0473152,-0.0199522,0.00233238,0.0060755,-0.044188,0.0122532,-0.320651,0.0994871,3.08645,3.08523,1,1
5.49649,0.397976,-0.106554,0.0304735,0.164523,0.112374,0.0598732,-0.0310333,0.0861334,0.0390902,-0.0473176,-0.0199604,0.00235655,0.00605649,-0.044193,0.0120926,-0.323627,0.0991058,3.08601,3.08465,1,1
5.56697,0.409511,-0.0987942,0.0316137,0.163887,0.116721,0.0610749,-0.0286743,0.0662996,0.042448,-0.0473202,-0.0199691,0.00238257,0.00604112,-0.0441984,0.0115847,-0.329722,0.101318,3.0887,3.08418,1,1
5.63727,0.421002,-0.0905968,0.032795,0.162334,0.117117,0.0613936,-0.0528459,0.00139299,0.0299034,-0.0473231,-0.0199785,0.00241051,0.00604245,-0.0442004,0.01189,-0.325341,0.0938817,3.08459,3.08698,1,1
5.70774,0.432361,-0.0824333,0.0339141,0.16388,0.119475,0.0623263,0.0215994,0.0371481,0.0393391,-0.0473261,-0.0199885,0.00244041,0.00603477,-0.0442019,0.0121448,-0.323406,0.0922527,3.08075,3.08283,1,1
5.77806,0.443835,-0.0741524,0.0350287,0.165732,0.122737,0.0638033,0.027914,0.0525115,0.0476904,-0.0473294,-0.0199991,0.00247231,0.00602333,-0.0442043,0.0121921,-0.324598,0.0946239,3.07847,3.07898,1,1
5.84851,0.455451,-0.0656266,0.0361538,0.166182,0.126453,0.0640963,-0.00348634,0.0586041,0.031105,-0.0473329,-0.0200104,0.00250629,0.00601046,-0.0442082,0.0117999,-0.331882,0.101198,3.08004,3.07676,1,1
5.91883,0.467108,-0.0567119,0.0373025,0.164832,0.125648,0.064303,-0.0529522,-0.0193387,0.0297508,-0.0473366,-0.0200225,0.00254242,0.00601563,-0.0442093,0.0114424,-0.335979,0.102845,3.08145,3.07807,1,1
5.98929,0.478736,-0.0478646,0.038464,0.16242,0.123295,0.0661209,-0.0832931,-0.0454669,0.0537558,-0.0473405,-0.0200353,0.00258079,0.00602553,-0.0442103,0.0115078,-0.331676,0.094602,3.07959,3.07971,1,1
6.0596,0.490086,-0.0391819,0.03964,0.163259,0.121798,0.0674704,-0.000179231,-0.0270902,0.0476837,-0.0473447,-0.0200488,0.00262144,0.00603255,-0.0442093,0.0117615,-0.325506,0.0879431,3.07606,3.07781,1,1
6.13006,0.501465,-0.0306897,0.0407922,0.167238,0.124562,0.0693115,0.0798123,0.0473282,0.0546427,-0.0473491,-0.0200631,0.00266442,0.0060236,-0.0442099,0.0116003,-0.331912,0.0994141,3.07526,3.07418,1,1
6.20037,0.513193,-0.0219306,0.0420293,0.166162,0.124045,0.0701858,-0.0463239,-0.0136112,0.041317,-0.0473538,-0.0200782,0.00270985,0.00602726,-0.0442109,0.0114348,-0.334171,0.10023,3.0748,3.07323,1,1
6.27084,0.524915,-0.0131806,0.0432822,0.164863,0.121457,0.0713631,-0.0572853,-0.0478123,0.0473032,-0.0473587,-0.0200941,0.00275782,0.00603767,-0.0442111,0.0112571,-0.335343,0.100208,3.07472,3.07287,1,1
6.34117,0.536468,-0.00458733,0.0445325,0.163827,0.118925,0.0721962,-0.0464415,-0.0473025,0.0420656,-0.0473639,-0.020111,0.00280834,0.00604849,-0.0442101,0.0110442,-0.337925,0.10231,3.07508,3.07296,1,1
6.41163,0.54804,0.00384438,0.0457889,0.162157,0.114233,0.073345,-0.0702224,-0.0838827,0.0478249,-0.0473694,-0.0201286,0.00286151,0.0060665,-0.0442086,0.0108362,-0.338845,0.102358,3.07556,3.07331,1,1
6.48238,0.559467,0.012043,0.0470976,0.16026,0.109045,0.0745143,-0.0712419,-0.0929006,0.0476809,-0.0473752,-0.0201473,0.00291739,0.00608722,-0.0442056,0.0106094,-0.3404,0.103147,3.07633,3.0739,1,1
6.55286,0.570803,0.0198076,0.0483613,0.158266,0.102941,0.0755537,-0.0799133,-0.107673,0.0474043,-0.0473813,-0.0201668,0.002976,0.0061103,-0.0442029,0.0103897,-0.341046,0.102984,3.07721,3.0747,1,1
6.62317,0.581894,0.0271731,0.049609,0.156233,0.0972727,0.076143,-0.0771701,-0.10147,0.0412312,-0.0473876,-0.0201872,0.00303727,0.00613242,-0.0442,0.0101803,-0.341759,0.10281,3.07778,3.07534,1,1
6.69365,0.592958,0.0341076,0.0508066,0.154491,0.0911309,0.0766483,-0.0758355,-0.108597,0.0411015,-0.0473942,-0.0202086,0.00310124,0.0061556,-0.044198,0.00959245,-0.350656,0.109928,3.08304,3.07604,1,1
6.76398,0.603799,0.0407852,0.0520828,0.14937,0.0797864,0.0775247,-0.161541,-0.204176,0.0437317,-0.0474012,-0.0202309,0.00316793,0.0061986,-0.0441912,0.00930228,-0.348632,0.103106,3.08531,3.08123,1,1
6.83445,0.614388,0.0465547,0.0532749,0.147634,0.0694374,0.0784479,-0.0827782,-0.179643,0.0492868,-0.0474084,-0.0202541,0.00323736,0.00623723,-0.0441854,0.00902931,-0.348731,0.103413,3.08712,3.08349,1,1
6.90478,0.6247,0.0516629,0.0544569,0.145566,0.059385,0.078853,-0.0843714,-0.177239,0.0398254,-0.0474159,-0.0202782,0.0033094,0.00627581,-0.0441783,0.00890569,-0.344982,0.0990947,3.08747,3.08537,1,1
6.97524,0.634975,0.0559799,0.055496,0.14499,0.0507805,0.0780895,-0.0489033,-0.148417,0.0268688,-0.0474237,-0.0203033,0.00338398,0.00630889,-0.0441723,0.00906147,-0.33499,0.0877669,3.0848,3.08573,1,1
7.04558,0.645018,0.0596033,0.0564012,0.149264,0.0466151,0.0795115,0.0842676,-0.0677446,0.0576115,-0.0474317,-0.0203291,0.00346082,0.00632561,-0.044167,0.00926056,-0.328323,0.0858238,3.08145,3.08316,1,1
7.11606,0.655395,0.0628725,0.0572791,0.153595,0.0465545,0.0801071,0.0882101,0.00055657,0.0463934,-0.04744,-0.0203557,0.00353989,0.00632719,-0.0441654,0.00942906,-0.324684,0.085803,3.07818,3.07989,1,1
7.1864,0.666061,0.0660898,0.0580659,0.158777,0.0480689,0.079896,0.111257,0.0282865,0.0353165,-0.0474485,-0.0203831,0.00362106,0.0063226,-0.0441646,0.00963127,-0.321627,0.0868136,3.0744,3.07664,1,1
7.25688,0.67709,0.0694,0.0595637,0.163513,0.051999,0.0803054,0.103822,0.0679029,0.038332,-0.0474558,-0.0204068,0.00369115,0.00630866,-0.0441664,0.0095881,-0.326934,0.0984952,3.07287,3.07275,1,1
7.32722,0.688552,0.0729984,0.0610424,0.163352,0.053483,0.0812656,-0.0255257,0.0212922,0.0474396,-0.0474635,-0.0204315,0.00376412,0.00630435,-0.0441687,0.00953185,-0.328827,0.099367,3.07173,3.07111,1,1
7.3977,0.70005,0.0767491,0.0632212,0.163005,0.0531344,0.0807849,-0.0337312,-0.00922403,0.0220938,-0.04747,-0.0204526,0.00382655,0.00630647,-0.0441697,0.0093792,-0.33252,0.10336,3.07193,3.0701,1,1
7.46803,0.711514,0.0804908,0.0652611,0.160535,0.0519792,0.0813149,-0.0858722,-0.0261437,0.0365725,-0.0474769,-0.020475,0.00389252,0.00631146,-0.044171,0.009217,-0.335079,0.103297,3.07213,3.0701,1,1
7.53852,0.722854,0.0841467,0.0679425,0.158628,0.0499759,0.0817273,-0.0755383,-0.0392596,0.0313015,-0.0474827,-0.0204939,0.00394834,0.00631945,-0.0441713,0.00906032,-0.337553,0.104284,3.07252,3.07054,1,1
7.60887,0.733995,0.0877187,0.070502,0.155811,0.0460072,0.0824817,-0.0983112,-0.0747795,0.0360775,-0.047489,-0.0205143,0.00400837,0.00633518,-0.0441696,0.00902921,-0.334265,0.0974171,3.07165,3.07084,1,1
7.67939,0.744961,0.0909617,0.0728938,0.155709,0.0431976,0.0836805,-0.0298429,-0.0504797,0.0460339,-0.0474957,-0.020536,0.00407244,0.00634615,-0.0441685,0.00873073,-0.341841,0.107602,3.07369,3.06994,1,1
7.74976,0.755889,0.0940776,0.0745313,0.151801,0.037177,0.0854677,-0.125897,-0.112416,0.0582867,-0.0475043,-0.0205639,0.0041544,0.00636924,-0.044165,0.00882346,-0.331996,0.0917866,3.07195,3.07215,1,1
7.82027,0.766484,0.0967074,0.074445,0.154686,0.0355639,0.0840259,0.0491224,-0.0271456,0.0289698,-0.0475161,-0.0206023,0.00426702,0.00637618,-0.0441628,0.00890457,-0.328888,0.0917008,3.06964,3.0704,1,1
7.89061,0.777255,0.0991602,0.0750706,0.15708,0.0358045,0.0851415,0.0392499,0.00374501,0.0594444,-0.0475264,-0.020636,0.00436598,0.0063766,-0.0441624,0.00891617,-0.329328,0.0947948,3.06799,3.06812,1,1
7.96112,0.788252,0.101665,0.0749278,0.158337,0.0352305,0.084008,0.00996476,-0.0109925,0.0341349,-0.0475384,-0.0206751,0.00448051,0.00637958,-0.044162,0.00895297,-0.327552,0.0938686,3.06615,3.06643,1,1
8.03145,0.79929,0.104099,0.0754658,0.160401,0.0361224,0.0836095,0.0306882,0.0143732,0.0381422,-0.0475489,-0.0207094,0.004581,0.00637752,-0.0441625,0.00897603,-0.3277,0.0957033,3.06433,3.06458,1,1
8.10195,0.810507,0.106596,0.0752107,0.161702,0.0368743,0.0834178,0.0114364,0.0111196,0.0474997,-0.047561,-0.020749,0.00469689,0.00637593,-0.0441633,0.00901397,-0.326708,0.0950336,3.06243,3.0628,1,1
8.17229,0.821801,0.109135,0.0741552,0.162519,0.0384775,0.0820002,0.000111401,0.0249864,0.036025,-0.0475747,-0.0207934,0.00482696,0.00637133,-0.0441654,0.00905292,-0.325828,0.0933671,3.06053,3.06088,1,1
8.2428,0.833142,0.111808,0.0738434,0.165183,0.0404172,0.0806115,0.048124,0.0329483,0.0292158,-0.0475866,-0.0208326,0.00494142,0.00636484,-0.0441666,0.00907737,-0.326761,0.0965976,3.05856,3.05893,1,1
8.31313,0.84468,0.114595,0.0727136,0.165725,0.0420228,0.0793144,-0.00526273,0.0249146,0.0367174,-0.0476,-0.0208765,0.00506992,0.00636014,-0.0441689,0.00912196,-0.325558,0.0943036,3.05664,3.05705,1,1
8.38364,0.856262,0.117508,0.0707991,0.167208,0.0443328,0.0769626,0.0194556,0.0378698,0.0271025,-0.0476148,-0.0209249,0.00521126,0.00635252,-0.0441713,0.00885228,-0.337524,0.109228,3.05796,3.05518,1,1
8.45399,0.867997,0.120629,0.0682886,0.162153,0.0406552,0.0756979,-0.149166,-0.0722032,0.0435381,-0.0476308,-0.0209774,0.00536441,0.00636687,-0.0441727,0.00859207,-0.341447,0.108601,3.05972,3.05635,1,1
8.52449,0.879428,0.123491,0.0658245,0.158008,0.0347385,0.0735443,-0.134775,-0.108884,0.0347748,-0.0476464,-0.0210287,0.00551401,0.00638997,-0.0441714,0.00867298,-0.331523,0.0935176,3.05812,3.05818,1,1
8.59483,0.890416,0.125919,0.0633503,0.160141,0.033311,0.0717641,0.0309965,-0.0249518,0.0370226,-0.0476616,-0.0210786,0.00565975,0.00639618,-0.0441694,0.00894205,-0.319801,0.0811214,3.05443,3.05661,1,1
8.66536,0.901511,0.128212,0.0601352,0.166405,0.0376247,0.0702404,0.141634,0.0774242,0.0431328,-0.0476779,-0.0211322,0.00581611,0.00638098,-0.0441693,0.00873301,-0.333678,0.102881,3.05474,3.05297,1,1
8.73569,0.913134,0.130833,0.0571619,0.163882,0.0359145,0.068262,-0.0825882,-0.0363662,0.0344543,-0.0476937,-0.0211843,0.00596779,0.00638874,-0.0441706,0.00853176,-0.338102,0.10487,3.05554,3.05304,1,1
8.80621,0.924638,0.133343,0.0542808,0.16155,0.0315957,0.0662572,-0.0859442,-0.0796599,0.035924,-0.0477091,-0.0212348,0.00611502,0.00640549,-0.0441701,0.00824336,-0.3445,0.110233,3.05745,3.05389,1,1
8.87655,0.935909,0.135601,0.0515998,0.156319,0.024396,0.0640004,-0.152177,-0.133755,0.0239973,-0.047724,-0.0212838,0.00625781,0.00643284,-0.0441679,0.00813611,-0.340405,0.102459,3.05766,3.0557,1,1
8.94707,0.946864,0.137299,0.048896,0.154447,0.0184094,0.0627866,-0.0751415,-0.106733,0.0439062,-0.0477384,-0.0213314,0.00639639,0.00645571,-0.044165,0.00803024,-0.339111,0.101085,3.05774,3.05608,1,1
9.01743,0.957596,0.138594,0.0455839,0.152882,0.013304,0.0608727,-0.0593579,-0.0919931,0.0345936,-0.0477539,-0.0213825,0.00654507,0.00647596,-0.0441619,0.0080642,-0.33331,0.0948454,3.05633,3.05612,1,1
9.08794,0.968263,0.139502,0.042292,0.154549,0.0116671,0.0586008,0.0181013,-0.0287155,0.0297575,-0.0477689,-0.0214319,0.00668847,0.0064832,-0.0441603,0.007747,-0.344426,0.109217,3.05829,3.05476,1,1
9.1583,0.979021,0.140335,0.039246,0.150128,0.00503257,0.0560803,-0.130415,-0.122122,0.0186262,-0.0477833,-0.0214794,0.00682677,0.00650931,-0.0441589,0.00744603,-0.347953,0.109319,3.0606,3.05661,1,1
9.22882,0.989521,0.140645,0.0354671,0.145075,-0.0048516,0.054308,-0.157963,-0.174471,0.0404043,-0.0477988,-0.0215304,0.00697464,0.00654732,-0.0441548,0.00741782,-0.339801,0.0976019,3.06035,3.05906,1,1
9.29917,0.999571,0.140282,0.0303544,0.145006,-0.0109006,0.0522601,-0.0266718,-0.104911,0.0434151,-0.0478166,-0.0215891,0.00714497,0.00657098,-0.0441507,0.00744697,-0.33481,0.094331,3.05907,3.0589,1,1
9.36969,1.00966,0.139469,0.0246273,0.145997,-0.0140665,0.0491898,0.000545502,-0.0547198,0.0333042,-0.047835,-0.02165,0.00732154,0.00658392,-0.044148,0.00746544,-0.332319,0.0938789,3.05769,3.05765,1,1
9.44006,1.01978,0.13843,0.018395,0.147486,-0.0160784,0.0467091,0.0157033,-0.034779,0.0435677,-0.0478541,-0.0217127,0.00750337,0.00659231,-0.0441462,0.00741191,-0.333294,0.0975576,3.05688,3.05621,1,1
9.51058,1.03004,0.137232,0.0124785,0.147955,-0.0184585,0.0445379,-0.011332,-0.042099,0.0443115,-0.0478721,-0.0217722,0.00767567,0.00660232,-0.0441449,0.00711773,-0.342202,0.108278,3.05844,3.05514,1,1
9.58093,1.04027,0.13588,0.00625485,0.143721,-0.0259187,0.0427044,-0.125427,-0.133083,0.0487413,-0.0478907,-0.0218336,0.00785314,0.00663166,-0.0441433,0.00690717,-0.342581,0.106275,3.05983,3.057,1,1
9.65146,1.05027,0.133983,0.000239889,0.140708,-0.0325338,0.0385286,-0.100366,-0.116096,0.0145836,-0.0479083,-0.0218916,0.00802101,0.00665828,-0.0441415,0.00670906,-0.343728,0.106004,3.06097,3.05829,1,1
9.72181,1.05999,0.13164,-0.00473714,0.137149,-0.0393171,0.0360386,-0.109238,-0.120666,0.0259371,-0.0479235,-0.0219417,0.00816551,0.00668641,-0.0441398,0.006888,-0.331826,0.0904205,3.05845,3.0595,1,1
9.79235,1.06953,0.128825,-0.0103953,0.140212,-0.0403881,0.0332827,0.0528172,-0.0169819,0.0269747,-0.0479393,-0.0219938,0.00831614,0.00669089,-0.0441375,0.00676941,-0.336066,0.099294,3.05821,3.0569,1,1
9.86274,1.07924,0.125923,-0.0157187,0.139851,-0.0440323,0.0313407,-0.0293683,-0.0645668,0.0338688,-0.0479542,-0.0220431,0.00845819,0.006706,-0.0441357,0.00665099,-0.336997,0.101199,3.05842,3.05683,1,1
9.93329,1.08894,0.122721,-0.0207618,0.138284,-0.048257,0.0300537,-0.0599375,-0.0745003,0.0419674,-0.0479683,-0.0220896,0.00859224,0.00672326,-0.0441344,0.0067146,-0.33095,0.0940796,3.05668,3.05687,1,1
10.0037,1.09853,0.119253,-0.0263021,0.140158,-0.0489812,0.0289386,0.0252448,-0.0126399,0.0464287,-0.0479831,-0.0221383,0.00873243,0.00672689,-0.0441335,0.00700281,-0.321614,0.0854496,3.05252,3.05529,1,1
10.0742,1.10831,0.115766,-0.0315549,0.144965,-0.0453213,0.0277317,0.0976633,0.063207,0.0405025,-0.047997,-0.0221841,0.00886425,0.00671347,-0.0441344,0.00724734,-0.317304,0.0839203,3.04833,3.05112,1,1
10.1446,1.1184,0.11255,-0.0366094,0.151421,-0.0380805,0.0258669,0.140152,0.126643,0.0287724,-0.04801,-0.0222272,0.00898814,0.00668631,-0.0441359,0.00687285,-0.336095,0.10714,3.05046,3.04699,1,1
10.2151,1.12889,0.109748,-0.041164,0.147285,-0.04115,0.0252094,-0.118008,-0.0598748,0.0409794,-0.0480223,-0.0222677,0.00910481,0.00669951,-0.0441388,0.00632755,-0.349809,0.114807,3.05545,3.04894,1,1
10.2855,1.13906,0.106748,-0.0452893,0.139391,-0.0512503,0.0238144,-0.21283,-0.183792,0.0273523,-0.0480339,-0.022306,0.00921489,0.00673806,-0.0441408,0.00578946,-0.356231,0.113557,3.06089,3.05398,1,1
10.3561,1.14865,0.102942,-0.0499149,0.132264,-0.0648508,0.0231021,-0.205447,-0.242656,0.038764,-0.0480463,-0.022347,0.00933251,0.00679055,-0.0441366,0.00551987,-0.352353,0.105092,3.06364,3.05934,1,1
10.4264,1.15778,0.0982483,-0.0542592,0.128225,-0.0768608,0.0224034,-0.128711,-0.21101,0.0397291,-0.0480579,-0.0223855,0.00944326,0.00683496,-0.0441329,0.00500792,-0.357875,0.107915,3.06894,3.06205,1,1
10.497,1.16653,0.0926362,-0.058265,0.12395,-0.092519,0.0219368,-0.13958,-0.274506,0.0365696,-0.048069,-0.0224219,0.00954775,0.00689494,-0.0441223,0.0049229,-0.348753,0.0986537,3.06964,3.06746,1,1
10.5673,1.17507,0.0859891,-0.0621146,0.123592,-0.103596,0.020825,-0.0410421,-0.188602,0.0299597,-0.0480794,-0.0224563,0.00964624,0.00693624,-0.0441152,0.0048398,-0.34451,0.0976367,3.06988,3.06827,1,1
10.6379,1.1836,0.0785505,-0.0657544,0.123665,-0.112223,0.0200869,-0.0281073,-0.147872,0.0305967,-0.0480892,-0.0224887,0.00973905,0.00696977,-0.0441087,0.00448827,-0.350118,0.105036,3.07319,3.06858,1,1
10.7082,1.19208,0.0704557,-0.0691223,0.120583,-0.123832,0.0199931,-0.105121,-0.201144,0.0384541,-0.0480985,-0.0225193,0.00982669,0.00701505,-0.0441035,0.00453023,-0.340385,0.0947028,3.07225,3.0718,1,1
10.7793,1.2005,0.0615256,-0.0707309,0.121904,-0.130689,0.0217098,0.00155222,-0.116165,0.0497131,-0.0481044,-0.022539,0.00988299,0.00704188,-0.0440979,0.00456426,-0.335718,0.0935768,3.07088,3.07085,1,1
10.8497,1.20894,0.0522345,-0.07298,0.123177,-0.134451,0.0216543,0.00795752,-0.0641022,0.0303316,-0.0481116,-0.0225626,0.00995014,0.00705662,-0.044095,0.00441059,-0.338234,0.0989077,3.07171,3.06964,1,1
10.9202,1.21752,0.0426578,-0.0735128,0.122813,-0.138537,0.0221981,-0.0346016,-0.0730383,0.0249004,-0.0481156,-0.0225758,0.0099878,0.00707332,-0.0440935,0.00425002,-0.339915,0.100917,3.07261,3.07034,1,1
10.9906,1.22596,0.0327672,-0.0746892,0.120999,-0.144359,0.0233478,-0.0679697,-0.103393,0.0390759,-0.0481209,-0.0225933,0.0100378,0.00709612,-0.0440914,0.0040987,-0.339661,0.0999193,3.07374,3.07139,1,1
11.0612,1.23436,0.0224627,-0.0749236,0.119792,-0.150097,0.0249606,-0.057879,-0.101645,0.0391045,-0.0481246,-0.0226058,0.0100732,0.0071181,-0.0440892,0.00390893,-0.341356,0.101581,3.07505,3.07243,1,1
11.1315,1.2426,0.0117593,-0.0742676,0.117763,-0.155621,0.0274834,-0.0745818,-0.0983669,0.0454378,-0.048127,-0.0226135,0.0100953,0.00713968,-0.0440879,0.00352473,-0.348738,0.106852,3.07889,3.0737,1,1
11.2021,1.25082,0.000607692,-0.0726801,0.113988,-0.165989,0.0292415,-0.129712,-0.183144,0.0277576,-0.0481281,-0.0226171,0.0101056,0.00717866,-0.0440849,0.00317321,-0.351083,0.105356,3.0828,3.07748,1,1
11.2725,1.25856,-0.0113005,-0.0703332,0.111324,-0.178103,0.0314069,-0.0957475,-0.208611,0.0295439,-0.048128,-0.022617,0.0101051,0.00722489,-0.0440775,0.00319973,-0.342013,0.0953996,3.08211,3.0815,1,1
11.343,1.26635,-0.0240326,-0.0680757,0.111276,-0.185476,0.0339438,-0.0338085,-0.126613,0.0369844,-0.0481283,-0.0226179,0.0101078,0.00725458,-0.0440737,0.00340221,-0.331623,0.0847387,3.07888,3.08084,1,1
11.4134,1.27414,-0.0371342,-0.0659711,0.117116,-0.187373,0.0353705,0.118654,-0.027502,0.0220461,-0.0481289,-0.0226199,0.0101134,0.00726215,-0.044069,0.0035571,-0.327841,0.0882983,3.07571,3.07753,1,1
11.484,1.28231,-0.0503781,-0.0646939,0.120586,-0.186289,0.0369967,0.0654969,0.0189822,0.0332842,-0.0481311,-0.0226274,0.0101344,0.0072591,-0.0440684,0.00369118,-0.325118,0.0884733,3.0728,3.07443,1,1
11.5544,1.29076,-0.0635019,-0.0626418,0.124444,-0.184427,0.0395292,0.0741881,0.0322458,0.0403156,-0.0481322,-0.0226309,0.0101445,0.00725318,-0.0440685,0.00375784,-0.325274,0.0923573,3.07071,3.07163,1,1
11.6249,1.29944,-0.0765331,-0.0613344,0.125938,-0.182255,0.0413945,0.016118,0.0346747,0.0386705,-0.0481349,-0.02264,0.0101701,0.00724588,-0.0440707,0.00351093,-0.334417,0.103326,3.07269,3.06959,1,1
11.6953,1.3081,-0.0894629,-0.0599624,0.123317,-0.184508,0.0425694,-0.0867676,-0.0447706,0.0297527,-0.0481379,-0.0226496,0.0101974,0.00725559,-0.044072,0.00328444,-0.338575,0.104436,3.07464,3.07134,1,1
11.7659,1.31677,-0.102658,-0.0592912,0.120958,-0.189401,0.0440342,-0.0915514,-0.0887606,0.0397549,-0.0481423,-0.0226644,0.0102391,0.00727411,-0.0440727,0.00274695,-0.349833,0.111238,3.08182,3.07339,1,1
11.8363,1.32493,-0.116268,-0.0592873,0.115601,-0.200162,0.0449554,-0.164184,-0.195604,0.0372257,-0.0481482,-0.0226839,0.0102942,0.00731431,-0.0440681,0.00242508,-0.35011,0.105381,3.08654,3.08072,1,1
11.9068,1.33306,-0.130688,-0.059232,0.112903,-0.211241,0.0444145,-0.113393,-0.19497,0.0180988,-0.048154,-0.0227034,0.0103492,0.00735422,-0.0440642,0.00213076,-0.350885,0.104119,3.09058,3.0854,1,1
11.9772,1.34069,-0.145851,-0.0584127,0.110088,-0.22269,0.0465802,-0.103916,-0.204386,0.0494423,-0.0481585,-0.0227184,0.0103916,0.00739643,-0.0440575,0.00190371,-0.349156,0.100494,3.09381,3.08935,1,1
12.0478,1.3483,-0.16191,-0.058295,0.109828,-0.233497,0.0476722,-0.0457955,-0.187052,0.0426741,-0.0481645,-0.0227382,0.0104475,0.00743668,-0.0440496,0.00194373,-0.340676,0.0933887,3.09296,3.0927,1,1
12.1182,1.35581,-0.178568,-0.059012,0.111702,-0.239408,0.0470237,0.0200272,-0.100274,0.0241699,-0.0481717,-0.0227624,0.0105155,0.00746,-0.0440446,0.00197847,-0.336532,0.0930609,3.09165,3.09177,1,1
12.1888,1.36355,-0.195668,-0.059716,0.113745,-0.243698,0.0468501,0.023904,-0.0726365,0.0305243,-0.0481788,-0.0227861,0.0105824,0.00747756,-0.0440412,0.00163,-0.345101,0.103634,3.09711,3.09051,1,1
12.2592,1.37124,-0.213096,-0.0594922,0.111099,-0.252034,0.0486706,-0.0953863,-0.148552,0.0502787,-0.0481846,-0.0228052,0.0106361,0.00750902,-0.0440365,0.00160301,-0.339756,0.0954917,3.09713,3.09602,1,1
12.3298,1.37897,-0.231136,-0.059266,0.112333,-0.258131,0.0488749,-0.000972629,-0.102993,0.0301533,-0.0481903,-0.0228244,0.0106899,0.00753272,-0.0440328,0.00159738,-0.336731,0.095191,3.09634,3.09589,1,1
12.4002,1.38665,-0.24951,-0.0598262,0.113061,-0.26291,0.0484462,-0.00684053,-0.0825144,0.0261202,-0.0481973,-0.0228478,0.010756,0.00755168,-0.0440295,0.00158755,-0.33439,0.0946997,3.09567,3.0952,1,1
12.4708,1.39452,-0.268262,-0.0603722,0.114152,-0.266017,0.04886,-0.00195158,-0.0536244,0.038888,-0.0482043,-0.022871,0.0108211,0.00756435,-0.044028,0.00143669,-0.337418,0.0994861,3.09774,3.09459,1,1
12.5411,1.40235,-0.28719,-0.0600186,0.113653,-0.270748,0.0505525,-0.0413579,-0.0849217,0.0488844,-0.0482098,-0.0228897,0.0108734,0.00758262,-0.0440257,0.00118805,-0.341385,0.10045,3.10248,3.09655,1,1
12.6117,1.41032,-0.306586,-0.0588644,0.11317,-0.276854,0.0513862,-0.0497426,-0.107607,0.0329485,-0.0482141,-0.0229041,0.0109141,0.00760611,-0.044023,0.00097125,-0.344026,0.100447,3.10672,3.10132,1,1
12.6821,1.41803,-0.326354,-0.058446,0.112693,-0.284438,0.0519459,-0.0401894,-0.13402,0.0335865,-0.0482199,-0.0229234,0.0109681,0.00763501,-0.0440183,0.000949978,-0.339806,0.0965042,3.10665,3.10563,1,1
12.7527,1.42589,-0.346711,-0.0573167,0.112415,-0.289898,0.0531876,-0.0408245,-0.0959658,0.0396042,-0.0482244,-0.0229385,0.0110106,0.00765607,-0.0440151,0.00110898,-0.329266,0.0818027,3.10321,3.10565,1,1
12.8231,1.43366,-0.367249,-0.0555111,0.118475,-0.290316,0.0557482,0.136449,-0.00243023,0.0514078,-0.0482278,-0.0229498,0.0110422,0.00765969,-0.0440126,0.00124992,-0.325156,0.0850478,3.09946,3.10212,1,1
12.8937,1.44184,-0.38772,-0.0529518,0.123597,-0.288401,0.0571298,0.117877,0.0351387,0.0304527,-0.0482301,-0.0229576,0.0110642,0.0076545,-0.0440121,0.00114021,-0.332228,0.101132,3.10098,3.09853,1,1
12.9643,1.45043,-0.408186,-0.0503717,0.122951,-0.290108,0.0597874,-0.0453184,-0.0339155,0.0498753,-0.0482328,-0.0229666,0.0110894,0.00766154,-0.0440117,0.00117783,-0.328915,0.0949004,3.09932,3.09993,1,1
13.0349,1.45902,-0.428722,-0.0479072,0.124305,-0.289856,0.0608884,0.00949997,0.00284726,0.0302038,-0.0482358,-0.0229767,0.0111178,0.00766136,-0.044012,0.00120954,-0.327698,0.0938684,3.09755,3.09824,1,1
13.1052,1.46769,-0.449167,-0.0447944,0.125969,-0.28912,0.0629725,0.0191481,0.0111179,0.0395746,-0.0482378,-0.0229836,0.0111372,0.00765979,-0.0440125,0.00123071,-0.327422,0.0945265,3.09589,3.09639,1,1
13.1758,1.47649,-0.469592,-0.041795,0.127844,-0.288072,0.0643254,0.0237998,0.016803,0.0310774,-0.0482403,-0.0229919,0.0111604,0.00765678,-0.0440132,0.00111319,-0.334039,0.104831,3.09772,3.09476,1,1
13.2462,1.48542,-0.489938,-0.0388867,0.126008,-0.289438,0.0651921,-0.0791658,-0.0307692,0.0245371,-0.0482431,-0.0230015,0.0111873,0.00766171,-0.0440137,0.000959817,-0.338208,0.103047,3.10181,3.09666,1,1
13.3168,1.49432,-0.510638,-0.0361009,0.124248,-0.294166,0.0667166,-0.0852268,-0.0877728,0.0378141,-0.0482463,-0.0230123,0.0112177,0.00767842,-0.0440115,0.000832709,-0.339731,0.0999928,3.10542,3.10069,1,1
13.3872,1.50287,-0.531584,-0.0333825,0.123259,-0.299789,0.0682533,-0.0553768,-0.104092,0.0378361,-0.0482498,-0.0230242,0.0112513,0.00769915,-0.0440081,0.000759735,-0.339194,0.0986498,3.10715,3.10437,1,1
13.4578,1.51151,-0.553054,-0.0300505,0.123331,-0.305344,0.0700427,-0.0318576,-0.0997214,0.0388994,-0.0482525,-0.0230332,0.0112765,0.00771973,-0.0440045,0.000706544,-0.338203,0.098708,3.1083,3.10606,1,1
13.5282,1.52001,-0.574745,-0.0268361,0.123222,-0.30971,0.0720122,-0.0320142,-0.0805895,0.0422678,-0.0482555,-0.0230436,0.0113057,0.00773583,-0.0440019,0.000659872,-0.337407,0.0979805,3.10947,3.10734,1,1
13.5988,1.52868,-0.596882,-0.0237713,0.122875,-0.314168,0.0733979,-0.0443848,-0.0818529,0.0370674,-0.048259,-0.0230553,0.0113386,0.00775215,-0.0439997,0.000424192,-0.34439,0.08994,3.12189,3.10851,1,1
13.6692,1.53697,-0.619431,-0.0208079,0.125664,-0.3232,0.0739182,0.0554646,-0.158854,0.0252905,-0.0482628,-0.0230683,0.0113752,0.00778725,-0.0439927,0.000211716,-0.34585,0.072814,3.13718,3.12082,1,1
13.7398,1.54531,-0.642845,-0.0180216,0.134135,-0.333478,0.0757618,0.214685,-0.170351,0.0439854,-0.048267,-0.0230824,0.0114152,0.00782998,-0.0439828,6.69099e-05,-0.346319,0.0739319,-3.13473,3.13618,1,1
13.8102,1.55421,-0.666948,-0.0169024,0.142516,-0.344068,0.075073,0.217243,-0.175136,0.0226889,-0.0482739,-0.0231059,0.0114814,0.00787273,-0.0439744,0.000521898,-0.307748,0.0316263,3.13055,-3.13592,1,1
13.8808,1.56334,-0.690715,-0.0168856,0.164329,-0.332541,0.0754405,0.633898,0.203569,0.00724125,-0.0482821,-0.0231338,0.0115598,0.0078389,-0.043975,0.000862127,-0.293099,0.0124281,3.11746,3.12964,1,1
13.9512,1.57491,-0.713855,-0.0180957,0.196258,-0.315825,0.0742941,0.837923,0.328068,0.00835991,-0.0482914,-0.0231656,0.0116495,0.00777833,-0.0439788,0.000961155,-0.307031,0.0896858,3.1098,3.11657,1,1
14.0218,1.58871,-0.735563,-0.019513,0.199097,-0.302708,0.0733777,0.0569081,0.222377,0.0386276,-0.0483016,-0.0232009,0.0117491,0.00772861,-0.0439855,0.00102826,-0.310724,0.0899092,3.10448,3.10891,1,1
14.0922,1.60288,-0.75657,-0.0209708,0.202862,-0.292307,0.0718017,0.0653207,0.179101,0.0276594,-0.0483116,-0.0232354,0.0118469,0.00769137,-0.0439906,0.000983173,-0.319689,0.0972783,3.10601,3.10344,1,1
14.1628,1.61722,-0.777035,-0.0230473,0.203356,-0.286651,0.0698105,-0.0205927,0.0943944,0.027976,-0.0483225,-0.0232733,0.0119541,0.00767028,-0.0439943,0.000917866,-0.326419,0.0962753,3.10958,3.10483,1,1
14.2332,1.63148,-0.797266,-0.0250346,0.204377,-0.285269,0.0692309,-0.00529295,0.0214523,0.0481033,-0.048333,-0.0233102,0.0120587,0.00766579,-0.0439953,0.000863091,-0.330565,0.0976713,3.11246,3.10842,1,1
14.3038,1.64594,-0.817615,-0.0276009,0.204491,-0.286155,0.0683974,-0.030244,-0.0185383,0.0470037,-0.0483443,-0.0233501,0.0121722,0.0076695,-0.0439948,0.000851683,-0.330543,0.0955471,3.11249,3.11145,1,1
14.3742,1.66027,-0.837878,-0.0301207,0.204915,-0.28667,0.0660789,-0.0172648,-0.012214,0.0271387,-0.0483552,-0.0233889,0.0122824,0.00767192,-0.0439947,0.000859851,-0.329262,0.0931239,3.11081,3.11134,1,1
14.4449,1.6747,-0.858246,-0.0325839,0.206878,-0.286663,0.0640889,0.0268303,-0.000989432,0.0289011,-0.0483658,-0.0234264,0.0123893,0.00767319,-0.0439945,0.000862521,-0.329377,0.0955614,3.1094,3.10962,1,1
14.5152,1.68922,-0.878513,-0.0350121,0.20813,-0.286594,0.0621591,0.00282311,-0.00138191,0.0288229,-0.0483759,-0.0234628,0.0124931,0.007674,-0.0439944,0.000860111,-0.329725,0.0963417,3.10843,3.10819,1,1
14.5858,1.70395,-0.898863,-0.0372966,0.208976,-0.286568,0.0619526,-0.00699478,-0.00148497,0.0507689,-0.0483858,-0.023498,0.0125938,0.00767436,-0.0439945,0.000847416,-0.331268,0.0984726,3.10861,3.10742,1,1
14.6562,1.71862,-0.919143,-0.0402606,0.209154,-0.287423,0.0597676,-0.0264126,-0.018954,0.0285521,-0.0483964,-0.0235361,0.012703,0.00767782,-0.0439941,0.000834938,-0.331817,0.0982912,3.10889,3.10755,1,1
14.7268,1.73353,-0.939615,-0.0430504,0.208788,-0.288736,0.0583596,-0.0457243,-0.0269661,0.0358753,-0.0484066,-0.0235729,0.0128084,0.00768285,-0.0439932,0.000912233,-0.31279,0.0413362,3.10511,3.1077,1,1
14.7972,1.74824,-0.959857,-0.0442987,0.229426,-0.281529,0.058673,0.541666,0.141475,0.0124369,-0.0484142,-0.0236005,0.0128878,0.00766415,-0.0439938,0.000870568,-0.331493,0.109421,3.10717,3.10413,1,1
14.8679,1.76475,-0.97989,-0.0444649,0.225962,-0.282838,0.0600269,-0.136413,-0.0333073,0.0429258,-0.0484206,-0.0236238,0.0129548,0.00766827,-0.0439933,0.000857038,-0.330298,0.0967609,3.10861,3.10617,1,1
14.9382,1.78064,-0.999847,-0.0439784,0.226124,-0.282852,0.0603525,-0.030184,-0.00310665,0.0389252,-0.048426,-0.0236431,0.0130103,0.00766848,-0.0439934,0.000845343,-0.331863,0.0979153,3.10886,3.10755,1,1
15.0089,1.7967,-1.01995,-0.0426044,0.225983,-0.284146,0.0615323,-0.0320913,-0.0278656,0.036541,-0.0484302,-0.0236587,0.0130552,0.00767356,-0.0439927,0.000851435,-0.329259,0.0931395,3.10722,3.10785,1,1
15.0798,1.8127,-1.04019,-0.0413512,0.22743,-0.284427,0.0627943,0.00479221,-0.00677833,0.045064,-0.0484346,-0.0236748,0.0131017,0.00767488,-0.0439925,0.000881855,-0.321492,0.0741793,3.10387,3.10623,1,1
15.1505,1.8284,-1.0602,-0.0396439,0.235243,-0.281401,0.0640131,0.204336,0.0619421,0.0436449,-0.0484381,-0.0236875,0.0131383,0.00766678,-0.0439936,0.000905317,-0.320233,0.0768026,3.1007,3.10278,1,1
15.2209,1.84494,-1.07986,-0.037609,0.243125,-0.277347,0.065593,0.190033,0.0774016,0.0353098,-0.0484417,-0.0237007,0.0131768,0.00765534,-0.0439953,0.000884963,-0.330887,0.106753,3.10157,3.0997,1,1
15.2915,1.86232,-1.09944,-0.0348262,0.240147,-0.2776,0.0667336,-0.117726,-0.0113793,0.0263233,-0.0484445,-0.023711,0.0132067,0.00765493,-0.0439956,0.000874265,-0.331091,0.0989428,3.1025,3.10063,1,1
15.3619,1.87922,-1.11905,-0.0323776,0.240312,-0.278009,0.0680891,-0.0320897,-0.0106269,0.0405369,-0.0484476,-0.0237224,0.0132396,0.00765623,-0.0439955,0.000865122,-0.332532,0.10064,3.10267,3.1013,1,1
15.4325,1.89629,-1.13878,-0.0298329,0.239499,-0.279497,0.0695802,-0.0493814,-0.0335591,0.037158,-0.0484509,-0.0237346,0.0132752,0.00766129,-0.0439947,0.000839972,-0.33558,0.101203,3.1069,3.10155,1,1
15.5029,1.91311,-1.15867,-0.0276331,0.238754,-0.282449,0.0703148,-0.0557987,-0.0634315,0.0369406,-0.0484545,-0.0237478,0.0133136,0.00767118,-0.0439927,0.000838127,-0.332389,0.096642,3.10652,3.10579,1,1
15.5735,1.93001,-1.17875,-0.0253305,0.239267,-0.2842,0.0721115,-0.0108826,-0.0369577,0.046608,-0.0484583,-0.0237618,0.0133544,0.00767729,-0.0439917,0.000835833,-0.331148,0.0973945,3.10601,3.10548,1,1
15.6439,1.94686,-1.19883,-0.0224963,0.239597,-0.284575,0.0734791,-0.0267749,-0.0114886,0.039444,-0.0484613,-0.0237729,0.0133868,0.00767907,-0.0439914,0.000848016,-0.326425,0.0879242,3.10264,3.10491,1,1
15.7145,1.96368,-1.21895,-0.0198014,0.243425,-0.283724,0.0753279,0.0870653,0.0178197,0.047164,-0.0484646,-0.0237851,0.0134222,0.00767779,-0.0439916,0.000838311,-0.331586,0.102211,3.10332,3.10151,1,1
15.7849,1.98088,-1.23901,-0.0171801,0.241669,-0.284737,0.0768922,-0.0854301,-0.0261928,0.0442724,-0.0484681,-0.0237982,0.0134606,0.00768041,-0.0439912,0.000826777,-0.333438,0.100679,3.10516,3.10237,1,1
15.8556,1.9981,-1.25922,-0.0145044,0.240573,-0.286085,0.0780103,-0.0599197,-0.0327212,0.0391378,-0.0484719,-0.0238123,0.0135019,0.00768494,-0.0439904,0.000817429,-0.334861,0.101454,3.10642,3.10412,1,1
15.926,2.01507,-1.2795,-0.0120988,0.239212,-0.288044,0.078983,-0.0679988,-0.0464801,0.0389853,-0.048476,-0.0238274,0.0135459,0.00769105,-0.0439893,0.00078979,-0.33951,0.0950999,3.11585,3.10514,1,1
15.9966,2.03203,-1.30012,-0.00964841,0.239637,-0.292227,0.0798393,-0.00613368,-0.0942955,0.0388308,-0.0484804,-0.0238433,0.0135925,0.00770565,-0.0439862,0.000785536,-0.335576,0.0941104,3.11703,3.11471,1,1
16.067,2.04885,-1.32092,-0.00745439,0.240299,-0.295192,0.0809714,-0.00620329,-0.0684567,0.0442562,-0.0484849,-0.02386,0.0136417,0.00771623,-0.0439842,0.000782706,-0.332849,0.0945584,3.11749,3.11602,1,1
16.1377,2.06591,-1.34189,-0.00530441,0.241236,-0.296487,0.0822768,-8.19564e-05,-0.032389,0.0485497,-0.0484897,-0.0238776,0.013693,0.00772157,-0.0439831,0.000806929,-0.316315,0.0615126,3.11115,3.11633,1,1
16.2081,2.08283,-1.36251,-0.0033935,0.25438,-0.291128,0.0829287,0.34083,0.113178,0.0303087,-0.0484947,-0.0238958,0.0137464,0.00770912,-0.043985,0.000803232,-0.328148,0.101402,3.11018,3.11006,1,1
16.2787,2.10099,-1.38302,-0.00146997,0.253553,-0.290465,0.0834062,-0.0552745,0.00925425,0.036643,-0.0484999,-0.0239147,0.0138019,0.00770665,-0.0439855,0.000798949,-0.32977,0.0968236,3.11131,3.10923,1,1
16.3491,2.11891,-1.40351,0.000282974,0.254133,-0.290701,0.0834206,-0.0206536,-0.00775768,0.0357685,-0.0485052,-0.0239342,0.0138592,0.00770744,-0.0439854,0.000758637,-0.335032,0.0328561,-3.1396,3.11029,1,1
16.4198,2.13585,-1.42475,0.0016859,0.275415,-0.295431,0.0839313,0.619128,-0.0587206,0.017024,-0.0485107,-0.0239543,0.0139182,0.00773231,-0.0439793,0.000754613,-0.33531,0.0800827,-3.1356,-3.14081,1,1
16.4902,2.1551,-1.44582,0.00323523,0.281891,-0.298014,0.0831729,0.165471,-0.0584043,0.026597,-0.0485163,-0.0239749,0.0139785,0.00774449,-0.043977,0.000817229,-0.294581,0.0283607,3.12379,-3.13679,1,1
16.5609,2.17436,-1.46642,0.00413239,0.306185,-0.283542,0.0857325,0.679299,0.333983,0.01161,-0.048522,-0.0239958,0.0140399,0.00770095,-0.0439823,0.000868847,-0.281516,-0.0541826,3.11645,3.12274,1,1
16.6313,2.19511,-1.48444,0.00497351,0.358017,-0.262941,0.0840356,1.47108,0.430333,-0.0940351,-0.0485278,-0.024017,0.0141023,0.00764539,-0.0439906,0.000900659,-0.296143,0.0217711,3.10982,3.1156,1,1
16.702,2.21969,-1.50252,0.00590535,0.384843,-0.249806,0.0822002,0.74782,0.297549,0.00444126,-0.0485336,-0.0240384,0.0141654,0.00760386,-0.0439959,0.000890367,-0.322781,0.101647,3.1113,3.10889,1,1
16.7698,2.24619,-1.51912,0.00682616,0.384227,-0.245921,0.0830481,-0.0770985,0.0782845,0.0497217,-0.0485393,-0.02406,0.014229,0.00759009,-0.0439984,0.000882285,-0.327444,0.0861961,3.11539,3.11028,1,1
16.8404,2.27351,-1.53652,0.00794998,0.389073,-0.245481,0.0836434,0.103595,0.00849156,0.0461245,-0.048545,-0.024082,0.0142939,0.00759064,-0.0439983,0.000916364,-0.306735,0.0355674,3.10677,3.11415,1,1
16.9108,2.30131,-1.55303,0.00873245,0.415107,-0.235516,0.0838107,0.599853,0.206146,0.0189972,-0.0485508,-0.0241042,0.0143595,0.00756986,-0.044001,0.000857628,-0.335978,0.0246044,-3.13169,3.10584,1,1
16.9815,2.3296,-1.57056,0.00962541,0.439016,-0.241249,0.083215,0.6907,-0.0623838,0.010745,-0.0485565,-0.0241266,0.014426,0.00759826,-0.043993,0.000838801,-0.332109,-0.0146137,-3.10068,-3.13281,1,1
17.0519,2.3609,-1.58756,0.00883765,0.479333,-0.241617,0.0838323,1.07495,0.0126722,-0.0237379,-0.048564,-0.0241562,0.0145137,0.00762384,-0.0439862,0.000891058,-0.317787,0.150801,-3.13333,-3.10165,1,1
17.1226,2.3971,-1.60343,0.00926908,0.463834,-0.234946,0.0855339,-0.539627,0.11086,0.00169659,-0.0485704,-0.024182,0.0145903,0.00759303,-0.0439913,0.000897354,-0.321147,0.107651,-3.13958,-3.13458,1,1
17.193,2.43139,-1.61951,0.00787948,0.463795,-0.230594,0.0833841,-0.118181,0.0727386,0.0443516,-0.0485783,-0.0242147,0.0146875,0.00757863,-0.0439938,0.000898652,-0.324341,0.100028,3.14106,-3.14067,1,1
17.2637,2.46584,-1.63535,0.00730449,0.464592,-0.227011,0.0823705,-0.0525374,0.0638119,0.0409565,-0.0485852,-0.0242433,0.0147726,0.00756618,-0.0439956,0.000922251,-0.325334,0.127023,3.12674,3.14003,1,1
17.3341,2.50026,-1.65107,0.00624061,0.457772,-0.224499,0.0790894,-0.307166,0.0396695,0.0308428,-0.0485919,-0.0242714,0.0148566,0.00755242,-0.0439983,0.000923668,-0.324908,0.0981947,3.12504,3.12573,1,1
17.4047,2.53443,-1.66655,0.00617863,0.459566,-0.221711,0.0781464,-0.0234352,0.049143,0.0386963,-0.0485976,-0.0242956,0.0149288,0.00754308,-0.0439998,0.000936441,-0.326157,0.108386,3.11771,3.12388,1,1
17.4751,2.56873,-1.68183,0.00582831,0.459003,-0.219033,0.0760698,-0.142483,0.0431254,0.0263329,-0.0486032,-0.0243196,0.0150004,0.0075327,-0.0440016,0.000940032,-0.326543,0.0960787,3.1151,3.11655,1,1
17.5458,2.60346,-1.69697,0.00557985,0.460896,-0.217561,0.0748597,-0.0223845,0.0238495,0.0335283,-0.0486087,-0.0243432,0.0150711,0.00752823,-0.0440024,0.000952737,-0.324874,0.0948906,3.10954,3.11389,1,1
17.6162,2.63835,-1.71191,0.00524484,0.466187,-0.215268,0.0744673,0.00886863,0.0361461,0.0447512,-0.0486141,-0.0243665,0.0151408,0.00752222,-0.0440035,0.00091785,-0.334516,0.0929375,3.1209,3.10832,1,1
17.6869,2.67398,-1.72704,0.00500243,0.469547,-0.217677,0.0729012,0.027643,-0.0521887,0.0257292,-0.0486195,-0.0243895,0.0152097,0.00753219,-0.0440017,0.000898086,-0.334971,0.0769959,3.13122,3.1199,1,1
17.7573,2.70916,-1.74255,0.00538616,0.479634,-0.220426,0.0724072,0.184155,-0.0612594,0.0333395,-0.048624,-0.0244089,0.015268,0.00754722,-0.0439991,0.000953037,-0.313136,0.0600202,3.11404,3.13015,1,1
17.828,2.74429,-1.75805,0.0047094,0.493368,-0.21379,0.070093,0.356686,0.147944,0.0181885,-0.0486284,-0.0244282,0.015326,0.0075277,-0.0440016,0.000934174,-0.33026,0.102186,3.11977,3.11306,1,1
17.8984,2.78158,-1.77306,0.00474497,0.495543,-0.213978,0.0702433,-0.0545794,-0.015235,0.0453501,-0.0486328,-0.0244471,0.0153828,0.00752924,-0.0440014,0.000922542,-0.329619,0.0738136,3.12881,3.11881,1,1
17.9691,2.81894,-1.78824,0.00467578,0.504395,-0.214418,0.0691501,0.206752,-0.00630097,0.0225229,-0.0486371,-0.0244659,0.0154392,0.00753428,-0.0440005,0.000963299,-0.311952,0.0608093,3.11327,3.12773,1,1
18.0395,2.8585,-1.80197,0.00500883,0.521061,-0.206646,0.0691783,0.338078,0.153646,0.0364819,-0.0486414,-0.0244844,0.0154949,0.00751321,-0.0440038,0.0010122,-0.282573,-0.0760169,3.11302,3.11232,1,1
18.1102,2.89288,-1.81663,0.00335359,0.576892,-0.189619,0.0766633,1.69436,0.40575,-0.12044,-0.0486456,-0.0245028,0.0155503,0.00745861,-0.0440112,0.00105647,-0.278131,-0.0805202,3.11278,3.11217,1,1
18.1806,2.93962,-1.82593,0.00366546,0.642449,-0.167355,0.0678932,1.71851,0.450892,-0.138252,-0.0486497,-0.0245208,0.0156044,0.00739638,-0.0440185,0.00108533,-0.300779,0.0297933,3.10903,3.11173,1,1
18.2513,2.98669,-1.83694,0.00343816,0.666648,-0.155012,0.0679382,0.647989,0.264288,0.012208,-0.0486536,-0.0245385,0.015658,0.00735547,-0.0440242,0.00110146,-0.312024,0.0710005,3.1051,3.10802,1,1
18.3217,3.0381,-1.84641,0.00334981,0.679189,-0.146496,0.0668327,0.229818,0.157246,0.0289469,-0.0486575,-0.0245561,0.0157112,0.00732901,-0.0440281,0.00113784,-0.303754,0.0301182,3.10154,3.10405,1,1
18.3924,3.08854,-1.85587,0.00324233,0.703782,-0.135762,0.0686056,0.644868,0.217913,0.0196552,-0.0486612,-0.0245735,0.0157639,0.00729561,-0.0440328,0.00117031,-0.303933,0.0317041,3.09863,3.10032,1,1
18.4628,3.14302,-1.86346,0.00288127,0.729822,-0.123846,0.066601,0.63059,0.22746,0.0140915,-0.0486647,-0.0245907,0.0158162,0.00725998,-0.0440382,0.00121281,-0.297549,0.00423262,3.09768,3.09745,1,1
18.5335,3.19735,-1.87085,0.0029477,0.763271,-0.110269,0.0701104,0.902572,0.271669,0.0105906,-0.0486681,-0.0246077,0.0158678,0.00721683,-0.0440436,0.0012723,-0.293172,-0.00571886,3.09405,3.09672,1,1
18.6039,3.2563,-1.87613,0.00223053,0.803213,-0.0937346,0.0670449,1.02385,0.323936,-0.0262041,-0.0486714,-0.0246245,0.0159193,0.00716921,-0.0440508,0.0013301,-0.295536,0.00870331,3.0914,3.09301,1,1
18.6746,3.31676,-1.88122,0.00235419,0.835413,-0.0801738,0.0678396,0.860715,0.271723,-0.00167561,-0.0486746,-0.024641,0.0159697,0.00712831,-0.0440564,0.00137367,-0.301243,0.0356472,3.08908,3.09032,1,1
18.7451,3.38085,-1.88494,0.0018706,0.86077,-0.0674801,0.0659305,0.595054,0.240236,0.0125599,-0.0486775,-0.0246574,0.01602,0.00709202,-0.0440613,0.00133816,-0.331166,0.119867,3.08865,3.08792,1,1
18.8158,3.44712,-1.88893,0.0018902,0.857473,-0.0665352,0.0660531,-0.237956,-2.75299e-06,0.0347433,-0.0486803,-0.0246735,0.0160697,0.0070868,-0.0440632,0.00130038,-0.336357,0.114357,3.09081,3.08733,1,1
18.8863,3.51271,-1.8933,0.00202549,0.855362,-0.0689246,0.0660302,-0.187576,-0.0573232,0.0450335,-0.048683,-0.0246895,0.0161191,0.00709377,-0.0440624,0.00132315,-0.324798,0.0812836,3.08916,3.0897,1,1
18.9569,3.57844,-1.89741,0.00194305,0.864292,-0.0667438,0.0646782,0.135481,0.0365014,0.0229216,-0.0486856,-0.0247053,0.0161681,0.0070891,-0.0440632,0.00134625,-0.320137,0.0727381,3.08781,3.08793,1,1
19.0274,3.64491,-1.90105,0.0017303,0.876326,-0.0624971,0.0641362,0.221049,0.0742598,0.030529,-0.0486881,-0.0247209,0.0162166,0.00707803,-0.0440648,0.00136897,-0.319575,0.0755741,3.08583,3.08662,1,1
19.0981,3.71238,-1.90432,0.00150315,0.887241,-0.0573112,0.0636213,0.193935,0.0903658,0.0341368,-0.0486905,-0.0247363,0.0162646,0.0070634,-0.044067,0.0013302,-0.335423,0.116656,3.08589,3.08482,1,1
19.1685,3.78058,-1.90783,0.00140918,0.884837,-0.058716,0.0629513,-0.197481,-0.0400915,0.0268412,-0.0486928,-0.0247516,0.0163122,0.00706785,-0.0440669,0.00133855,-0.32861,0.0928077,3.08512,3.08482,1,1
19.2392,3.84892,-1.91126,0.0012124,0.889839,-0.0580086,0.0617166,0.0203797,0.00508707,0.0236959,-0.0486951,-0.0247667,0.0163593,0.00706738,-0.044067,0.00139585,-0.313895,0.0529179,3.08363,3.08405,1,1
19.3097,3.91976,-1.91367,-0.000919392,0.910576,-0.0512298,0.0602604,0.439536,0.121933,0.0244312,-0.0486981,-0.0247869,0.0164225,0.007049,-0.0440688,0.00145418,-0.311704,0.0576658,3.08092,3.08252,1,1
19.381,3.99143,-1.91551,-0.00203198,0.928215,-0.0424093,0.0595207,0.385012,0.155115,0.0284433,-0.0487006,-0.0248038,0.0164752,0.00702254,-0.0440718,0.00144602,-0.325885,0.0987632,3.0791,3.07975,1,1
19.4515,4.06362,-1.91736,-0.0029843,0.931098,-0.0399687,0.0586977,-0.0474235,0.0327326,0.0318584,-0.048703,-0.0248202,0.0165268,0.00701478,-0.044074,0.00137036,-0.3385,0.118338,3.08138,3.07804,1,1
19.5222,4.13614,-1.91974,-0.00384293,0.927842,-0.043641,0.0562691,-0.234806,-0.082707,0.00770092,-0.0487053,-0.0248364,0.0165774,0.00702612,-0.0440732,0.00129845,-0.342707,0.118189,3.08406,3.08034,1,1
19.5926,4.20772,-1.92268,-0.00464388,0.923624,-0.0494742,0.0557082,-0.237888,-0.12164,0.0292339,-0.0487076,-0.0248522,0.0166269,0.00704544,-0.0440699,0.00134494,-0.324118,0.0731357,3.08358,3.08298,1,1
19.6633,4.2795,-1.92503,-0.00562683,0.935063,-0.0461443,0.0552261,0.216698,0.0566994,0.0272951,-0.0487099,-0.0248677,0.0166754,0.00703752,-0.0440703,0.0014297,-0.314374,0.0568002,3.08028,3.0824,1,1
19.7338,4.35099,-1.92691,-0.00593993,0.95229,-0.0395808,0.0540266,0.382343,0.122398,0.0151405,-0.0487117,-0.0248802,0.0167147,0.00701925,-0.0440723,0.0015076,-0.31243,0.0630269,3.07693,3.07926,1,1
19.8045,4.42357,-1.92808,-0.00609508,0.966946,-0.0312839,0.0545394,0.332526,0.149895,0.0301304,-0.0487136,-0.0248926,0.0167536,0.00699529,-0.0440746,0.00136849,-0.34341,0.128229,3.08037,3.07582,1,1
19.8749,4.49866,-1.92989,-0.00748745,0.959754,-0.0361546,0.0550061,-0.317373,-0.113377,0.0320406,-0.0487162,-0.0249102,0.0168087,0.00701109,-0.0440728,0.00143704,-0.322225,0.0777378,3.07898,3.07914,1,1
19.9456,4.57477,-1.93104,-0.00981201,0.969895,-0.0326612,0.0541633,0.16137,0.0555946,0.0301991,-0.0487192,-0.02493,0.0168706,0.0070038,-0.0440732,0.00134538,-0.340515,0.118392,3.08013,3.07782,1,1
20.0161,4.64979,-1.9329,-0.0108446,0.965404,-0.0368885,0.0549375,-0.229134,-0.0997485,0.0303326,-0.0487217,-0.0249466,0.0169226,0.00701765,-0.0440719,0.00125907,-0.342139,0.110874,3.08333,3.07896,1,1
20.0868,4.72653,-1.9351,-0.0137432,0.965228,-0.0423389,0.0524997,-0.155673,-0.111245,0.034811,-0.0487251,-0.0249681,0.0169899,0.0070357,-0.0440688,0.00122401,-0.339701,0.105143,3.08384,3.08205,1,1
20.1573,4.80265,-1.93768,-0.0161634,0.965524,-0.0476643,0.0522533,-0.109437,-0.112286,0.0373955,-0.0487284,-0.0249889,0.0170547,0.00705519,-0.0440653,0.00123548,-0.331339,0.0917719,3.08305,3.08259,1,1
20.228,4.87984,-1.93999,-0.0195016,0.971323,-0.0480418,0.0506106,0.0282348,-0.0159391,0.0355272,-0.0487321,-0.0250117,0.0171256,0.00705913,-0.0440643,0.00124391,-0.329821,0.0921602,3.08171,3.08184,1,1
20.2984,4.95776,-1.94216,-0.0234494,0.97689,-0.0481146,0.0485676,0.025021,-0.0103584,0.0322495,-0.0487362,-0.0250362,0.0172017,0.00706172,-0.0440637,0.00100105,-0.353119,0.121301,3.09207,3.08072,1,1
20.3691,5.03474,-1.94602,-0.0274084,0.972469,-0.0592164,0.0457601,-0.27225,-0.22389,0.0258932,-0.0487403,-0.0250597,0.0172749,0.00709939,-0.044055,0.00103192,-0.334438,0.0867608,3.09178,3.09097,1,1
20.4396,5.11046,-1.94974,-0.030158,0.979262,-0.0622194,0.0446921,0.0859151,-0.0584265,0.0325317,-0.0487438,-0.0250796,0.0173365,0.00711288,-0.0440516,0.00106845,-0.328562,0.0849486,3.09008,3.09066,1,1
20.5103,5.18754,-1.95305,-0.0335615,0.986365,-0.061466,0.0433333,0.0868958,0.00850082,0.0339565,-0.0487477,-0.0251015,0.017404,0.00711318,-0.0440509,0.000893258,-0.348288,0.115417,3.0971,3.08886,1,1
20.5808,5.26199,-1.95791,-0.0347574,0.981067,-0.0708161,0.0438319,-0.232377,-0.183019,0.0351038,-0.0487507,-0.0251173,0.0174527,0.00714491,-0.0440454,0.000932992,-0.332761,0.0834595,3.09612,3.09596,1,1
20.6515,5.33738,-1.96242,-0.0370267,0.988218,-0.0723886,0.0426689,0.110511,-0.0299845,0.0250788,-0.0487541,-0.0251355,0.0175086,0.0071534,-0.044043,0.000970613,-0.32852,0.0838839,3.09415,3.09508,1,1
20.722,5.41179,-1.96701,-0.0384201,0.994797,-0.0725808,0.0429433,0.106183,-0.00435322,0.0407324,-0.048757,-0.0251504,0.0175545,0.00715681,-0.0440416,0.000894623,-0.337214,0.106138,3.09604,3.09307,1,1
20.7927,5.48564,-1.9723,-0.0388628,0.993681,-0.0764699,0.043087,-0.10557,-0.0765382,0.0319223,-0.0487594,-0.0251625,0.0175912,0.00717118,-0.0440398,0.000826552,-0.339105,0.105494,3.09857,3.09499,1,1
20.8632,5.55992,-1.9777,-0.0398679,0.992684,-0.0806647,0.0427007,-0.0986277,-0.0828731,0.0257082,-0.0487624,-0.0251771,0.017636,0.00718623,-0.0440378,0.000806901,-0.33625,0.0985945,3.09877,3.09741,1,1
20.934,5.63331,-1.98351,-0.040169,0.993668,-0.0837912,0.0431562,-0.0406435,-0.0606946,0.0346985,-0.0487648,-0.0251889,0.0176718,0.00719837,-0.0440359,0.000788688,-0.335105,0.0976483,3.09871,3.09759,1,1
21.0045,5.70642,-1.98951,-0.0403276,0.994976,-0.0868976,0.0436359,-0.0210063,-0.0597535,0.0324602,-0.0487673,-0.0252007,0.0177075,0.0072105,-0.0440338,0.000775371,-0.333891,0.0979873,3.0984,3.09758,1,1
21.0752,5.77903,-1.99577,-0.0397344,0.995755,-0.0893155,0.0443757,-0.0337932,-0.047294,0.0315018,-0.0487692,-0.0252097,0.0177349,0.00721966,-0.0440325,0.000712725,-0.336837,0.101946,3.10113,3.09728,1,1
21.1457,5.85133,-2.00228,-0.0390149,0.994113,-0.0929716,0.0451276,-0.0936233,-0.0738454,0.0290508,-0.0487713,-0.025219,0.0177629,0.00723188,-0.0440307,0.000660291,-0.336764,0.097083,3.1038,3.10001,1,1
21.2164,5.92292,-2.00941,-0.0375991,0.994852,-0.0971244,0.04687,-0.0267273,-0.0792035,0.0406828,-0.0487728,-0.0252258,0.0177834,0.00724765,-0.0440277,0.00064525,-0.334846,0.096829,3.10379,3.10261,1,1
21.2869,5.99442,-2.01653,-0.0361463,0.995494,-0.100054,0.0480379,-0.0224932,-0.0572576,0.0314016,-0.0487745,-0.0252331,0.0178051,0.00725846,-0.0440258,0.000572669,-0.339557,0.103448,3.1075,3.1026,1,1
21.3577,6.06618,-2.02424,-0.0347181,0.993772,-0.104997,0.050495,-0.101048,-0.0980608,0.0516872,-0.0487763,-0.0252408,0.0178284,0.00727554,-0.0440229,0.000514465,-0.339827,0.0978121,3.11145,3.10634,1,1
21.4281,6.13748,-2.03232,-0.0332184,0.9939,-0.110355,0.0508222,-0.0321321,-0.102608,0.0215368,-0.0487782,-0.0252491,0.017853,0.00729486,-0.0440195,0.000495639,-0.33674,0.0953419,3.11245,3.11033,1,1
21.4989,6.20907,-2.04064,-0.0318757,0.994907,-0.114233,0.0516402,-0.0178445,-0.0761313,0.0302687,-0.0487803,-0.0252578,0.017879,0.00730955,-0.0440166,0.00059734,-0.319668,0.0699782,3.10525,3.11141,1,1
21.5696,6.28059,-2.04804,-0.030015,1.00479,-0.109792,0.0523548,0.23787,0.0851927,0.0178823,-0.0487819,-0.0252641,0.0178976,0.00729801,-0.0440181,0.000681339,-0.313254,0.0635498,3.09976,3.10427,1,1
21.6403,6.35299,-2.05453,-0.0282044,1.01642,-0.102079,0.0534874,0.303597,0.150419,0.0279198,-0.0487836,-0.025271,0.0179179,0.00727494,-0.0440221,0.000675716,-0.324961,0.0956371,3.09817,3.09869,1,1
21.7108,6.42586,-2.06115,-0.0263414,1.01767,-0.0994082,0.0555144,-0.00783396,0.0454477,0.0439835,-0.0487854,-0.0252784,0.0179401,0.00726594,-0.044024,0.000659373,-0.329607,0.101101,3.09776,3.09709,1,1
21.7815,6.49901,-2.068,-0.0244565,1.01701,-0.0993344,0.0565307,-0.0626011,-0.0039941,0.0312281,-0.0487875,-0.0252866,0.0179641,0.00726522,-0.0440246,0.000544458,-0.342633,0.108115,3.10846,3.0966,1,1
21.852,6.57129,-2.07596,-0.0224969,1.01314,-0.105961,0.0582667,-0.136793,-0.133255,0.0389738,-0.0487897,-0.0252954,0.01799,0.00728729,-0.0440207,0.000459697,-0.343243,0.0876734,3.12041,3.10741,1,1
21.9228,6.64335,-2.08473,-0.020651,1.01653,-0.113072,0.0592774,0.0667829,-0.132352,0.0334797,-0.0487922,-0.0253048,0.0180178,0.00731484,-0.0440151,0.000571394,-0.314964,0.0374165,3.11403,3.11933,1,1
21.9933,6.71578,-2.09198,-0.0192557,1.03846,-0.106613,0.0607148,0.57779,0.130351,0.0176849,-0.0487948,-0.0253148,0.0180471,0.00730261,-0.0440146,0.00049499,-0.338864,0.112603,3.12034,3.11294,1,1
22.064,6.79021,-2.09992,-0.0174617,1.03371,-0.10974,0.0626649,-0.177878,-0.0748039,0.0358734,-0.0487975,-0.0253254,0.0180782,0.00731327,-0.0440135,0.000439963,-0.337477,0.0725471,3.1326,3.11921,1,1
22.1345,6.86275,-2.10872,-0.0141905,1.04217,-0.114497,0.0655946,0.217018,-0.079667,0.0412092,-0.0487989,-0.0253305,0.0180933,0.007334,-0.0440092,0.00040064,-0.339658,0.084501,3.13941,3.13147,1,1
22.2053,6.93637,-2.118,-0.0117534,1.04688,-0.11984,0.0667643,0.110519,-0.0960173,0.0343494,-0.0488013,-0.0253398,0.0181204,0.00735755,-0.0440051,0.000420089,-0.335304,0.104634,3.13347,3.13827,1,1
22.2758,7.01048,-2.12691,-0.00955328,1.04471,-0.123003,0.0669214,-0.0976129,-0.0617595,0.0305576,-0.048804,-0.0253498,0.0181498,0.00736707,-0.0440041,0.000428973,-0.331407,0.0981524,3.13062,3.13239,1,1
22.3465,7.08481,-2.13577,-0.00734955,1.04498,-0.124028,0.0679263,-0.0236586,-0.0241137,0.0320997,-0.0488069,-0.0253606,0.0181813,0.00737172,-0.0440037,0.000422286,-0.330628,0.0913309,3.13169,3.12953,1,1
22.417,7.1587,-2.14469,-0.00538618,1.04751,-0.124679,0.0677891,0.0345138,-0.013835,0.0216818,-0.04881,-0.0253721,0.0182149,0.00737581,-0.044003,0.0004054,-0.331425,0.0842359,3.13548,3.13051,1,1
22.4878,7.23275,-2.15392,-0.00352273,1.05195,-0.12606,0.0697641,0.101611,-0.022219,0.0526485,-0.0488133,-0.0253843,0.0182503,0.00738331,-0.0440017,0.00040923,-0.331208,0.0966239,3.13336,3.13446,1,1
22.5583,7.307,-2.16284,-0.000978265,1.05221,-0.126076,0.0708681,-0.0289097,-0.00327322,0.0365648,-0.0488159,-0.025394,0.0182786,0.00738352,-0.0440018,0.000409305,-0.330966,0.0937643,3.13226,3.13221,1,1
22.629,7.3814,-2.17199,0.00310492,1.05326,-0.126997,0.0725056,-0.000302553,-0.0200445,0.0301065,-0.0488171,-0.0253984,0.0182914,0.00738798,-0.0440013,0.00040987,-0.330239,0.0940538,3.13105,3.13112,1,1
22.6995,7.45546,-2.1812,0.00612211,1.05498,-0.127843,0.0741391,0.015886,-0.0163364,0.0414009,-0.0488195,-0.0254072,0.0183169,0.00739177,-0.0440009,0.00038228,-0.330504,0.0707134,3.13993,3.12997,1,1
22.7703,7.52926,-2.19104,0.00965774,1.06396,-0.129842,0.076624,0.235288,-0.0224004,0.0470409,-0.0488214,-0.0254139,0.0183363,0.00740271,-0.0439984,0.00036973,-0.331635,0.0805883,-3.13928,3.1389,1,1
22.8408,7.60374,-2.20058,0.0124893,1.07005,-0.130704,0.0768773,0.140032,-0.0135688,0.0238037,-0.0488244,-0.0254249,0.0183681,0.00740963,-0.0439972,0.000392191,-0.331442,0.114691,3.13495,-3.14038,1,1
22.9115,7.67942,-2.20969,0.0153657,1.06482,-0.1307,0.0781109,-0.186623,-0.0140181,0.0333662,-0.0488277,-0.0254368,0.0184026,0.00740975,-0.0439978,0.000503952,-0.320409,0.126876,3.1077,3.13376,1,1
22.982,7.75446,-2.21761,0.0168796,1.05596,-0.12473,0.0775948,-0.301762,0.106301,0.0204859,-0.0488321,-0.0254528,0.0184489,0.00738341,-0.0440015,0.000566252,-0.312075,0.0768732,3.09744,3.10671,1,1
23.0528,7.82877,-2.22489,0.0187647,1.06353,-0.115469,0.0783066,0.183641,0.176109,0.0340509,-0.0488358,-0.0254661,0.0184873,0.00734978,-0.0440061,0.000541974,-0.324121,0.0962489,3.10033,3.09636,1,1
23.1234,7.90355,-2.23267,0.0225032,1.06439,-0.113441,0.0799362,-0.0137753,0.0349443,0.0369911,-0.0488379,-0.0254737,0.0185095,0.00734242,-0.0440074,0.000531828,-0.327181,0.0975242,3.10105,3.09933,1,1
23.1941,7.97845,-2.24058,0.0261039,1.06495,-0.112529,0.0816023,-0.0175539,0.0145387,0.0411692,-0.0488404,-0.0254826,0.0185352,0.00733933,-0.0440081,0.000522812,-0.329792,0.100873,3.10121,3.10006,1,1
23.2647,8.05275,-2.24855,0.0287181,1.06412,-0.112058,0.0816548,-0.0592713,0.00654828,0.0244179,-0.0488441,-0.0254958,0.0185735,0.00733704,-0.0440086,0.000555982,-0.315726,0.0560007,3.09817,3.1001,1,1
