time,x_hat,y_hat,z_hat,Vx_hat,Vy_hat,Vz_hat,ax_hat,ay_hat,az_hat,ax_bias,ay_bias,az_bias,gx_bias,gy_bias,gz_bias,roll,pitch,yaw, est_heading
2.3335,-5.0146e-06,-1.66259e-05,0.000248369,9.71423e-05,1.8666e-05,-0.000450591,-5.96046e-08,-3.35276e-08,0.0407295,-0.047293,-0.01987,0.002095,0.00632102,-0.0443001,0.00306098,-0.329247,0.0968745,3.12444,0
2.4033,-1.47286e-05,-3.38951e-05,0.00010946,9.52165e-05,2.02171e-05,0.000495612,-8.55327e-05,1.93268e-05,0.0407305,-0.047293,-0.01987,0.00209501,0.00632107,-0.0443001,0.00304947,-0.329253,0.0968696,3.13769,0
2.47101,-3.71426e-05,-4.17636e-05,8.12252e-05,0.000347824,2.35239e-05,0.00209356,0.00898695,-0.00330673,0.051115,-0.047293,-0.01987,0.00209501,0.00632244,-0.0442998,0.00301389,-0.328965,0.0978022,-3.14004,0
2.54128,-6.42583e-05,-4.87225e-05,0.000106054,0.000236662,0.00046269,0.00377417,-0.000525475,0.0090209,0.0543346,-0.047293,-0.01987,0.00209503,0.00632061,-0.0442997,0.00301389,-0.329777,0.0978861,-3.1404,0
2.61166,0.000151972,-9.47318e-06,0.000156459,0.000538687,0.000594754,0.00414647,-0.0290276,-0.00197152,0.0293531,-0.047293,-0.01987,0.00209506,0.00632076,-0.0443014,0.00301389,-0.329631,0.0949909,-3.14073,0
2.68193,0.000144829,-1.74791e-05,0.00022493,0.000896306,0.000566913,0.00614373,0.00641304,-0.000750253,0.0618238,-0.047293,-0.01987,0.00209511,0.00632118,-0.0443014,0.00301389,-0.329584,0.0956179,-3.14111,0
2.75234,0.000231003,3.70338e-05,0.000331915,0.00131225,0.000576957,0.00744035,0.00143814,-0.0065229,0.0491858,-0.047293,-0.0198701,0.00209521,0.00632266,-0.0443019,0.00301389,-0.328983,0.0957989,-3.14149,0
2.82261,0.000280913,8.33659e-05,0.000441701,0.00195462,0.00116625,0.00801084,0.0111037,0.0152997,0.0345201,-0.047293,-0.0198701,0.00209536,0.00631898,-0.0443036,0.0031858,-0.330423,0.0968556,3.12868,0
2.89301,0.000564813,0.000201551,0.000559036,0.00246309,0.00112482,0.0084084,-0.0090431,-0.00815296,0.0303411,-0.0472931,-0.0198702,0.00209559,0.00632183,-0.0443046,0.0030921,-0.329706,0.095968,3.13305,0
2.96328,0.000526359,0.000200547,0.000681191,0.00243461,0.000964762,0.00931549,-0.00114864,-0.00447034,0.0397663,-0.0472931,-0.0198703,0.00209594,0.00632385,-0.044304,0.00304016,-0.329341,0.0958744,3.1354,0
3.03368,0.000673807,0.000250461,0.000821693,0.0031103,0.00102066,0.0103017,0.00975943,-0.000965926,0.0407248,-0.0472931,-0.0198705,0.00209643,0.00632511,-0.0443041,0.00315503,-0.329304,0.0968684,3.13009,0
3.10396,0.000402697,0.000194569,0.000991873,0.00222654,0.000835321,0.0116696,-0.020889,-0.00353701,0.048214,-0.0472932,-0.0198707,0.00209712,0.00632584,-0.0443041,0.00272431,-0.329009,0.0947608,-3.13254,0
3.17439,0.000640407,0.000427527,0.00114435,0.00372588,-0.00119341,0.00930727,0.0177458,-0.0697341,-0.0268745,-0.0472933,-0.019871,0.00209805,0.00634726,-0.0443097,0.00272431,-0.323009,0.095831,-3.13258,0
3.24468,-0.00116412,0.000195683,0.0013533,-0.00229498,0.00807927,0.0217741,-0.154057,0.309334,0.257236,-0.0472934,-0.0198715,0.00209932,0.00625671,-0.04432,0.00272431,-0.350499,0.0816039,-3.13567,0
3.31512,-0.00309623,0.000763856,0.00185306,0.00288411,-0.00158267,0.0155585,0.184983,-0.288132,-0.117815,-0.0472936,-0.0198722,0.00210129,0.00632228,-0.0443378,0.00272431,-0.323938,0.0978286,-3.13402,0
3.38539,-0.00176514,0.000876483,0.00196395,0.00710264,-0.00536036,0.00966374,0.104768,-0.142891,-0.0885525,-0.0472939,-0.019873,0.00210372,0.00635653,-0.0443359,0.00272431,-0.310291,0.108171,-3.13314,0
3.45581,0.00361911,0.00104898,0.00203009,-0.00055738,0.0104388,0.0256233,-0.377611,0.470899,0.324625,-0.0472942,-0.019874,0.00210664,0.00628131,-0.0443098,0.00272431,-0.353133,0.0752983,-3.13762,0
3.52609,0.00974128,0.00288267,0.00245838,0.0163928,0.00267611,0.0144336,0.394789,-0.309098,-0.235503,-0.0472946,-0.0198753,0.00211049,0.00633915,-0.0443126,0.00272431,-0.322349,0.115661,-3.13537,0
3.59651,0.0138975,0.0037084,0.00261727,0.0148959,0.00534633,0.0160425,-0.185105,0.0570183,0.0355949,-0.047295,-0.0198768,0.00211496,0.00633336,-0.0443139,0.00272431,-0.328233,0.0976464,-3.13672,0
3.66678,0.014164,0.00386416,0.00281251,0.0146708,0.00552069,0.0169479,-0.00773776,0.00992329,0.0407009,-0.0472956,-0.0198787,0.00212034,0.00633205,-0.0443134,0.00272431,-0.329235,0.0969205,-3.13746,0
3.73722,0.0156047,0.00430378,0.00306893,0.0152073,0.00565895,0.0184869,-0.0213483,-0.00318134,0.0481873,-0.0472962,-0.0198809,0.00212678,0.0063333,-0.0443145,0.00272431,-0.329021,0.0948239,-3.13824,0
3.80749,0.018367,0.00510341,0.00341147,0.0213198,0.00950029,0.0244598,0.141591,0.112812,0.132485,-0.047297,-0.0198836,0.00213461,0.00631838,-0.0443119,0.00272431,-0.339506,0.109054,-3.14034,0
3.87792,0.0199198,0.00563361,0.00399572,0.0218825,0.0104616,0.0293853,-0.00786972,0.0247751,0.117598,-0.047298,-0.019887,0.00214468,0.00631674,-0.0443116,0.00272431,-0.341951,0.108405,3.14141,0
3.94821,0.0230809,0.00652694,0.00473625,0.0269546,0.00800547,0.0306617,0.107808,-0.105069,0.0382748,-0.0472993,-0.0198914,0.00215751,0.0063274,-0.0443168,0.00272431,-0.331603,0.11905,3.14143,0
4.01863,0.0255704,0.00719133,0.00540511,0.0270692,0.0089984,0.0327797,-0.0402039,0.0180024,0.0631342,-0.047301,-0.0198969,0.00217356,0.00632782,-0.0443174,0.00272431,-0.333495,0.115144,3.1401,0
4.08891,0.0259985,0.00738258,0.00601734,0.0259364,0.00874611,0.0336134,-0.029992,-0.00669336,0.0471306,-0.047303,-0.0199036,0.0021931,0.0063297,-0.0443177,0.00272431,-0.332955,0.112164,3.13932,0
4.15935,0.0279883,0.00800292,0.00665279,0.0262106,0.00906367,0.0345452,-0.0204891,-0.00140352,0.0449171,-0.0473054,-0.0199116,0.0022162,0.00633151,-0.0443185,0.00272431,-0.33291,0.110142,3.13826,0
4.22963,0.027383,0.00794851,0.00721194,0.0232199,0.00852834,0.0360957,-0.0732863,-0.010567,0.0654011,-0.0473083,-0.0199209,0.00224344,0.0063344,-0.0443184,0.00272431,-0.332025,0.102879,3.13731,0
4.30006,0.0296858,0.00897188,0.00788222,0.0214923,0.00868947,0.0367316,-0.0692878,-0.026917,0.0393305,-0.0473116,-0.0199317,0.00227484,0.00634305,-0.0443134,0.00284035,-0.329428,0.0963519,3.1323,0
4.37048,0.0301768,0.00924864,0.00841159,0.0210273,0.00884378,0.036064,-0.0129812,0.00483699,0.0197783,-0.0473155,-0.0199442,0.00231094,0.00634284,-0.0443135,0.00293733,-0.329905,0.0950627,3.12821,0
4.44091,0.0311734,0.00975232,0.00892453,0.0212998,0.00876094,0.0369115,0.006778,-0.0097648,0.0489531,-0.0473199,-0.0199582,0.00235162,0.00634824,-0.0443117,0.00333249,-0.329098,0.095856,3.11522,0
4.51121,0.0323631,0.010207,0.00942674,0.0222402,0.00887823,0.0373588,0.0199323,0.00095642,0.0414085,-0.0473248,-0.0199739,0.00239724,0.00634931,-0.0443116,0.00386896,-0.329313,0.097864,3.09917,0
4.58164,0.0339606,0.0107605,0.00990225,0.0226658,0.0092153,0.03681,-0.00772941,0.00617607,0.0215683,-0.0473303,-0.0199913,0.00244794,0.00634786,-0.0443127,0.00419304,-0.329768,0.0970759,3.08955,0
4.65194,0.0341299,0.010944,0.0103174,0.0218088,0.00878608,0.0378985,-0.0243799,-0.0103079,0.0572481,-0.0473363,-0.0200106,0.002504,0.0063527,-0.0443121,0.00425501,-0.328654,0.0947618,3.08737,0
4.72238,0.0355308,0.0114568,0.0107759,0.0223389,0.00903143,0.0385891,5.93662e-05,0.00260511,0.047802,-0.0473429,-0.0200318,0.00256548,0.00635327,-0.0443125,0.0042488,-0.328868,0.0947914,3.0868,0
4.79267,0.0365228,0.011868,0.0111956,0.0229302,0.00932547,0.0383078,0.011736,0.00633201,0.0298414,-0.0473502,-0.020055,0.00263272,0.0063528,-0.0443126,0.00423911,-0.329554,0.0959478,3.08634,0
4.86312,0.0379766,0.0124248,0.0115999,0.0233603,0.00939826,0.0384984,-0.00107753,-0.00293856,0.039196,-0.047358,-0.0200801,0.00270572,0.00635552,-0.0443122,0.00451144,-0.329282,0.0959165,3.08032,0
4.93343,0.0387017,0.0127682,0.0119604,0.0234332,0.00942169,0.0386048,-0.000624716,-0.000286307,0.0391197,-0.0473665,-0.0201072,0.00278463,0.00635709,-0.0443119,0.00449896,-0.329258,0.0958954,3.07998,0
5.00387,0.0396805,0.0131745,0.0123186,0.0241703,0.00964967,0.039427,0.0186371,0.00500267,0.0535879,-0.0473756,-0.0201364,0.00286944,0.00635732,-0.0443118,0.00448449,-0.329909,0.0977416,3.07954,0
5.07418,0.0397011,0.0133377,0.0126426,0.0231617,0.00953769,0.0389141,-0.0277583,-0.001517,0.0285349,-0.0473853,-0.0201676,0.0029603,0.00635784,-0.0443119,0.00453894,-0.329391,0.0950659,3.07771,0
5.14463,0.0409612,0.0138417,0.0129482,0.0238089,0.00969273,0.0384749,0.00876784,0.00128463,0.0294266,-0.0473957,-0.0202008,0.00305682,0.00635891,-0.044312,0.00414132,-0.329586,0.095971,3.08649,0
5.21492,0.0412942,0.0140994,0.0132026,0.0234677,0.00959569,0.0384013,-0.0112637,-0.00269265,0.0377874,-0.0474066,-0.020236,0.00315908,0.00635983,-0.0443116,0.004285,-0.329157,0.0949552,3.08323,0
5.28537,0.0425122,0.0145775,0.0134522,0.0241163,0.00997518,0.0385348,0.00914258,0.00985067,0.0418501,-0.047418,-0.020273,0.00326681,0.00635626,-0.0443129,0.00441667,-0.330013,0.0958456,3.07985,0
5.35568,0.0431365,0.0149222,0.0136809,0.0242021,0.00974162,0.0384616,-0.000373244,-0.00748681,0.0385199,-0.04743,-0.0203119,0.00338014,0.00636003,-0.044312,0.00433014,-0.329337,0.0959185,3.08111,0
5.42615,0.044441,0.0154326,0.0138983,0.0248606,0.00978111,0.0384193,0.00925577,-0.00142334,0.03936,-0.0474426,-0.0203526,0.00349878,0.00636176,-0.0443118,0.00422153,-0.329287,0.0968915,3.08296,0
5.49649,0.0448947,0.0157085,0.0140828,0.0245978,0.00980736,0.0382882,-0.0102162,0.000219673,0.03827,-0.0474557,-0.0203952,0.00362266,0.00636185,-0.0443122,0.00412589,-0.329128,0.0959565,3.08451,0
5.56697,0.0464429,0.0162691,0.0142611,0.0251196,0.0103057,0.0383033,-0.000703871,0.0107084,0.0413618,-0.0474692,-0.0204393,0.00375144,0.00635865,-0.044314,0.00387163,-0.329983,0.0958937,3.08969,0
5.63727,0.0470871,0.0166256,0.0144048,0.0252786,0.0102295,0.0376481,0.000314415,-0.00397555,0.0285883,-0.0474833,-0.0204852,0.00388499,0.00636122,-0.0443135,0.00404206,-0.32961,0.0960214,3.08537,0
5.70774,0.0488106,0.0172553,0.0145292,0.0258351,0.0102915,0.0374498,-0.00184023,-0.00344051,0.0378647,-0.0474978,-0.0205325,0.00402284,0.00636402,-0.0443136,0.00418379,-0.329268,0.0959376,3.08162,0
5.77806,0.0491759,0.0175219,0.0146297,0.0255699,0.0102427,0.0376513,-0.0118642,-0.00271844,0.0461817,-0.0475126,-0.0205812,0.00416491,0.00636559,-0.0443139,0.00422232,-0.328822,0.0948939,3.08018,0
5.84851,0.0509485,0.0181482,0.014718,0.025962,0.0109796,0.0370006,-0.00880682,0.0174459,0.0294619,-0.0475279,-0.0206312,0.00431071,0.00635963,-0.0443169,0.0040304,-0.330133,0.0940005,3.08422,0
5.91883,0.0519859,0.0186332,0.0147674,0.0268684,0.0108767,0.0362652,0.0187998,-0.00651774,0.0279751,-0.0475434,-0.0206823,0.00445991,0.00636472,-0.0443154,0.00386277,-0.329792,0.0959568,3.08756,0
5.98929,0.0539899,0.0193296,0.0148084,0.0272864,0.011441,0.0367446,-0.0119136,0.0110139,0.0521603,-0.0475593,-0.0207345,0.00461216,0.00636129,-0.0443179,0.00394372,-0.330525,0.0948365,3.08497,0
6.0596,0.0545568,0.019696,0.0148599,0.0274291,0.0109967,0.0368775,-0.00171852,-0.0156869,0.0455503,-0.0475755,-0.0207878,0.00476758,0.00636909,-0.0443165,0.00413598,-0.329138,0.0948731,3.08004,0
6.13006,0.0561188,0.0202759,0.0149127,0.028319,0.0116739,0.0373659,0.00916904,0.0162472,0.0527792,-0.0475919,-0.020842,0.0049259,0.00636461,-0.0443185,0.00407337,-0.330562,0.0957582,3.08062,0
6.20037,0.0566167,0.0206201,0.0149708,0.0282753,0.0116669,0.0371521,-0.00950933,-0.0028358,0.0390263,-0.0476086,-0.0208972,0.00508715,0.006367,-0.044319,0.0040111,-0.330132,0.0949837,3.08106,0
6.27084,0.0586866,0.0213687,0.0150282,0.0289955,0.0114674,0.0372257,-0.00299615,-0.0117381,0.0450506,-0.0476255,-0.0209534,0.00525107,0.00637305,-0.0443188,0.00394655,-0.329033,0.0948877,3.08153,0
6.34117,0.059856,0.021861,0.0150636,0.0296657,0.011912,0.0370212,0.0098877,0.0110068,0.0396261,-0.0476427,-0.0210104,0.00541738,0.00637006,-0.0443201,0.00385786,-0.330018,0.0958764,3.08246,0
6.41163,0.0618873,0.0225921,0.0151035,0.0303233,0.0116976,0.0371124,-0.00176072,-0.0106986,0.0456524,-0.04766,-0.0210681,0.00558594,0.00637507,-0.04432,0.00377581,-0.329008,0.0958823,3.08345,0
6.48238,0.0628595,0.0230318,0.0151361,0.030564,0.0117378,0.037189,-0.0012325,-0.00080096,0.0454798,-0.0476776,-0.0211265,0.00575659,0.00637623,-0.0443205,0.00368049,-0.328857,0.0958721,3.08485,0
6.55286,0.0647991,0.0237132,0.0151695,0.0311593,0.0118605,0.0372483,-0.00104827,0.000664316,0.0452976,-0.0476953,-0.0211856,0.00592917,0.00637617,-0.0443217,0.00359389,-0.3288,0.0958691,3.0862,0
6.62317,0.0659878,0.0242039,0.015188,0.0315182,0.0123431,0.0369835,0.000310183,0.0138685,0.038908,-0.0477132,-0.0212453,0.00610343,0.00637002,-0.0443243,0.0035142,-0.32984,0.0959197,3.08708,0
6.69365,0.0679412,0.0249072,0.0151969,0.0321144,0.0125482,0.0367049,-0.000755787,0.00371322,0.0387316,-0.0477312,-0.0213054,0.00627911,0.00636824,-0.0443261,0.00317848,-0.330035,0.0959235,3.09489,0
6.76398,0.0687772,0.0253397,0.0152021,0.0320114,0.0122741,0.0366836,-0.0120426,-0.0103949,0.0437794,-0.0477493,-0.021366,0.0064561,0.00637236,-0.0443263,0.00305357,-0.32896,0.0949122,3.09709,0
6.83445,0.070556,0.0259826,0.0152013,0.0327917,0.0126618,0.0368565,0.00846362,0.00869607,0.0477686,-0.0477675,-0.021427,0.0066342,0.00636991,-0.0443276,0.00294111,-0.329727,0.0957896,3.0987,0
6.90478,0.0717434,0.0264959,0.0151997,0.0331896,0.0129188,0.0365502,0.000528812,0.00475704,0.038168,-0.0477858,-0.0214882,0.00681331,0.00636903,-0.0443288,0.00292862,-0.330087,0.0959303,3.09776,0
6.97524,0.0740385,0.0272917,0.0151741,0.0336465,0.0129291,0.0355455,-0.0100082,-0.00454048,0.0243797,-0.0478041,-0.0215498,0.00699307,0.00637201,-0.0443298,0.00311117,-0.329562,0.0950848,3.09194,0
7.04558,0.0754755,0.0278692,0.0151373,0.0345094,0.0126773,0.0360598,0.015237,-0.010316,0.0543489,-0.0478224,-0.0216114,0.00717326,0.00637837,-0.0443285,0.00330639,-0.328829,0.0967313,3.08595,0
7.11606,0.0779718,0.0286731,0.0151139,0.0347706,0.0129038,0.0359981,-0.0194247,0.00196366,0.0428228,-0.0478408,-0.0216732,0.00735396,0.00637861,-0.0443307,0.00346452,-0.328688,0.0949606,3.0809,0
7.1864,0.0795386,0.0292731,0.0150773,0.0358007,0.0128371,0.0353886,0.0187787,-0.00512556,0.0319118,-0.0478592,-0.0217352,0.00753495,0.00638325,-0.0443298,0.0036399,-0.32845,0.0969413,3.07556,0
7.25688,0.0817135,0.0299959,0.0161309,0.036481,0.0131947,0.0362516,-0.000233054,0.00785795,0.0349483,-0.0478668,-0.0217604,0.00760882,0.00638079,-0.0443319,0.00361769,-0.328984,0.0969794,3.07507,0
7.32722,0.082902,0.0304953,0.0171182,0.0365348,0.0132901,0.0373844,-0.0120117,0.000155311,0.0433245,-0.0478755,-0.0217899,0.00769488,0.00638157,-0.0443334,0.00359121,-0.328718,0.0959623,3.07465,0
7.3977,0.0852151,0.0312732,0.0191358,0.0372932,0.0130652,0.0384191,-0.000245512,-0.0105152,0.0179701,-0.0478744,-0.0217863,0.0076844,0.00638712,-0.0443335,0.00349323,-0.327717,0.0961613,3.07622,0
7.46803,0.0865716,0.0317995,0.0209819,0.0373743,0.0136595,0.0399301,-0.0119705,0.0158242,0.0328588,-0.0478756,-0.0217904,0.00769635,0.00638042,-0.0443371,0.00339465,-0.328729,0.0950242,3.07736,0
7.53852,0.0885707,0.0325058,0.0237957,0.0382475,0.014297,0.0422327,0.00988311,0.01718,0.027606,-0.047868,-0.0217645,0.00762068,0.00637394,-0.0443398,0.00330443,-0.330171,0.0959805,3.07839,0
7.60887,0.0898562,0.0330728,0.026416,0.0383269,0.014133,0.0444231,-0.0117484,-0.0083131,0.032937,-0.0478635,-0.0217495,0.00757686,0.00637805,-0.0443403,0.0033184,-0.329198,0.0950667,3.07699,0
7.67939,0.0921861,0.033862,0.0288502,0.0389377,0.0141513,0.0467262,-0.00327426,-0.00253583,0.0424128,-0.0478621,-0.0217447,0.00756277,0.00637954,-0.0443417,0.00311466,-0.328816,0.0948987,3.08112,0
7.74976,0.0939266,0.0345082,0.0300126,0.0396345,0.0144516,0.0480764,0.0077278,0.00678845,0.0560141,-0.0478746,-0.0217867,0.00768577,0.00637756,-0.0443431,0.00324152,-0.329368,0.095729,3.07681,0
7.82027,0.0961203,0.035274,0.0288478,0.0406022,0.0145652,0.0451115,0.012196,0.00127325,0.0253668,-0.0479105,-0.0219081,0.00804091,0.00637792,-0.0443438,0.00334257,-0.329514,0.0970284,3.07327,0
7.89061,0.0976692,0.0358825,0.0288286,0.0406394,0.0147239,0.0451453,-0.0136491,0.00132713,0.0555,-0.047934,-0.0219875,0.00827319,0.00637789,-0.0443457,0.00337827,-0.329297,0.0958693,3.07154,0
7.96112,0.100097,0.0366969,0.0276744,0.0412608,0.0144832,0.0425838,-0.000537157,-0.0099239,0.0299864,-0.0479687,-0.0221043,0.0086153,0.00638275,-0.0443458,0.0034361,-0.328331,0.0960388,3.06936,0
8.03145,0.102013,0.0373821,0.0276447,0.042016,0.0148484,0.0416941,0.00876206,0.00837719,0.0337963,-0.0479908,-0.022179,0.00883384,0.00638063,-0.0443473,0.00347989,-0.329043,0.0969523,3.06743,0
8.10195,0.104485,0.0381889,0.0264785,0.0426173,0.01493,0.0399651,-0.00185919,-0.00108636,0.0429907,-0.048024,-0.0222913,0.00916243,0.00638245,-0.0443485,0.00353666,-0.328806,0.096941,3.06534,0
8.17229,0.106186,0.0388382,0.0242397,0.0424862,0.0152685,0.036516,-0.020261,0.00589978,0.0312862,-0.0480671,-0.0224367,0.00958813,0.00638123,-0.0443515,0.0035923,-0.328851,0.09513,3.06333,0
8.2428,0.108307,0.0395979,0.0231963,0.0438461,0.0155121,0.0343306,0.0284053,0.00491773,0.0242844,-0.0480964,-0.0225353,0.00987707,0.00638123,-0.0443513,0.00363604,-0.329605,0.0979483,3.0615,0
8.31313,0.110089,0.040283,0.0210745,0.0436726,0.0155846,0.0313661,-0.0208246,-0.00183752,0.0314808,-0.0481356,-0.0226678,0.0102648,0.00638308,-0.0443535,0.00369706,-0.328976,0.0961642,3.05948,0
8.38364,0.112581,0.0411194,0.0179249,0.044205,0.015891,0.0268745,-0.00165224,0.0060583,0.0216713,-0.0481836,-0.0228297,0.010739,0.00638188,-0.0443556,0.00349513,-0.329338,0.0960979,3.06439,0
8.45399,0.114538,0.0418557,0.0138375,0.0442462,0.0159044,0.0224122,-0.0135392,-0.00307956,0.0390472,-0.0482392,-0.0230172,0.0112881,0.00638359,-0.0443574,0.00332432,-0.328729,0.0950008,3.06853,0
8.52449,0.116964,0.0426868,0.00998798,0.045067,0.0161483,0.0180392,0.00874573,0.004466,0.0300016,-0.04829,-0.0231885,0.0117899,0.00638312,-0.0443586,0.00345631,-0.329119,0.0959513,3.0647,0
8.59483,0.119157,0.0434768,0.00637507,0.0458277,0.0162773,0.0142301,0.00906891,0.000577226,0.0304308,-0.0483364,-0.0233447,0.0122472,0.00638458,-0.044359,0.00372657,-0.329194,0.096982,3.05754,0
8.66536,0.121917,0.0443681,0.00188748,0.0458156,0.0163594,0.00994808,-0.0221162,-0.000846997,0.0374317,-0.0483898,-0.0235248,0.0127749,0.00638561,-0.0443622,0.00358187,-0.328611,0.095053,3.06125,0
8.73569,0.124116,0.0451641,-0.00230279,0.0462384,0.0167079,0.00579398,-0.00156611,0.00638386,0.0274725,-0.048438,-0.0236872,0.0132506,0.00638476,-0.0443642,0.00346199,-0.329019,0.0950151,3.06402,0
8.80621,0.126558,0.0460155,-0.00621321,0.0473202,0.0168618,0.00227838,0.0183283,0.000830866,0.0288668,-0.0484813,-0.0238331,0.0136778,0.00638694,-0.044364,0.00328367,-0.329305,0.0969097,3.06831,0
8.87655,0.12877,0.046832,-0.00985252,0.0475162,0.0171103,-0.00123677,-0.00924695,0.00336554,0.0180464,-0.04852,-0.0239634,0.0140597,0.0063866,-0.0443663,0.00326753,-0.329322,0.0961823,3.06805,0
8.94707,0.131403,0.0477217,-0.0132264,0.047955,0.0170963,-0.00334304,-0.00441617,-0.00364137,0.0364809,-0.0485545,-0.0240795,0.0143996,0.00638927,-0.0443677,0.00324974,-0.328841,0.0959556,3.0679,0
9.01743,0.133741,0.0485628,-0.0174428,0.0483636,0.0173623,-0.00678192,-0.000701249,0.00405571,0.026701,-0.0485964,-0.0242208,0.0148137,0.00638941,-0.0443691,0.00334319,-0.329089,0.096014,3.06469,0
9.08794,0.136268,0.0494472,-0.0213563,0.049135,0.0179298,-0.00993841,0.0100475,0.0135241,0.021018,-0.0486335,-0.0243454,0.0151787,0.00638621,-0.0443709,0.00314264,-0.330327,0.096988,3.06927,0
9.1583,0.138662,0.0503344,-0.02498,0.0495989,0.0182748,-0.013049,0.000707626,0.00535373,0.0112305,-0.0486659,-0.0244544,0.0154982,0.0063865,-0.0443724,0.00297157,-0.330742,0.0971711,3.07303,0
9.22882,0.141522,0.0512898,-0.029423,0.0495026,0.0178797,-0.0158407,-0.0249907,-0.0161984,0.0339603,-0.0487056,-0.024588,0.0158895,0.00639477,-0.0443737,0.00302758,-0.328942,0.0951119,3.0709,0
9.29917,0.143989,0.0521773,-0.0357279,0.0502096,0.017998,-0.020615,0.00637007,-0.000680275,0.0345392,-0.0487631,-0.0247818,0.0164572,0.00639737,-0.0443744,0.0031199,-0.328899,0.0958988,3.06772,0
9.36969,0.146774,0.0531153,-0.0426726,0.050498,0.0182551,-0.0263928,-0.0101117,0.00418259,0.0235596,-0.0488249,-0.0249894,0.0170653,0.00639728,-0.044377,0.00319233,-0.328995,0.095074,3.06518,0
9.44006,0.149328,0.0540293,-0.0502039,0.0511763,0.0183347,-0.0320466,0.00669736,-0.00126227,0.0332909,-0.0488899,-0.0252082,0.0177064,0.00639982,-0.0443774,0.0032013,-0.328909,0.0958852,3.06436,0
9.51058,0.152054,0.0549629,-0.057151,0.0519634,0.0184211,-0.0366635,0.00872451,-0.000580229,0.0335693,-0.0489461,-0.025397,0.0182593,0.00640203,-0.0443779,0.00301461,-0.328912,0.0968803,3.06857,0
9.58093,0.154613,0.0558702,-0.0646325,0.0523729,0.0181429,-0.041369,-0.00257134,-0.012472,0.0391912,-0.0490056,-0.0255972,0.0188459,0.00640914,-0.0443778,0.00291364,-0.327748,0.096919,3.07068,0
9.65146,0.157374,0.0568106,-0.0715424,0.0530036,0.0189578,-0.0468253,0.00281042,0.0209773,0.00408745,-0.0490562,-0.0257673,0.0193442,0.00640193,-0.0443814,0.00282463,-0.329447,0.0971727,3.07214,0
9.72181,0.159942,0.0577577,-0.0767953,0.0531847,0.0195093,-0.0494737,-0.0115824,0.0115858,0.0152473,-0.0490868,-0.0258702,0.0196455,0.00639891,-0.0443849,0.00303745,-0.330144,0.0961695,3.06565,0
9.79235,0.162754,0.0587522,-0.0826954,0.0537016,0.0197414,-0.0527446,-0.00219566,0.00412183,0.0149393,-0.0491229,-0.0259915,0.0200009,0.00639879,-0.0443872,0.00299306,-0.330341,0.0960944,3.06599,0
9.86274,0.165399,0.0597292,-0.0880722,0.054392,0.0194933,-0.0548809,0.00676441,-0.0112302,0.0217094,-0.049152,-0.0260891,0.0202868,0.00640542,-0.0443865,0.00295206,-0.329409,0.0970134,3.0665,0
9.93329,0.168271,0.060709,-0.0929382,0.054533,0.0194467,-0.055889,-0.0126368,-0.00386239,0.0298653,-0.0491746,-0.0261652,0.0205098,0.00640808,-0.0443884,0.00305442,-0.328771,0.0960167,3.06299,0
10.0037,0.171004,0.0616864,-0.0984245,0.0552214,0.0198645,-0.0573674,0.00797468,0.0103129,0.0338087,-0.0492034,-0.0262617,0.0207924,0.00640491,-0.0443903,0.00331972,-0.329635,0.096825,3.05506,0
10.0742,0.173933,0.0626811,-0.103363,0.0551585,0.0197764,-0.0583826,-0.0209411,-0.00522828,0.0283623,-0.0492256,-0.0263363,0.0210108,0.00640845,-0.0443927,0.00353111,-0.328679,0.0951049,3.04879,0
10.1446,0.176728,0.0636918,-0.107823,0.0562214,0.0206735,-0.0592871,0.0201003,0.0259766,0.0176353,-0.0492419,-0.026391,0.0211709,0.00639881,-0.0443958,0.00325474,-0.331067,0.0968555,3.05571,0
10.2151,0.179664,0.0647156,-0.111794,0.0563524,0.0200914,-0.059026,-0.0125207,-0.0200419,0.0289059,-0.0492529,-0.0264279,0.0212791,0.00640714,-0.0443958,0.00286081,-0.329018,0.0960564,3.06634,0
10.2855,0.182412,0.0657233,-0.115332,0.0564228,0.0202889,-0.0587929,-0.0117379,0.0031519,0.0184393,-0.0492591,-0.026449,0.0213408,0.00640576,-0.0443988,0.00251931,-0.328967,0.0950632,3.07523,0
10.3561,0.185293,0.066743,-0.119569,0.0567798,0.0206624,-0.0587654,-0.00278109,0.00919418,0.0310192,-0.0492732,-0.0264961,0.0214789,0.00640228,-0.0444017,0.00239862,-0.329586,0.0948735,3.07778,0
10.4264,0.188073,0.0677766,-0.123331,0.0568828,0.0208772,-0.0582465,-0.0112632,0.00364893,0.0299292,-0.0492822,-0.0265263,0.0215674,0.00640073,-0.0444047,0.00210069,-0.329633,0.0939131,3.08526,0
10.497,0.190932,0.0688096,-0.12665,0.0578578,0.02066,-0.057304,0.0177693,-0.00801034,0.0284939,-0.0492867,-0.0265416,0.0216119,0.00640493,-0.0444037,0.00213332,-0.329077,0.0957936,3.08346,0
10.5673,0.193774,0.0698438,-0.12957,0.0583669,0.0207696,-0.0564093,0.000692248,0.00164503,0.0190449,-0.0492873,-0.0265435,0.0216176,0.00640433,-0.0444057,0.00215607,-0.329096,0.0959942,3.08194,0
10.6379,0.196727,0.0708839,-0.132122,0.0588384,0.0208833,-0.0551356,-0.00128442,0.00157566,0.0190401,-0.0492844,-0.0265338,0.0215893,0.00640369,-0.0444077,0.00195854,-0.329084,0.0960092,3.08678,0
10.7082,0.199601,0.0719207,-0.134323,0.0592718,0.0209031,-0.053063,-0.00251514,-0.00147931,0.0284901,-0.0492786,-0.0265141,0.0215315,0.00640441,-0.0444095,0.00207849,-0.328802,0.095928,3.08262,0
10.7793,0.202558,0.0729462,-0.133942,0.0597447,0.0209145,-0.0476122,-0.00265664,-0.00192996,0.0379725,-0.0492459,-0.0264044,0.0212104,0.0064057,-0.0444113,0.0021705,-0.32848,0.095846,3.07922,0
10.8497,0.20546,0.0739973,-0.134501,0.0599751,0.0212356,-0.0445365,-0.00938481,0.00812027,0.0185118,-0.0492261,-0.0263379,0.0210156,0.00640176,-0.0444147,0.00210526,-0.328887,0.0950359,3.08031,0
10.9202,0.208404,0.0750616,-0.132637,0.0607241,0.0217987,-0.0390357,0.00961375,0.0156763,0.0134706,-0.0491814,-0.0261878,0.0205762,0.0063959,-0.0444172,0.0020358,-0.330223,0.095977,3.08136,0
10.9906,0.211328,0.0761283,-0.131823,0.0608448,0.0214909,-0.0343645,-0.0128148,-0.0120293,0.0285988,-0.0491515,-0.0260872,0.0202818,0.00640079,-0.0444185,0.00197369,-0.328923,0.0949745,3.0826,0
11.0612,0.214345,0.0771904,-0.129779,0.0612696,0.0215349,-0.0285078,-0.00220251,9.05581e-05,0.0289278,-0.0491106,-0.0259497,0.0198793,0.00640038,-0.0444203,0.00188078,-0.328763,0.0948966,3.08455,0
11.1315,0.217309,0.0782737,-0.126585,0.061742,0.0222529,-0.0212931,-0.000880361,0.0205339,0.0357819,-0.0490602,-0.0257804,0.0193837,0.00639094,-0.0444245,0.00163898,-0.330328,0.0948198,3.0906,0
11.2021,0.220348,0.0793624,-0.122313,0.0622518,0.0219475,-0.0140072,-0.000323415,-0.0105599,0.0204544,-0.0490019,-0.0255842,0.0188094,0.00639487,-0.0444252,0.00143266,-0.329303,0.0949791,3.09575,0
11.2725,0.223356,0.0804396,-0.117078,0.0632792,0.0219229,-0.00588696,0.0185155,-0.00138245,0.0229654,-0.0489369,-0.0253655,0.0181692,0.00639574,-0.0444253,0.00153238,-0.329262,0.0968952,3.09212,0
11.343,0.226524,0.0815157,-0.112051,0.062643,0.0219904,0.00181784,-0.0411271,-0.0013349,0.029211,-0.0488788,-0.0251697,0.0175962,0.00639582,-0.0444297,0.00175799,-0.328595,0.093082,3.08503,0
11.4134,0.229597,0.0826071,-0.107266,0.0642632,0.0222597,0.00808196,0.0385797,0.00745679,0.0147762,-0.0488272,-0.0249959,0.0170875,0.00639403,-0.0444293,0.00192054,-0.329586,0.0968683,3.07944,0
11.484,0.232812,0.0837189,-0.103832,0.0642566,0.022569,0.0129428,-0.0198171,0.00740554,0.0260973,-0.0487942,-0.0248846,0.0167615,0.00639058,-0.0444331,0.00205268,-0.329797,0.0950526,3.07476,0
11.5544,0.235933,0.0848169,-0.0994382,0.0649698,0.0223417,0.0189845,0.00639433,-0.00905219,0.0336094,-0.0487533,-0.0247468,0.0163581,0.00639542,-0.044433,0.0021202,-0.329005,0.0958942,3.07209,0
11.6249,0.239196,0.0859245,-0.0963796,0.0650017,0.0224362,0.0230534,-0.0212151,0.000633068,0.0321283,-0.0487305,-0.0246699,0.0161331,0.00639477,-0.0444366,0.00192975,-0.328585,0.0940102,3.07688,0
11.6953,0.242391,0.0870472,-0.0934977,0.0658383,0.0227026,0.0262466,0.00858271,0.00595904,0.0239048,-0.0487117,-0.0246065,0.0159475,0.00639274,-0.0444384,0.00176852,-0.329048,0.0949472,3.0806,0
11.7659,0.24569,0.0881667,-0.0918947,0.0666572,0.0227367,0.0282731,0.00793111,-0.00175286,0.0344763,-0.0487091,-0.0245976,0.0159214,0.00639458,-0.0444392,0.00136465,-0.328905,0.0958554,3.09168,0
11.8363,0.248996,0.0892982,-0.0915005,0.0672206,0.0228888,0.0287398,-0.000910044,0.000181764,0.0345068,-0.0487209,-0.0246377,0.0160387,0.00639534,-0.0444407,0.00115355,-0.328827,0.0959154,3.09727,0
11.9068,0.252404,0.0904565,-0.091147,0.0676022,0.0232459,0.0281787,-0.0093146,0.00778122,0.0145836,-0.0487333,-0.0246795,0.0161611,0.0063918,-0.0444441,0.00097458,-0.329293,0.0951227,3.10191,0
11.9772,0.25574,0.0916196,-0.0897127,0.0680802,0.0234414,0.0304378,-0.00476056,0.00275078,0.0459404,-0.0487337,-0.0246808,0.0161652,0.00639003,-0.0444466,0.000851385,-0.329367,0.0947978,3.10495,0
12.0478,0.259158,0.0927868,-0.0894619,0.0692705,0.0236634,0.0308135,0.0193157,0.00436239,0.0384102,-0.0487485,-0.0247308,0.0163114,0.00638943,-0.0444473,0.00095346,-0.329826,0.0967891,3.10161,0
12.1182,0.262617,0.0939943,-0.0903632,0.0696786,0.0240249,0.0288263,-0.00830436,0.00738544,0.0184746,-0.0487761,-0.0248241,0.0165844,0.00638627,-0.0444502,0.00103799,-0.330278,0.0960945,3.09866,0
12.1888,0.266161,0.0951746,-0.0912346,0.0702509,0.0237989,0.02728,-0.00279254,-0.00996312,0.0243778,-0.0488024,-0.0249133,0.0168457,0.00639138,-0.0444511,0.000777564,-0.329362,0.0959764,3.10611,0
12.2592,0.269644,0.096371,-0.0909482,0.0704646,0.0240071,0.0282104,-0.013204,0.00235699,0.0452061,-0.0488152,-0.0249565,0.016972,0.00638998,-0.0444536,0.000808703,-0.329365,0.0948213,3.10478,0
12.3298,0.273194,0.0975661,-0.0906711,0.0713682,0.0240008,0.0280355,0.0101086,-0.00151576,0.0239668,-0.0488284,-0.025001,0.0171024,0.00639095,-0.0444544,0.00085291,-0.329235,0.0959237,3.10291,0
12.4002,0.276754,0.0987725,-0.0915543,0.0716438,0.0237951,0.0262901,-0.0106807,-0.00891994,0.0196581,-0.0488544,-0.0250892,0.0173605,0.00639406,-0.0444557,0.000885158,-0.328282,0.0950403,3.10143,0
12.4708,0.280392,0.0999732,-0.092406,0.0722108,0.0240373,0.0252932,-0.00259626,0.00634611,0.0320253,-0.0488793,-0.0251734,0.0176071,0.0063905,-0.0444582,0.000783367,-0.328678,0.0948729,3.10386,0
12.5411,0.283986,0.101176,-0.0920797,0.0730711,0.0240652,0.0262404,0.00781852,-0.00116056,0.0421362,-0.0488905,-0.0252114,0.0177184,0.00639069,-0.0444593,0.000588692,-0.328536,0.0957567,3.10918,0
12.6117,0.287657,0.102399,-0.0906502,0.0737745,0.0246806,0.027667,0.00118315,0.0164083,0.0263891,-0.0488896,-0.0252083,0.0177092,0.00638353,-0.0444623,0.000423348,-0.329857,0.0959471,3.11337,0
12.6821,0.29134,0.103643,-0.0904313,0.0746291,0.024883,0.0276251,0.00882685,0.00325767,0.0273695,-0.0489032,-0.0252543,0.017844,0.0063827,-0.0444634,0.00044433,-0.330139,0.0969093,3.11205,0
12.7527,0.295143,0.104865,-0.0891051,0.0741194,0.0249275,0.0291585,-0.0415174,-0.00127062,0.0327768,-0.0489045,-0.0252586,0.0178566,0.00638182,-0.0444669,0.000639289,-0.32967,0.0929604,3.10597,0
12.8231,0.298822,0.10609,-0.0867366,0.0754427,0.0248963,0.0324283,0.0263413,-0.00207466,0.0450554,-0.0488949,-0.0252261,0.0177614,0.00638368,-0.0444666,0.000800279,-0.32963,0.0956399,3.10074,0
12.8937,0.302577,0.107319,-0.0833879,0.076344,0.0247669,0.0356329,0.0118991,-0.0042248,0.0240879,-0.0488758,-0.0251614,0.017572,0.00638524,-0.0444669,0.000696154,-0.329272,0.0969125,3.10349,0
12.9643,0.306337,0.108551,-0.0802497,0.0768543,0.0246151,0.0393209,-0.00253797,-0.00660098,0.0431337,-0.0488611,-0.0251118,0.0174268,0.00638728,-0.0444678,0.000754506,-0.328579,0.096795,3.10142,0
13.0349,0.3102,0.109791,-0.077319,0.0772132,0.0248356,0.0416,-0.0089798,0.00692015,0.0234833,-0.0488506,-0.0250763,0.0173229,0.00638248,-0.0444705,0.000805277,-0.328937,0.0959799,3.09943,0
13.1052,0.314006,0.111045,-0.0734871,0.0777073,0.0248743,0.0452603,-0.00214869,-9.08226e-05,0.03302,-0.0488313,-0.0250109,0.0171313,0.0063813,-0.044472,0.000843167,-0.328773,0.0958679,3.09775,0
13.1758,0.317883,0.112297,-0.0699292,0.0785798,0.02499,0.0479852,0.0100144,0.00422558,0.0247593,-0.0488171,-0.0249626,0.01699,0.00637811,-0.0444735,0.000721602,-0.329064,0.0969219,3.10066,0
13.2462,0.321778,0.113601,-0.0666586,0.0792008,0.0254934,0.0499137,0.000649691,0.0144935,0.018713,-0.0488075,-0.0249302,0.0168952,0.00637003,-0.0444765,0.000561421,-0.330134,0.0970377,3.10479,0
13.3168,0.325782,0.114838,-0.0636367,0.0792437,0.0251428,0.0521049,-0.0229305,-0.0110672,0.0324898,-0.0488022,-0.0249125,0.0168433,0.00637194,-0.0444784,0.000426702,-0.328861,0.0949213,3.10831,0
13.3872,0.32971,0.116121,-0.0608659,0.0798282,0.0252199,0.0538677,-0.0016582,0.000622272,0.0325775,-0.048801,-0.0249083,0.0168309,0.00637003,-0.0444802,0.000355001,-0.328765,0.0948595,3.10983,0
13.4578,0.3337,0.117379,-0.057205,0.0807104,0.0252452,0.0566311,0.00892907,0.00121923,0.0335379,-0.0487906,-0.024873,0.0167278,0.00636796,-0.0444814,0.000303566,-0.328791,0.0958274,3.11072,0
13.5282,0.3377,0.118697,-0.0538317,0.081367,0.0256079,0.0590541,-0.000619352,0.0107372,0.0368662,-0.048785,-0.0248543,0.016673,0.00636054,-0.0444844,0.000258384,-0.329512,0.0958484,3.1115,0
13.5988,0.341819,0.119956,-0.05072,0.0815293,0.0254211,0.0607758,-0.0209219,-0.00518729,0.0317936,-0.048784,-0.0248508,0.0166626,0.00635904,-0.0444871,-5.54074e-05,-0.328777,0.0938884,3.12106,0
13.6692,0.345882,0.121232,-0.0478989,0.0827163,0.0252491,0.0615213,0.0195317,-0.00524906,0.0210657,-0.048787,-0.0248611,0.0166928,0.00636022,-0.0444873,-0.000367976,-0.328324,0.0959041,3.13079,0
13.7398,0.350071,0.122493,-0.0453338,0.0830828,0.0253408,0.0629655,-0.0122281,0.00273534,0.0421515,-0.0487938,-0.024884,0.0167598,0.0063557,-0.04449,-0.000621069,-0.328417,0.0947886,3.13865,0
13.8102,0.354256,0.123797,-0.0452567,0.0840057,0.0252856,0.0603357,0.0107807,-0.00135297,0.020977,-0.0488298,-0.0250057,0.0171161,0.00635404,-0.0444908,4.62846e-05,-0.328203,0.0959495,3.1198,0
13.8808,0.35856,0.125097,-0.0464216,0.0846772,0.0255632,0.0565516,-0.000713766,0.0102527,0.0238132,-0.0488788,-0.025171,0.0176001,0.00634743,-0.0444932,0.000530075,-0.328931,0.095926,3.10567,0
13.9512,0.362849,0.126406,-0.0487242,0.0855178,0.0254516,0.0525747,0.00731045,-0.00361254,0.0431042,-0.048939,-0.0253744,0.0181959,0.00634746,-0.0444939,0.000623291,-0.328531,0.0967462,3.1024,0
14.0218,0.367285,0.127713,-0.0520732,0.0857177,0.0258611,0.0471964,-0.0194133,0.0140362,0.0343332,-0.049009,-0.0256109,0.0188884,0.00633853,-0.0444976,0.000699011,-0.329377,0.0948437,3.09971,0
14.0922,0.371639,0.129055,-0.055305,0.0866449,0.0258033,0.041642,0.00987518,-0.00166468,0.0219326,-0.0490744,-0.0258317,0.019535,0.00633744,-0.0444985,0.000600695,-0.329148,0.0959089,3.10237,0
14.1628,0.376126,0.130356,-0.0595377,0.0871193,0.0258184,0.0351756,-0.0104432,0.00139798,0.0202932,-0.0491483,-0.0260812,0.0202659,0.00633425,-0.0445008,0.00046749,-0.329002,0.0949607,3.10582,0
14.2332,0.380538,0.131696,-0.063573,0.0880471,0.0256897,0.0302336,0.0068419,-0.00429184,0.0393143,-0.0492164,-0.0263111,0.0209392,0.00633373,-0.0445018,0.000351428,-0.328505,0.0957446,3.10862,0
14.3038,0.385098,0.132985,-0.0684913,0.0885481,0.025701,0.0244858,-0.0106509,0.00117559,0.0376472,-0.0492921,-0.0265663,0.0216869,0.00633014,-0.0445042,0.000309214,-0.328339,0.0947883,3.10921,0
14.3742,0.389584,0.134389,-0.0731511,0.0889548,0.0260388,0.0183551,-0.00913775,0.00920355,0.017065,-0.0493609,-0.0267987,0.0223679,0.00632251,-0.0445071,0.000308286,-0.328852,0.09395,3.10841,0
14.4449,0.39413,0.135728,-0.0775575,0.0901631,0.0261135,0.0129578,0.0188364,0.00326299,0.0182266,-0.0494234,-0.0270095,0.0229854,0.00631955,-0.0445081,0.000301812,-0.329101,0.095889,3.10763,0
14.5152,0.398684,0.13711,-0.0817152,0.0908161,0.0261973,0.00813491,-0.000289738,0.00146227,0.0175886,-0.0494798,-0.0271998,0.0235431,0.00631668,-0.0445097,0.00028744,-0.329059,0.0959401,3.10698,0
14.5858,0.403339,0.138439,-0.0855942,0.091444,0.0263239,0.00498787,-0.00279331,0.00495784,0.0390539,-0.0495305,-0.027371,0.0240447,0.00631158,-0.0445119,0.000248323,-0.329264,0.0957347,3.10714,0
14.6562,0.407965,0.139835,-0.0903289,0.0921073,0.0263132,-9.76263e-05,0.00117165,-0.000190031,0.0164642,-0.049589,-0.0275686,0.0246239,0.00630861,-0.0445134,0.000210314,-0.329062,0.0959319,3.10734,0
14.7268,0.412719,0.141147,-0.0947426,0.0922236,0.0262392,-0.00415496,-0.0216091,-0.00066359,0.0233536,-0.0496411,-0.0277444,0.025139,0.00630495,-0.0445157,0.000433819,-0.328615,0.0938984,3.10021,0
14.7972,0.417352,0.142523,-0.0966256,0.0934093,0.0263505,-0.0053803,0.0194609,0.00539754,0.0152817,-0.0496609,-0.0278111,0.0253347,0.00629958,-0.0445171,0.000298484,-0.329005,0.09588,3.10324,0
14.8679,0.42207,0.14379,-0.0972027,0.0940195,0.0258525,-0.00423616,-0.00226927,-0.0134608,0.0307188,-0.049665,-0.0278251,0.0253756,0.00630253,-0.0445174,0.000236741,-0.327651,0.0957993,3.10435,0
14.9382,0.426719,0.145249,-0.0965691,0.0940992,0.0265929,-0.00196896,-0.0197479,0.02263,0.0257549,-0.0496553,-0.0277922,0.0252794,0.00628697,-0.0445224,0.000179952,-0.329123,0.0938508,3.10499,0
15.0089,0.431419,0.146578,-0.0947745,0.0949708,0.0264314,0.00142573,0.00876588,-0.00232281,0.0236197,-0.0496334,-0.0277183,0.0250626,0.00628447,-0.0445235,0.000179109,-0.328765,0.0948088,3.10428,0
15.0798,0.436099,0.147984,-0.0930239,0.0952615,0.0262964,0.00499031,-0.0114825,-0.00129414,0.0323286,-0.0496141,-0.0276531,0.0248713,0.00627927,-0.0445259,0.000265297,-0.328263,0.0937599,3.10121,0
15.1505,0.440845,0.149327,-0.090187,0.0960823,0.0262499,0.0096852,0.00897509,0.00283252,0.033473,-0.0495841,-0.0275518,0.0245745,0.0062731,-0.0445278,0.000333428,-0.328287,0.0947061,3.0985,0
15.2209,0.445603,0.150715,-0.0874699,0.0969657,0.0263008,0.0135636,0.0106474,0.00573371,0.0253153,-0.0495582,-0.0274642,0.0243175,0.00626536,-0.04453,0.000252132,-0.328553,0.0958074,3.1001,0
15.2915,0.450454,0.152079,-0.0837692,0.0973007,0.0263859,0.0178769,-0.00919968,0.00719764,0.0152159,-0.0495229,-0.0273447,0.0239673,0.00625535,-0.0445333,0.000207997,-0.328733,0.0949564,3.10081,0
15.3619,0.455268,0.153501,-0.0802815,0.0980985,0.0265678,0.0223688,0.00807649,0.0109638,0.0291777,-0.0494927,-0.0272428,0.0236683,0.00624423,-0.0445364,0.00016679,-0.329377,0.0957895,3.10113,0
15.4325,0.460175,0.154845,-0.0769775,0.0986919,0.0262413,0.0262272,-0.000447154,-0.00447213,0.0262833,-0.0494675,-0.0271573,0.0234177,0.00623958,-0.0445384,6.39727e-05,-0.328653,0.0958489,3.10346,0
15.5029,0.465057,0.156249,-0.0738766,0.0992754,0.0261706,0.029631,-0.000750601,0.00263201,0.0265493,-0.0494468,-0.0270875,0.0232127,0.00623211,-0.0445411,3.90144e-05,-0.328531,0.09585,3.10331,0
15.5735,0.470035,0.157601,-0.0709565,0.0998707,0.0259865,0.0330905,-0.00174451,0.000634253,0.0361891,-0.0494305,-0.0270322,0.0230507,0.00622418,-0.0445439,1.29943e-05,-0.328185,0.0957688,3.10325,0
15.6439,0.474963,0.159058,-0.0671043,0.100237,0.0263944,0.0371118,-0.00968003,0.0170318,0.0291891,-0.049405,-0.026946,0.0227976,0.00620951,-0.0445484,5.3917e-05,-0.329175,0.0948561,3.10108,0
15.7145,0.479956,0.160399,-0.063487,0.101345,0.0259664,0.041015,0.0177273,-0.00646294,0.0375719,-0.0493849,-0.0268779,0.0225979,0.00620635,-0.0445495,2.35388e-06,-0.328433,0.0967112,3.1017,0
15.7849,0.484948,0.161849,-0.0601042,0.10111,0.0258979,0.0442917,-0.0300701,0.00272894,0.0349045,-0.0493699,-0.0268268,0.0224481,0.00619617,-0.0445538,-6.21873e-05,-0.328005,0.0938311,3.10284,0
15.8556,0.490009,0.163259,-0.0569667,0.101928,0.0263108,0.0468304,0.00944805,0.0180621,0.0298271,-0.0493595,-0.0267916,0.0223448,0.00618261,-0.0445575,-0.000120832,-0.329293,0.094781,3.10369,0
15.926,0.495083,0.164686,-0.0540618,0.10247,0.0263297,0.0489509,-0.000387549,0.00581636,0.0299559,-0.0493534,-0.026771,0.0222844,0.0061735,-0.0445605,-0.000282258,-0.329452,0.0948101,3.10756,0
15.9966,0.50024,0.166067,-0.0513867,0.103036,0.0262896,0.0506647,-0.000749469,0.0042655,0.0300207,-0.0493513,-0.026764,0.0222638,0.00616508,-0.0445634,-0.00035197,-0.329481,0.0948131,3.10859,0
16.067,0.50536,0.167463,-0.0489231,0.10329,0.025871,0.0522924,-0.0117498,-0.00835755,0.0352955,-0.0493529,-0.0267695,0.0222799,0.00616161,-0.0445655,-0.000415483,-0.328365,0.0937589,3.10967,0
16.1377,0.510556,0.168845,-0.0466682,0.104123,0.0260901,0.0537789,0.00893331,0.0113869,0.0394354,-0.0493579,-0.0267864,0.0223295,0.00615144,-0.0445684,-0.000295512,-0.329101,0.0946868,3.1052,0
16.2081,0.515764,0.170222,-0.0446066,0.105037,0.0258625,0.0543731,0.0105091,-0.00216741,0.0276985,-0.049366,-0.0268138,0.0224098,0.00614697,-0.04457,-0.000352407,-0.328695,0.0958116,3.10582,0
16.2787,0.521072,0.171577,-0.0427514,0.105659,0.0257906,0.0546769,-0.000406325,0.00220954,0.0276203,-0.0493769,-0.0268506,0.0225179,0.00613972,-0.0445725,-0.000404765,-0.328552,0.0958533,3.10647,0
16.3491,0.526355,0.173006,-0.0410889,0.105972,0.0257657,0.0546941,-0.0107156,0.00397271,0.0265465,-0.0493902,-0.0268959,0.0226509,0.00613038,-0.044576,-0.000727162,-0.328468,0.0948628,3.11585,0
16.4198,0.531704,0.174377,-0.0396154,0.106803,0.0257522,0.0545182,0.00895941,0.00417937,0.027359,-0.0494058,-0.0269488,0.022806,0.00612253,-0.0445781,-0.000919012,-0.328581,0.0958424,3.121,0
16.4902,0.537076,0.175784,-0.0383238,0.107679,0.0257796,0.0537223,0.0102047,0.00632248,0.018734,-0.0494233,-0.0270082,0.0229805,0.00611366,-0.0445805,-0.000579346,-0.328866,0.0969295,3.11031,0
16.5609,0.542533,0.177181,-0.0372015,0.10822,0.0259399,0.053378,-0.00152731,0.0100287,0.031189,-0.0494425,-0.0270735,0.0231719,0.00610275,-0.0445835,-0.000295956,-0.329383,0.09682,3.101,0
16.6313,0.547946,0.178605,-0.0362261,0.108308,0.0257824,0.0521637,-0.0194783,-0.00051976,0.0164194,-0.0494632,-0.0271437,0.0233781,0.00609649,-0.0445864,-0.000159647,-0.32884,0.0949702,3.09601,0
16.702,0.553413,0.179964,-0.03541,0.109365,0.0256076,0.0513707,0.0177646,-3.43211e-05,0.0275373,-0.0494852,-0.0272182,0.0235966,0.0060914,-0.0445877,-0.000297716,-0.328692,0.0967902,3.09926,0
16.7698,0.558882,0.181479,-0.0347047,0.109185,0.0261117,0.0511461,-0.0307678,0.0192376,0.0402679,-0.0495082,-0.0272963,0.0238258,0.0060744,-0.0445935,-0.000416071,-0.329643,0.0937695,3.10179,0
16.8404,0.56438,0.182806,-0.034092,0.110626,0.025536,0.0506067,0.0282394,-0.0114661,0.0364523,-0.0495322,-0.0273776,0.0240645,0.00607435,-0.0445935,-0.000249241,-0.328586,0.0966828,3.09598,0
16.9108,0.569931,0.184271,-0.0335813,0.111099,0.0257923,0.0496446,-0.00877327,0.0131384,0.0290709,-0.049557,-0.0274616,0.0243109,0.00606094,-0.0445982,-0.000744352,-0.329238,0.095848,3.11119,0
16.9815,0.575573,0.185622,-0.0331783,0.111514,0.0256194,0.0483503,-0.0108849,-0.00279137,0.0246449,-0.0495824,-0.0275478,0.0245637,0.00605486,-0.0446009,-0.00116158,-0.328612,0.0948942,3.12413,0
17.0519,0.581217,0.187042,-0.0351157,0.112163,0.0255899,0.0443848,-0.00136167,0.00302891,0.0243816,-0.0496352,-0.0277265,0.025088,0.00604702,-0.0446037,-0.00114516,-0.328575,0.0948627,3.12271,0
17.1226,0.586911,0.188455,-0.0359209,0.113115,0.025769,0.0410785,0.0108265,0.00961239,0.00592804,-0.0496716,-0.02785,0.0254503,0.006037,-0.0446063,-0.00125382,-0.329167,0.0960343,3.12494,0
17.193,0.592643,0.189843,-0.0389834,0.113703,0.0254662,0.0366728,-0.0036732,-0.00560532,0.0338116,-0.0497338,-0.0280604,0.0260676,0.00603327,-0.0446082,-0.00134901,-0.32842,0.0957621,3.12693,0
17.2637,0.598454,0.191315,-0.0408024,0.114061,0.0261609,0.0337698,-0.0102154,0.0239643,0.0292015,-0.0497781,-0.0282103,0.0265075,0.00601589,-0.0446127,-0.00131089,-0.33014,0.0948388,3.1245,0
17.3341,0.604212,0.192665,-0.0425352,0.114946,0.025617,0.0308466,0.0088802,-0.0121106,0.0232592,-0.0498198,-0.0283514,0.0269214,0.00601608,-0.0446133,-0.00131588,-0.328913,0.0958018,3.12378,0
17.4047,0.610042,0.194068,-0.0430935,0.115593,0.0258077,0.0296251,-0.000522792,0.00953467,0.0260468,-0.0498455,-0.0284384,0.0271764,0.00600574,-0.044616,-0.00126554,-0.329452,0.095821,3.12101,0
17.4751,0.61585,0.195514,-0.0436436,0.115691,0.0259798,0.0279284,-0.0197273,0.00788533,0.0144472,-0.0498703,-0.0285225,0.0274232,0.00599642,-0.0446192,-0.00123105,-0.329797,0.0939153,3.11869,0
17.5458,0.621708,0.196831,-0.044208,0.116245,0.025603,0.0265847,-0.00194323,-0.00854902,0.0204039,-0.0498944,-0.0286038,0.0276617,0.00599548,-0.0446202,-0.00115301,-0.328841,0.0938008,3.11502,0
17.6162,0.627561,0.19816,-0.0447565,0.117357,0.0253827,0.0258931,0.0183316,-0.00295669,0.0314503,-0.0499176,-0.0286823,0.027892,0.00599295,-0.044621,-0.00129193,-0.328476,0.0956889,3.11817,0
17.6869,0.633506,0.199561,-0.0453008,0.118026,0.0255119,0.0243145,0.00180727,0.00751913,0.0123777,-0.04994,-0.0287581,0.0281143,0.00598298,-0.0446235,-0.00141476,-0.328824,0.0959302,3.12096,0
17.7573,0.639422,0.200935,-0.0447142,0.118592,0.0254236,0.0246177,-0.00162637,0.000965124,0.0215654,-0.0499481,-0.0287854,0.0281942,0.00597694,-0.0446253,-0.00116446,-0.328639,0.0958372,3.11225,0
17.828,0.645407,0.202314,-0.0441985,0.119248,0.0255004,0.0243525,0.0003497,0.00595458,0.0120583,-0.0499569,-0.0288154,0.0282821,0.00596858,-0.0446277,-0.0012817,-0.328872,0.0959129,3.115,0
17.8984,0.651388,0.203655,-0.0437241,0.120047,0.0252705,0.0250177,0.00749642,-0.00297462,0.0317659,-0.0499665,-0.0288478,0.0283771,0.0059647,-0.0446289,-0.00138394,-0.328409,0.0967303,3.11754,0
17.9691,0.657467,0.205049,-0.0433034,0.120164,0.0254615,0.0245631,-0.0183469,0.00866274,0.0108929,-0.0499767,-0.0288824,0.0284786,0.00595413,-0.044632,-0.00117673,-0.328756,0.0949538,3.11037,0
18.0395,0.663493,0.206415,-0.0429209,0.120695,0.0252541,0.0250002,-0.00294799,-0.00154586,0.0296488,-0.0499875,-0.028919,0.0285859,0.00594876,-0.0446338,-0.000835935,-0.3283,0.094727,3.10013,0
18.1102,0.669577,0.207796,-0.0425787,0.121571,0.0252687,0.024951,0.0104259,0.00563432,0.0210571,-0.0499989,-0.0289574,0.0286985,0.00594026,-0.0446358,-0.00054742,-0.328532,0.0957791,3.09143,0
18.1806,0.675673,0.209218,-0.0422824,0.121683,0.0254084,0.0242892,-0.0187869,0.00796404,0.00961018,-0.0500107,-0.0289974,0.0288156,0.00593066,-0.044639,-0.000495752,-0.328685,0.0939205,3.089,0
18.2513,0.681806,0.210638,-0.0420433,0.1225,0.0256317,0.0242604,0.00846118,0.0113288,0.0230808,-0.0500229,-0.0290386,0.0289365,0.00591971,-0.0446419,-0.00051386,-0.329374,0.0947316,3.08856,0
18.3217,0.687947,0.212011,-0.0418257,0.122828,0.0253619,0.0239933,-0.00999457,-0.00392691,0.018795,-0.0500354,-0.029081,0.0290607,0.00591528,-0.0446439,-0.000417272,-0.328581,0.0938385,3.08509,0
18.3924,0.694131,0.213365,-0.0416407,0.123626,0.0251792,0.024202,0.00806642,-0.000372604,0.0290279,-0.0500483,-0.0291243,0.0291878,0.00590952,-0.0446457,-0.000341911,-0.328274,0.0946957,3.08193,0
18.4628,0.700336,0.214824,-0.0414763,0.124291,0.0255693,0.0240758,0.00117141,0.0157385,0.0226822,-0.0500613,-0.0291686,0.0293175,0.00589602,-0.0446497,-0.000214836,-0.329202,0.0947717,3.07723,0
18.5335,0.706593,0.216185,-0.041314,0.124872,0.0254396,0.0248561,-0.00228912,0.000371546,0.0413971,-0.0500747,-0.0292137,0.0294497,0.00588997,-0.0446522,-5.80809e-05,-0.328804,0.0946317,3.07185,0
18.6039,0.712866,0.217666,-0.0411681,0.126162,0.0260005,0.0244489,0.02293,0.0217386,0.0180941,-0.0500882,-0.0292595,0.0295842,0.00587542,-0.0446563,6.50924e-05,-0.330551,0.0967676,3.06715,0
18.6746,0.719221,0.2189,-0.0410306,0.126295,0.0249744,0.0243818,-0.0225047,-0.0270797,0.0252056,-0.050102,-0.0293062,0.029721,0.0058808,-0.0446569,0.000106292,-0.327473,0.0949557,3.06504,0
18.7451,0.725536,0.220345,-0.0409299,0.127001,0.0253111,0.0239795,-0.000930905,0.0142591,0.018898,-0.0501159,-0.0293533,0.0298592,0.00586838,-0.0446619,-0.000134623,-0.328183,0.0948568,3.0703,0
18.8158,0.731905,0.221802,-0.0408586,0.128032,0.025706,0.0237647,0.00976795,0.0160097,0.0229158,-0.0501299,-0.0294009,0.0299987,0.0058554,-0.0446668,-0.00034774,-0.329201,0.0958217,3.07454,0
18.8863,0.738299,0.223227,-0.040787,0.128754,0.0256942,0.0240098,-0.00155574,0.0035843,0.0322027,-0.0501441,-0.0294488,0.0301392,0.00584731,-0.0446707,-0.000368856,-0.329005,0.0958048,3.07364,0
18.9569,0.744757,0.224657,-0.040739,0.129276,0.025632,0.0230813,-0.00927591,0.00302999,0.00903988,-0.0501583,-0.0294971,0.0302807,0.00583824,-0.0446756,-0.000375938,-0.328591,0.0950418,3.07222,0
19.0274,0.751212,0.226099,-0.0407264,0.129966,0.025585,0.0226159,-0.00263643,0.00339819,0.0183144,-0.0501726,-0.0295454,0.0304223,0.00582932,-0.0446801,-0.000391017,-0.328314,0.0949241,3.07097,0
19.0981,0.757723,0.227595,-0.0407391,0.130722,0.025939,0.0223089,-0.000923991,0.0154889,0.0213737,-0.0501868,-0.0295937,0.0305638,0.00581509,-0.0446863,-0.000572443,-0.329064,0.09487,3.07461,0
19.1685,0.764266,0.229076,-0.0407716,0.132071,0.0261069,0.0216172,0.0200344,0.00995713,0.0137043,-0.050201,-0.0296418,0.030705,0.00580418,-0.0446902,-0.000610132,-0.329674,0.0969122,3.07427,0
19.2392,0.770882,0.230491,-0.0408286,0.132239,0.0258809,0.0206819,-0.0205655,-0.00276878,0.0084219,-0.0502151,-0.0296896,0.0308453,0.00579797,-0.0446952,-0.000511795,-0.328636,0.0951311,3.0703,0
19.3097,0.777542,0.231912,-0.0431588,0.133468,0.0257894,0.0176491,0.0163218,0.00161203,0.0196142,-0.0502564,-0.0298297,0.0312561,0.0057918,-0.044698,-0.000433109,-0.328539,0.0968635,3.06675,0
19.381,0.784235,0.233397,-0.04424,0.13393,0.026142,0.0163849,-0.0101101,0.0139771,0.0214357,-0.0502807,-0.029912,0.0314974,0.00577959,-0.0447044,-0.000528164,-0.329076,0.095949,3.0682,0
19.4515,0.790908,0.234845,-0.0452581,0.134059,0.0260627,0.0149759,-0.0217898,5.70267e-05,0.0160599,-0.0503034,-0.029989,0.0317232,0.00577301,-0.04471,-0.000752598,-0.328279,0.0940482,3.07395,0
19.5222,0.797636,0.236273,-0.0462495,0.135066,0.0260321,0.012656,0.00917804,0.00263359,-0.00527859,-0.0503246,-0.0300609,0.031934,0.00576667,-0.0447135,-0.000947292,-0.328199,0.0950996,3.07884,0
19.5926,0.804381,0.237745,-0.0472126,0.135715,0.0261686,0.0115723,-0.00298524,0.00724469,0.0165577,-0.0503444,-0.0301278,0.03213,0.00575757,-0.0447185,-0.000870181,-0.32832,0.0949556,3.07556,0
19.6633,0.811176,0.239353,-0.0481255,0.136408,0.0269721,0.0104729,0.000118911,0.0280652,0.0133467,-0.0503627,-0.0301899,0.0323122,0.00573921,-0.0447258,-0.000734021,-0.330231,0.0949344,3.0702,0
19.7338,0.817963,0.240752,-0.047858,0.137118,0.0265479,0.0104875,-0.00159442,-0.00949793,0.00673294,-0.050366,-0.0302011,0.0323451,0.00573818,-0.0447286,-0.000629431,-0.328951,0.0950684,3.06615,0
19.8045,0.824805,0.242222,-0.0476109,0.138101,0.026716,0.0111549,0.00719237,0.00863308,0.0202885,-0.0503697,-0.0302136,0.0323817,0.00572973,-0.0447332,-0.000945746,-0.329354,0.0958768,3.07514,0
19.8749,0.83173,0.243689,-0.0496058,0.13908,0.0267833,0.00916802,0.00885504,0.00463357,0.0212116,-0.0504012,-0.0303204,0.032695,0.00572345,-0.0447367,-0.000838766,-0.329465,0.0968924,3.07073,0
19.9456,0.838705,0.245113,-0.052585,0.139012,0.0265924,0.00582406,-0.0313022,-0.00312958,0.014761,-0.0504436,-0.030464,0.0331162,0.00571937,-0.0447434,-0.001045,-0.328335,0.0941046,3.07621,0
20.0161,0.845672,0.246554,-0.054266,0.140231,0.0266792,0.00428209,0.0166364,0.00463126,0.016242,-0.050468,-0.0305465,0.033358,0.00571408,-0.0447462,-0.00121847,-0.328597,0.0958689,3.08059,0
20.0868,0.852735,0.248064,-0.0580682,0.14096,0.0270137,0.000479384,-0.000575244,0.0126754,0.0192127,-0.0505175,-0.030714,0.033849,0.00570463,-0.0447516,-0.0012966,-0.329313,0.0959201,3.08171,0
20.1573,0.85979,0.24944,-0.0616042,0.1413,0.0264861,-0.00273691,-0.0130596,-0.015792,0.0207214,-0.0505615,-0.030863,0.0342859,0.00570647,-0.0447543,-0.00128893,-0.327426,0.0949829,3.08029,0
20.228,0.86691,0.251016,-0.0660254,0.141984,0.0272011,-0.00694468,-0.00111151,0.0241832,0.0172558,-0.0506141,-0.0310413,0.0348087,0.00569244,-0.0447609,-0.00128905,-0.329125,0.0948892,3.07872,0
20.2984,0.874059,0.252486,-0.0712586,0.142646,0.0270975,-0.0120703,-0.00149089,-0.00192374,0.0135078,-0.0506742,-0.0312447,0.0354052,0.00568904,-0.0447644,-0.00169138,-0.328609,0.0949386,3.09089,0
20.3691,0.881252,0.25397,-0.0761328,0.143309,0.0271158,-0.0164862,-0.00169647,0.00312307,0.0128756,-0.0507268,-0.0314226,0.0359268,0.00568298,-0.0447685,-0.00163929,-0.328506,0.0949493,3.08816,0
20.4396,0.888445,0.255463,-0.0795385,0.144241,0.0271358,-0.018886,0.00820249,0.00361048,0.0132704,-0.0507586,-0.0315301,0.036242,0.00567701,-0.0447719,-0.00159982,-0.328563,0.0958891,3.08583,0
20.5103,0.895687,0.257046,-0.0837878,0.144399,0.0275205,-0.0220784,-0.0206962,0.0141265,0.0142345,-0.0507993,-0.0316678,0.036646,0.00566471,-0.0447792,-0.00191346,-0.329135,0.0939912,3.09492,0
20.5808,0.902861,0.258526,-0.0854516,0.144749,0.0273207,-0.0218062,-0.0135819,-0.00471879,0.0191011,-0.0508064,-0.0316918,0.0367162,0.005661,-0.0447835,-0.00185751,-0.328224,0.0929065,3.09208,0
20.6515,0.910131,0.260151,-0.0880626,0.146061,0.0277933,-0.0233257,0.0196265,0.0185333,0.00524998,-0.0508249,-0.0317545,0.0369003,0.00564725,-0.0447879,-0.00181549,-0.329601,0.0948712,3.08955,0
20.722,0.917388,0.26161,-0.0892993,0.146789,0.0273606,-0.0223895,-0.002599,-0.00978075,0.0207062,-0.050826,-0.0317582,0.0369111,0.00564541,-0.0447911,-0.00196019,-0.328337,0.0948655,3.09332,0
20.7927,0.9247,0.263119,-0.0892453,0.147849,0.0274154,-0.0203879,0.00908494,0.00525955,0.0122242,-0.0508116,-0.0317096,0.0367684,0.00563754,-0.0447949,-0.00208572,-0.328489,0.0959032,3.09647,0
20.8632,0.932064,0.264769,-0.0902427,0.148656,0.0278896,-0.0200411,-1.22786e-05,0.0169117,0.00616932,-0.0508113,-0.0317083,0.0367647,0.00562346,-0.0448007,-0.00212719,-0.329515,0.0960207,3.09671,0
20.934,0.93945,0.266307,-0.0899721,0.149173,0.0279198,-0.0178072,-0.0126144,0.00421048,0.0146437,-0.0507958,-0.0316558,0.0366106,0.00561508,-0.0448061,-0.00216754,-0.329346,0.0949729,3.09694,0
21.0045,0.946854,0.267791,-0.0896356,0.150232,0.0276692,-0.0157347,0.0075714,-0.0045124,0.0125437,-0.0507808,-0.031605,0.0364617,0.00561165,-0.044809,-0.00219823,-0.328661,0.0959151,3.0969,0
21.0752,0.954306,0.269318,-0.0881208,0.150773,0.0276352,-0.0124226,-0.0113196,0.00303282,0.0117474,-0.0507526,-0.0315095,0.0361816,0.00560324,-0.0448142,-0.00231115,-0.328403,0.0949859,3.09958,0
21.1457,0.961746,0.270931,-0.0866325,0.150983,0.0277363,-0.00942049,-0.0219956,0.00597323,0.0101547,-0.0507268,-0.0314218,0.0359245,0.00559255,-0.0448206,-0.00240805,-0.328287,0.0930103,3.10169,0
21.2164,0.969237,0.272428,-0.0840427,0.152272,0.0276613,-0.00472581,0.0163141,0.0023101,0.0217333,-0.0506894,-0.031295,0.0355526,0.0055861,-0.0448234,-0.00244576,-0.328264,0.0947574,3.10171,0
21.2869,0.976773,0.274,-0.081544,0.153092,0.0277574,-0.000855403,0.000182629,0.00640187,0.0127182,-0.0506559,-0.0311814,0.0352193,0.00557685,-0.0448279,-0.00258612,-0.32844,0.0949192,3.10506,0
21.3577,0.984368,0.27557,-0.079128,0.153577,0.0279086,0.00373171,-0.013426,0.00819647,0.0341825,-0.0506261,-0.0310804,0.0349232,0.00556596,-0.0448334,-0.00270897,-0.328648,0.0937617,3.10782,0
21.4281,0.991995,0.277145,-0.0768126,0.1547,0.0279583,0.00644859,0.0107866,0.00551499,0.0039587,-0.0506,-0.0309917,0.0346629,0.00555747,-0.0448369,-0.00276487,-0.328849,0.0949702,3.10835,0
21.4989,0.999686,0.278676,-0.0746217,0.155219,0.0278589,0.00928415,-0.0120884,0.00108264,0.0127153,-0.0505773,-0.0309145,0.0344365,0.00555006,-0.0448413,-0.00257827,-0.328475,0.0939559,3.10106,0
21.5696,1.00737,0.28028,-0.0714412,0.156019,0.0279567,0.0126716,-0.000958502,0.00761303,0.00353718,-0.0505439,-0.0308013,0.0341043,0.00554017,-0.0448457,-0.00242855,-0.328727,0.0939821,3.09506,0
21.6403,1.01512,0.281879,-0.0684529,0.156841,0.0281867,0.0162727,-0.00218457,0.0114526,0.01653,-0.0505153,-0.0307038,0.0338183,0.00552908,-0.0448507,-0.00246467,-0.329287,0.0938589,3.09504,0
21.7108,1.0229,0.283435,-0.0656264,0.157901,0.0281329,0.0199802,0.0076794,0.00227359,0.0271969,-0.050491,-0.0306212,0.0335761,0.00552219,-0.044854,-0.00251713,-0.329166,0.094749,3.09559,0
21.7815,1.03076,0.284941,-0.062961,0.15875,0.0279156,0.0226726,-0.000102103,-0.00241752,0.0148172,-0.0504709,-0.0305527,0.0333751,0.00551688,-0.0448574,-0.00278232,-0.32858,0.094898,3.1034,0
21.852,1.03864,0.286493,-0.0604664,0.159504,0.0278296,0.025469,-0.00234622,0.000173934,0.0244541,-0.0504547,-0.0304974,0.0332128,0.00551013,-0.0448611,-0.00300677,-0.328216,0.0948266,3.10992,0
21.9228,1.0466,0.288161,-0.0581377,0.160342,0.0282598,0.02762,-0.00053966,0.016371,0.0184097,-0.050442,-0.0304543,0.0330865,0.00549596,-0.0448662,-0.00277314,-0.329219,0.0948943,3.10145,0
21.9933,1.05458,0.289768,-0.0559719,0.161485,0.0283483,0.0294933,0.00848591,0.00619361,0.0195007,-0.0504328,-0.0304227,0.0329938,0.00548726,-0.0448699,-0.00301842,-0.329456,0.0958465,3.10856,0
22.064,1.06265,0.291461,-0.053962,0.162069,0.0287661,0.0311977,-0.0109354,0.0140442,0.0218687,-0.0504266,-0.0304018,0.0329323,0.00547329,-0.0448754,-0.00322836,-0.330187,0.0949188,3.11458,0
22.1345,1.07066,0.293008,-0.0498449,0.162907,0.0284447,0.0355826,-0.00302833,-0.00610333,0.0281382,-0.0503959,-0.0302967,0.0326242,0.00546878,-0.0448788,-0.00342313,-0.32931,0.0947793,3.12009,0
22.2053,1.0788,0.294619,-0.047129,0.164074,0.0285331,0.0376613,0.00948048,0.00543809,0.0199928,-0.0503848,-0.030259,0.0325134,0.00545961,-0.044882,-0.00346885,-0.329488,0.0958764,3.12044,0
22.2758,1.08696,0.296181,-0.0446257,0.164698,0.0282408,0.0391561,-0.0111838,-0.00533326,0.0159378,-0.0503776,-0.0302345,0.0324416,0.00545461,-0.0448857,-0.0035121,-0.328663,0.0949186,3.12081,0
22.3465,1.09519,0.297753,-0.0423382,0.165818,0.0282168,0.0403611,0.00834733,0.00233144,0.0169697,-0.050374,-0.0302221,0.0324052,0.00544725,-0.0448886,-0.00358324,-0.328597,0.095884,3.12213,0
22.417,1.10347,0.299388,-0.0402661,0.166484,0.0283691,0.0407386,-0.0101115,0.00657316,0.00663185,-0.0503736,-0.0302207,0.0324011,0.00543791,-0.0448929,-0.00368157,-0.328838,0.0950097,3.12427,0
22.4878,1.11181,0.300957,-0.0383743,0.167271,0.028479,0.0424131,-0.00458837,0.00387307,0.0381222,-0.0503761,-0.0302293,0.0324264,0.00543061,-0.0448961,-0.00372753,-0.328901,0.0946895,3.12471,0
22.5583,1.12017,0.302723,-0.0355208,0.167939,0.0290721,0.0443306,-0.00964844,0.0192673,0.0215235,-0.0503676,-0.0302,0.0323405,0.00541502,-0.0449012,-0.00377178,-0.33021,0.093849,3.12488,0
22.629,1.12849,0.304162,-0.0306513,0.168828,0.0285979,0.0481869,-0.00131381,-0.0126124,0.0151796,-0.0503355,-0.0300904,0.0320192,0.00541575,-0.0449029,-0.00380843,-0.328911,0.0938497,3.125,0
22.6995,1.13692,0.305682,-0.0272725,0.170239,0.0283609,0.0506283,0.0178602,-0.00344775,0.026824,-0.0503242,-0.0300518,0.0319061,0.00541204,-0.0449045,-0.00392823,-0.328434,0.0957335,3.12811,0
22.7703,1.1454,0.30722,-0.0230293,0.170868,0.0282836,0.0543685,-0.0114972,-0.00155637,0.035428,-0.050304,-0.0299826,0.0317033,0.00540632,-0.0449077,-0.00403167,-0.328022,0.094719,3.13077,0
22.8408,1.15397,0.30901,-0.0202545,0.171867,0.0289383,0.05494,0.00112647,0.0214491,0.0105829,-0.0503036,-0.0299813,0.0316993,0.00538977,-0.0449118,-0.00403038,-0.329581,0.0949698,3.12936,0
22.9115,1.16259,0.31058,-0.0177486,0.172989,0.029003,0.0556596,0.00752294,0.00289023,0.020977,-0.0503071,-0.0299933,0.0317344,0.00538453,-0.0449138,-0.00373441,-0.329655,0.0958273,3.11786,0
22.982,1.17129,0.312206,-0.0166256,0.173935,0.0291002,0.054235,9.26256e-05,0.00550112,0.0115242,-0.0503279,-0.0300643,0.0319427,0.00537751,-0.0449165,-0.00349584,-0.329882,0.0959194,3.10856,0
23.0528,1.18002,0.313889,-0.0145571,0.174586,0.0293919,0.0545813,-0.0117915,0.00989629,0.0229883,-0.0503363,-0.0300933,0.0320275,0.00536776,-0.0449203,-0.00350943,-0.330354,0.0948197,3.10775,0
23.1234,1.18868,0.315201,-0.0104479,0.175482,0.0283934,0.0572863,-0.002177,-0.0266801,0.0226393,-0.0503201,-0.0300377,0.0318647,0.00537553,-0.0449206,-0.00350514,-0.327815,0.0948047,3.10669,0
23.1941,1.19745,0.316823,-0.00668737,0.176692,0.0285515,0.0596506,0.00877994,0.00728089,0.0269985,-0.0503097,-0.0300021,0.0317604,0.00536685,-0.0449235,-0.00350563,-0.328171,0.095756,3.10564,0
23.2647,1.20632,0.318631,-0.00438784,0.177447,0.0291308,0.0593405,-0.00856447,0.0203272,0.0105209,-0.0503184,-0.030032,0.0318479,0.00535076,-0.0449283,-0.00334711,-0.329452,0.0949479,3.0993,0
23.3355,1.21519,0.320159,-0.00122136,0.178621,0.0288546,0.060408,0.00778121,-0.00555101,0.0175972,-0.0503165,-0.0300255,0.0318289,0.00534845,-0.04493,-0.00329208,-0.328715,0.0958541,3.09653,0
23.406,1.2241,0.321782,0.00275802,0.179265,0.0288481,0.062339,-0.0107499,0.00248371,0.0166655,-0.0503052,-0.0299869,0.031716,0.00534111,-0.0449334,-0.00336718,-0.328464,0.0948935,3.0979,0
23.4768,1.23304,0.323365,0.00750978,0.180072,0.0288407,0.065528,-0.00225222,0.00132376,0.0262127,-0.0502857,-0.0299204,0.0315211,0.00533555,-0.0449361,-0.00343517,-0.328237,0.0947739,3.09882,0
23.5473,1.24204,0.32511,0.0118588,0.181167,0.0292645,0.0678165,0.0100955,0.0157241,0.0211525,-0.050273,-0.029877,0.0313941,0.00532284,-0.0449397,-0.00355764,-0.329317,0.0958132,3.10147,0
23.6181,1.2511,0.326894,0.0158259,0.181718,0.0297409,0.0696297,-0.010456,0.0154654,0.0235643,-0.0502665,-0.0298548,0.031329,0.00530972,-0.0449444,-0.00364285,-0.330198,0.0948352,3.10287,0
23.6893,1.26021,0.328384,0.0183082,0.182537,0.0292422,0.0692507,-0.00132078,-0.0124662,0.0171938,-0.0502795,-0.0298991,0.0314586,0.00531024,-0.0449457,-0.00372284,-0.328832,0.0948571,3.10418,0
23.7601,1.2694,0.330051,0.0193774,0.183347,0.0294684,0.0678425,-0.00198907,0.00716765,0.0297012,-0.0503098,-0.0300024,0.0317612,0.0053023,-0.0449488,-0.00375144,-0.329133,0.0947533,3.10362,0
23.8306,1.27866,0.331594,0.0191299,0.184736,0.0292962,0.064412,0.0197831,-0.00284746,0.0186348,-0.0503554,-0.0301577,0.032216,0.00530003,-0.04495,-0.00389319,-0.328788,0.0968246,3.1069,0
23.9014,1.288,0.333219,0.0176337,0.185316,0.0293766,0.0596432,-0.0103827,0.00164362,0.0172062,-0.0504142,-0.0303585,0.0328038,0.00529456,-0.0449529,-0.00401632,-0.328592,0.0959094,3.10976,0
23.9719,1.29737,0.33481,0.0149887,0.185858,0.0292333,0.0546303,-0.0133024,-0.0028341,0.0344744,-0.0504847,-0.0305985,0.0335065,0.00528983,-0.0449559,-0.00415938,-0.327977,0.0947123,3.11357,0
