time,x_hat,y_hat,z_hat,Vx_hat,Vy_hat,Vz_hat,ax_hat,ay_hat,az_hat,ax_bias,ay_bias,az_bias,gx_bias,gy_bias,gz_bias,roll,pitch,yaw
61835.3,3.625e-05,-4.75e-05,0.129355,-0.006566,-0.0250185,0.0062744,-0.029,0.038,-0.00533485,0.421,0.058,-0.004665,1.10025,-0.153478,-0.000909857,-0.11461,0.0179052,3.13789
61885.7,0.00057835,0.00394592,0.129872,-0.015481,-0.0785843,-0.00693137,-0.176773,-1.08821,-0.107732,0.421,0.058,-0.004665,1.10025,-0.153499,-0.000910325,-0.322194,0.0507916,3.1297
61936.1,-0.0010815,-0.00521418,0.13635,-0.0716661,-0.405225,-0.0265278,-0.527544,-3.08782,-0.529756,0.421,0.058,-0.004665,1.08195,-0.150376,-0.000853946,-0.75178,0.112078,3.09589
61986.5,0.00263668,0.0164661,0.140675,-0.114364,-0.656033,-0.320403,-1.12736,-6.55879,-2.63623,0.421,0.058,-0.004665,1.08191,-0.150601,-0.000448115,-1.52414,0.162644,2.98312
62036.8,-0.00979334,-0.0559103,0.142834,-0.213393,-1.26335,-1.05514,-1.56068,-9.63956,-9.37358,0.421,0.058,-0.004665,1.03324,-0.142417,-0.000936851,-2.54343,0.0885118,2.84664
62087.2,-0.0136587,-0.0810538,0.128515,-0.214375,-1.25453,-1.88671,-0.922757,-5.34983,-17.9399,0.421,0.058,-0.004665,1.03316,-0.142882,-0.000620786,-3.09659,0.00290031,2.81781
62137.6,-0.022837,-0.136817,0.0953185,-0.209567,-1.27261,-2.70225,-0.0490938,-0.396354,-19.6568,0.421,0.058,-0.004665,1.03392,-0.141902,-0.00192857,-3.13851,0.00747854,2.81684
62188,-0.0318152,-0.194768,0.0482348,-0.194946,-1.28055,-3.42253,0.036056,0.000454249,-19.5748,0.421,0.058,-0.004665,1.03428,-0.139698,-0.0040027,-3.14134,0.0246316,2.81719
62238.4,-0.0315982,-0.234469,-0.00847744,-0.103464,-1.28408,-4.05999,0.288747,-0.182051,-19.5794,0.421,0.058,-0.004665,1.03809,-0.13134,-0.0108698,3.12181,0.0599606,2.81916
62288.7,-0.00364797,-0.273468,-0.0713592,0.179655,-1.30964,-4.59716,0.557682,-0.0860083,-19.5589,0.421,0.058,-0.004665,1.04072,-0.1152,-0.0217398,3.11277,0.11591,2.82261
62339.1,0.137429,-0.294459,-0.134764,1.11865,-1.39444,-4.98322,1.13974,-0.0884345,-19.5075,0.421,0.058,-0.004665,1.04916,-0.0789468,-0.0429642,3.10382,0.229799,2.82791
62389.5,0.639165,-0.360315,-0.189505,3.82857,-1.76354,-5.08339,2.2398,-0.283448,-19.3308,0.421,0.058,-0.004665,1.06216,0.00108124,-0.0847065,3.07227,0.463432,2.84138
62439.9,2.09132,-0.541274,-0.218033,10.5093,-2.68615,-4.47315,4.38213,-0.614431,-18.5258,0.421,0.058,-0.004665,1.09119,0.171606,-0.16319,2.97445,0.921364,2.80987
62490.3,5.40602,-1.03059,-0.181385,23.1554,-4.50269,-2.10346,7.77907,-0.915796,-15.6576,0.421,0.058,-0.004665,1.14111,0.489064,-0.297022,0.476088,1.3679,0.417326
62540.6,9.84955,-1.75679,-0.038816,35.2586,-6.2897,1.63486,9.60891,-0.648139,-8.02528,0.421,0.058,-0.004665,1.20024,0.892924,-0.449611,-0.0428124,0.395929,0.0279102
62591,12.362,-2.17201,0.111756,37.3663,-6.6076,2.51033,3.75886,0.495036,-0.811364,0.421,0.058,-0.004665,1.21364,1.03803,-0.495633,-0.0336617,0.00356719,0.0724362
62641.4,13.7204,-2.39489,0.174231,36.4278,-6.4223,1.97494,0.0248178,0.262483,-0.0686607,0.421,0.058,-0.004665,1.20231,1.01375,-0.483822,-0.00433118,-0.0100713,0.0958466
62691.8,4.18608,-0.714331,0.107696,24.9904,-4.94246,0.452937,-0.0888039,-0.0140971,-0.00562572,0.421,0.058,-0.004665,1.19289,0.983062,-0.472763,0.0011263,-0.00782318,0.119124
62742.2,5.45024,-0.963168,0.134554,25.082,-5.00547,0.472871,-0.0286577,0.00762784,-0.0252323,0.421,0.058,-0.004665,1.18177,0.952354,-0.462158,0.00847397,-0.0136861,0.140483
62792.5,3.5341,-0.657541,0.13286,20.414,-4.40057,0.224174,-0.156061,-0.00279707,-0.0260258,0.421,0.058,-0.004665,1.17167,0.913463,-0.450949,0.0201543,-0.00776229,0.162229
62842.9,4.56537,-0.879517,0.141948,20.5701,-4.45687,0.213054,-0.0474613,-0.124507,-0.0258951,0.421,0.058,-0.004665,1.16155,0.878186,-0.441459,0.0168357,-0.0122028,0.183416
62893.3,3.2821,-0.673641,0.139376,14.3175,-3.04592,0.0529559,-0.114615,-0.207271,-0.0181341,0.421,0.058,-0.004665,1.1567,0.841429,-0.434039,0.00913978,-0.00803499,0.20484
62943.7,4.0141,-0.823597,0.141015,14.484,-3.04689,0.0466684,-0.032327,-0.136677,-0.0462523,0.421,0.058,-0.004665,1.15464,0.810718,-0.428949,0.00564033,-0.0128679,0.226212
62994.1,2.64651,-0.548454,0.13705,6.61319,-0.350273,-0.0546573,-0.0982791,-0.138766,-0.0266409,0.421,0.058,-0.004665,1.15627,0.778895,-0.42536,0.00481034,-0.0126184,0.244037
63044.4,2.99443,-0.551109,0.12896,6.79941,-0.288041,-0.0790454,-0.161149,-0.076413,0.00318432,0.421,0.058,-0.004665,1.16528,0.748019,-0.424373,0.0149411,-0.00866054,0.263018
63094.8,1.70396,-0.251927,0.123945,0.426507,2.40112,-0.120728,-0.0222761,-0.0931917,-0.0255308,0.421,0.058,-0.004665,1.17261,0.720416,-0.423978,0.0158799,-0.0197477,0.281951
63145.2,1.74079,-0.110296,0.115005,0.580016,2.48715,-0.134364,-0.145675,-0.160567,-0.00763798,0.421,0.058,-0.004665,1.18902,0.697466,-0.427703,0.0179232,-0.0181222,0.302319
63195.6,0.873563,0.0570291,0.111339,-2.64171,3.65617,-0.125073,-0.17178,-0.182994,-0.0183277,0.421,0.058,-0.004665,1.21074,0.681671,-0.434838,0.0207334,-0.0148771,0.325614
63246,0.75676,0.266648,0.110668,-2.49599,3.76922,-0.100822,-0.0394394,-0.213445,-0.0876722,0.421,0.058,-0.004665,1.23009,0.66894,-0.442781,0.0114629,-0.0256541,0.349891
63296.4,0.325397,0.253383,0.110221,-3.60174,3.47375,-0.0807652,-0.0629845,-0.352156,-0.109665,0.421,0.058,-0.004665,1.25069,0.670598,-0.452699,-0.00794306,-0.0263409,0.372733
63346.7,0.141187,0.451557,0.115157,-3.55549,3.65443,-0.0362677,-0.267364,0.109983,-0.0187206,0.421,0.058,-0.004665,1.26986,0.690221,-0.460634,0.0319125,-0.0196384,0.399822
63397.1,-0.00805517,0.342667,0.111508,-3.67837,2.77262,-0.0484188,-0.0994663,-0.182788,-0.0458136,0.421,0.058,-0.004665,1.3019,0.713405,-0.478408,0.0286697,-0.0464146,0.426842
63447.5,-0.210063,0.495705,0.105843,-3.68383,2.92048,-0.0638216,-0.259156,-0.620201,-0.0868301,0.421,0.058,-0.004665,1.31591,0.757661,-0.485697,0.0171738,-0.0253631,0.453141
63497.9,-0.229176,0.339352,0.0973518,-3.6519,2.03672,-0.0914992,-0.116681,-0.374936,-0.0324821,0.421,0.058,-0.004665,1.31225,0.776569,-0.480408,0.0178725,-0.0116166,0.472485
63548.3,-0.426626,0.451557,0.0956113,-3.64216,2.16267,-0.0761665,-0.0321371,-0.23322,-0.0181255,0.421,0.058,-0.004665,1.30809,0.795409,-0.47695,0.0175228,-0.0267363,0.493714
63598.6,-0.368842,0.321875,0.0980369,-3.33825,1.5427,-0.0464224,-0.217018,-0.32117,-0.00265503,0.421,0.058,-0.004665,1.29068,0.789898,-0.464066,0.0291267,-0.01905,0.502364
63649,-0.549461,0.401458,0.101044,-3.3561,1.62856,-0.019648,-0.0445674,-0.142373,-0.0144615,0.421,0.058,-0.004665,1.27576,0.775671,-0.453381,0.0378603,-0.0310559,0.511185
63699.4,-0.446243,0.293776,0.106937,-2.95307,1.14341,0.0111751,-0.170313,-0.379963,-0.043396,0.421,0.058,-0.004665,1.25306,0.740686,-0.439878,0.038016,-0.0367742,0.51466
63749.8,-0.603913,0.343582,0.111972,-2.9948,1.17619,0.0330252,-0.106794,-0.541849,-0.0608482,0.421,0.058,-0.004665,1.25012,0.704174,-0.437138,0.0278174,-0.0243324,0.529693
63800.2,-0.481439,0.250057,0.119107,-2.64441,0.813143,0.0579257,0.0105713,-0.409822,-0.0734873,0.421,0.058,-0.004665,1.25426,0.677567,-0.439054,0.0144474,-0.0289882,0.549349
63850.5,-0.61765,0.283988,0.124907,-2.66188,0.839606,0.0729424,-0.0795743,-0.376082,-0.0419035,0.421,0.058,-0.004665,1.26951,0.660776,-0.446271,0.0130585,-0.0290491,0.576546
63900.9,-0.500493,0.211658,0.128831,-2.33422,0.66568,0.0772406,-0.181991,-0.280442,-0.0210161,0.421,0.058,-0.004665,1.29363,0.659414,-0.456196,0.0304937,-0.0303465,0.606776
63951.3,-0.619128,0.242209,0.131748,-2.35821,0.715718,0.0747719,-0.113072,-0.341864,-0.0316162,0.421,0.058,-0.004665,1.31841,0.675499,-0.466397,0.038577,-0.0374882,0.637882
64001.7,-0.503766,0.190446,0.133234,-2.01075,0.560694,0.0638927,-0.139314,-0.446135,-0.0359659,0.421,0.058,-0.004665,1.3379,0.709799,-0.474161,0.0460071,-0.0394622,0.666317
64052.1,-0.6084,0.219621,0.13028,-2.07578,0.605832,0.0372264,-0.0955883,-0.569408,-0.0320845,0.421,0.058,-0.004665,1.34092,0.744568,-0.474549,0.0488575,-0.036403,0.68464
64102.5,-0.49107,0.168952,0.119848,-1.8014,0.388444,-0.0237356,0.0654023,-0.611854,-0.0546303,0.421,0.058,-0.004665,1.32742,0.753323,-0.468584,0.0360001,-0.0347896,0.6995
64152.8,-0.582539,0.184031,0.108023,-1.84993,0.387536,-0.0726933,0.0442094,-0.550583,-0.0504427,0.421,0.058,-0.004665,1.30749,0.738248,-0.460136,0.027996,-0.0345838,0.70849
64203.2,-0.470111,0.13433,0.0950181,-1.59638,0.23386,-0.117992,-0.0285509,-0.487845,-0.0372343,0.421,0.058,-0.004665,1.29375,0.70501,-0.451921,0.0345303,-0.0295255,0.715033
64253.6,-0.550533,0.139588,0.0929846,-1.61842,0.234614,-0.0991452,0.00996431,-0.422383,-0.0444441,0.421,0.058,-0.004665,1.29347,0.674685,-0.44823,0.0379542,-0.0323755,0.727917
64304,-0.448571,0.100873,0.0919298,-1.37823,0.161498,-0.0810036,-0.0446065,-0.427314,-0.0344286,0.421,0.058,-0.004665,1.30594,0.650085,-0.450133,0.044618,-0.0410318,0.746251
64354.4,-0.5161,0.106143,0.0885232,-1.40489,0.181721,-0.0758564,-0.0619118,-0.541284,-0.020133,0.421,0.058,-0.004665,1.33178,0.649998,-0.459632,0.0518366,-0.0422591,0.775755
64404.7,-0.423286,0.0795659,0.0898767,-1.16712,0.121199,-0.0527618,0.0302211,-0.607047,-0.0541067,0.421,0.058,-0.004665,1.35477,0.67486,-0.471193,0.0492856,-0.044416,0.813083
64455.1,-0.486052,0.0855608,0.0880924,-1.22434,0.133594,-0.0470247,0.0716134,-0.666402,-0.0482779,0.421,0.058,-0.004665,1.36321,0.711062,-0.477602,0.0476023,-0.0451136,0.843847
64505.5,-0.394346,0.0590474,0.0831362,-1.03265,0.00347273,-0.0630425,0.113408,-0.704615,-0.0610199,0.421,0.058,-0.004665,1.34935,0.72484,-0.471491,0.0471105,-0.0383407,0.854048
64555.9,-0.446395,0.0535283,0.0798365,-1.07305,-0.0243065,-0.0634621,0.144283,-0.623307,-0.0561228,0.421,0.058,-0.004665,1.32897,0.705016,-0.458485,0.0479447,-0.0306027,0.851478
64606.3,-0.356413,0.0273162,0.0736576,-0.890566,-0.10707,-0.0797617,0.131776,-0.527204,-0.0504217,0.421,0.058,-0.004665,1.31825,0.674474,-0.449527,0.0473351,-0.0313731,0.853743
64656.7,-0.399575,0.0177595,0.0769427,-0.905682,-0.110024,-0.0446523,0.0794249,-0.50398,-0.0383577,0.421,0.058,-0.004665,1.32057,0.643544,-0.44765,0.0485305,-0.0416037,0.867216
64707,-0.322132,0.00263164,0.083449,-0.741377,-0.119186,-0.00215254,0.0511276,-0.578467,-0.0323696,0.421,0.058,-0.004665,1.34145,0.631208,-0.45741,0.0550464,-0.0496418,0.900389
64757.4,-0.3587,-0.00318381,0.0855808,-0.777437,-0.118604,0.00918174,0.0964221,-0.708619,-0.0614996,0.421,0.058,-0.004665,1.36776,0.653107,-0.473633,0.0600202,-0.0532178,0.947796
64807.8,-0.292259,-0.0110218,0.0834576,-0.638977,-0.16114,-0.00434104,0.209645,-0.779121,-0.0585794,0.421,0.058,-0.004665,1.37528,0.69138,-0.479115,0.0634052,-0.0479253,0.976913
64858.2,-0.326127,-0.0229333,0.0782453,-0.685404,-0.2098,-0.0275867,0.321981,-0.771307,-0.050746,0.421,0.058,-0.004665,1.35837,0.698126,-0.466222,0.060568,-0.0332939,0.971227
64908.6,-0.257116,-0.032927,0.0738975,-0.544586,-0.276866,-0.0436822,0.33098,-0.633651,-0.041379,0.421,0.058,-0.004665,1.34153,0.674394,-0.452246,0.0541329,-0.0238308,0.962062
64958.9,-0.279889,-0.0500824,0.0709463,-0.546595,-0.296715,-0.047577,0.274379,-0.47631,-0.0407352,0.421,0.058,-0.004665,1.33531,0.647338,-0.445945,0.0448341,-0.0342195,0.966033
65009.3,-0.21671,-0.0533554,0.0650557,-0.425454,-0.285044,-0.0641773,0.127268,-0.495802,-0.0385952,0.421,0.058,-0.004665,1.34337,0.620864,-0.450236,0.0477891,-0.0535769,0.99299
65059.7,-0.232593,-0.0677344,0.0609777,-0.448197,-0.29169,-0.0684304,0.0697151,-0.670313,-0.0685282,0.421,0.058,-0.004665,1.37062,0.625622,-0.468829,0.0649034,-0.0671086,1.04869
65110.1,-0.189524,-0.0629608,0.0581149,-0.389652,-0.291713,-0.0658828,0.193773,-0.890406,-0.0778551,0.421,0.058,-0.004665,1.38885,0.671229,-0.482127,0.0869413,-0.0664534,1.09001
65160.5,-0.215517,-0.0805074,0.0600954,-0.448137,-0.357283,-0.0419878,0.495079,-0.987617,-0.107913,0.421,0.058,-0.004665,1.37004,0.686063,-0.464496,0.0911155,-0.0372577,1.06459
65210.8,-0.170053,-0.0752799,0.0619761,-0.339077,-0.388473,-0.0269509,0.661249,-0.75881,-0.0971546,0.421,0.058,-0.004665,1.35378,0.65651,-0.44803,0.0689863,-0.0105316,1.0444
65261.2,-0.183858,-0.0941949,0.0639214,-0.324638,-0.407398,-0.012875,0.542397,-0.42354,-0.0595827,0.421,0.058,-0.004665,1.35352,0.637379,-0.445024,0.0397003,-0.0159013,1.05625
65311.6,-0.140749,-0.0862499,0.0618251,-0.243101,-0.360603,-0.0200289,0.214681,-0.324101,-0.0329475,0.421,0.058,-0.004665,1.35811,0.614209,-0.44781,0.0324612,-0.0506874,1.08106
65362,-0.112559,-0.079628,0.0602632,-0.214324,-0.31545,-0.0214754,0.00084247,-0.563734,-0.0314341,0.421,0.058,-0.004665,1.38541,0.617045,-0.467686,0.0562066,-0.0870133,1.1421
65412.4,-0.128344,-0.0990459,0.059238,-0.291446,-0.368987,-0.0209839,0.121626,-0.979352,-0.0751734,0.421,0.058,-0.004665,1.40013,0.669786,-0.481222,0.0996244,-0.0946494,1.18601
65462.8,-0.147893,-0.123535,0.0621929,-0.348426,-0.469909,-0.00377935,0.579833,-1.20594,-0.127321,0.421,0.058,-0.004665,1.36905,0.6679,-0.450541,0.123533,-0.0483144,1.11946
65513.1,-0.112071,-0.103832,0.0644909,-0.250328,-0.480906,0.00366086,0.922043,-0.968314,-0.127099,0.421,0.058,-0.004665,1.36224,0.623669,-0.434016,0.0971915,0.00759925,1.09267
65563.5,-0.0920636,-0.0937759,0.0663568,-0.174456,-0.458198,0.00940219,0.911067,-0.389861,-0.0655203,0.421,0.058,-0.004665,1.3765,0.621403,-0.438181,0.0409276,0.0192679,1.12008
65613.9,-0.100645,-0.114591,0.071606,-0.159284,-0.438874,0.0308388,0.457717,-0.0135903,-0.0460501,0.421,0.058,-0.004665,1.37862,0.61145,-0.439885,-0.000869103,-0.0274854,1.14647
65664.3,-0.0822793,-0.0999947,0.0791245,-0.152252,-0.339654,0.0601177,-0.143035,-0.242515,-0.029356,0.421,0.058,-0.004665,1.4056,0.618827,-0.459736,0.00977495,-0.104385,1.21291
65714.7,-0.100815,-0.128059,0.0883852,-0.284033,-0.400167,0.0902437,-0.32357,-0.989775,-0.0807419,0.421,0.058,-0.004665,1.408,0.68244,-0.473213,0.0909943,-0.16111,1.25663
65765.1,-0.0846785,-0.114899,0.0985978,-0.313585,-0.48716,0.111942,0.344741,-1.74824,-0.178758,0.421,0.058,-0.004665,1.35843,0.632334,-0.420103,0.176485,-0.0865578,1.10466
65815.4,-0.0877296,-0.123125,0.102161,-0.269905,-0.552909,0.0965548,1.18472,-1.52889,-0.218369,0.421,0.058,-0.004665,1.3887,0.585671,-0.40341,0.153501,0.032006,1.05969
65865.8,-0.078899,-0.109159,0.107671,-0.191378,-0.538338,0.0941344,1.48692,-0.480835,-0.160989,0.421,0.058,-0.004665,1.41058,0.622705,-0.409606,0.0442665,0.07841,1.09213
65916.2,-0.087272,-0.135083,0.111478,-0.126413,-0.513184,0.086048,0.76057,0.465841,-0.0760698,0.421,0.058,-0.004665,1.39822,0.604792,-0.398739,-0.0519963,0.00851851,1.07979
65966.6,-0.066081,-0.113754,0.109759,-0.0751867,-0.340999,0.0569736,-0.411861,0.313567,-0.0290222,0.421,0.058,-0.004665,1.43455,0.617118,-0.415051,-0.0530753,-0.11785,1.13961
66016.9,-0.0805108,-0.155387,0.103845,-0.235691,-0.376539,0.0162379,-0.97791,-0.805916,-0.0975971,0.421,0.058,-0.004665,1.42474,0.689443,-0.427017,0.0572112,-0.216496,1.17781
66067.3,-0.0613899,-0.137726,0.102254,-0.330357,-0.476501,-0.00109897,-0.326337,-2.14021,-0.257502,0.421,0.058,-0.004665,1.36737,0.604117,-0.361151,0.189841,-0.107022,0.954297
66117.7,-0.0712222,-0.139472,0.104568,-0.335283,-0.5238,0.00679136,0.902715,-1.89919,-0.253956,0.421,0.058,-0.004665,1.41417,0.569544,-0.330143,0.134716,0.0395622,0.846598
66168.1,-0.0944257,-0.161344,0.10661,-0.313844,-0.556577,0.0112047,1.25184,-0.610162,-0.1249,0.421,0.058,-0.004665,1.42795,0.598823,-0.330381,0.0132684,0.0526817,0.857468
66218.5,-0.110622,-0.183632,0.112041,-0.269813,-0.510167,0.0334713,0.455347,0.285228,-0.0500736,0.421,0.058,-0.004665,1.42027,0.572284,-0.327517,-0.0391774,-0.0307081,0.864623
66268.9,-0.12559,-0.18695,0.116057,-0.283031,-0.365722,0.046257,-0.472871,0.00782519,-0.0467653,0.421,0.058,-0.004665,1.45988,0.57963,-0.338957,0.00235777,-0.105615,0.902314
66319.2,-0.175676,-0.208679,0.122507,-0.47595,-0.300125,0.0685211,-0.643986,-0.817042,-0.10088,0.421,0.058,-0.004665,1.47674,0.647518,-0.352816,0.081558,-0.11928,0.951224
66369.6,-0.223351,-0.257126,0.127114,-0.653262,-0.415358,0.0743493,-0.0376398,-1.38495,-0.144094,0.421,0.058,-0.004665,1.4363,0.640212,-0.323256,0.113547,-0.0449832,0.859522
66420,-0.241887,-0.284182,0.130241,-0.649964,-0.49562,0.0707939,0.530167,-1.03608,-0.0846758,0.421,0.058,-0.004665,1.42383,0.602905,-0.306296,0.0688358,0.00271068,0.811361
66470.4,-0.258702,-0.314841,0.128541,-0.600115,-0.538414,0.0444383,0.511047,-0.43628,-0.0484314,0.421,0.058,-0.004665,1.42089,0.590041,-0.303676,0.0179635,-0.0132899,0.815255
66520.7,-0.264536,-0.347558,0.126689,-0.549019,-0.544217,0.02505,0.0652997,-0.227571,-0.0381584,0.421,0.058,-0.004665,1.41596,0.559487,-0.301193,0.0114033,-0.0502153,0.81881
66571.1,-0.26408,-0.346399,0.124904,-0.524791,-0.475232,0.0125235,-0.240541,-0.476141,-0.0397911,0.421,0.058,-0.004665,1.44219,0.539617,-0.302581,0.0364275,-0.0623777,0.824593
66621.5,-0.300788,-0.334887,0.119668,-0.585745,-0.408261,-0.0138052,-0.146929,-0.69563,-0.0511971,0.421,0.058,-0.004665,1.47574,0.564002,-0.307502,0.055444,-0.053955,0.845684
66671.9,-0.369979,-0.352856,0.11181,-0.69123,-0.41316,-0.0467373,0.0392984,-0.740931,-0.0434532,0.421,0.058,-0.004665,1.48736,0.601159,-0.314194,0.0569316,-0.0456818,0.881494
66722.2,-0.446024,-0.406023,0.102107,-0.793467,-0.482834,-0.0805338,0.128599,-0.686621,-0.0302277,0.421,0.058,-0.004665,1.4757,0.621502,-0.317311,0.0538746,-0.0457791,0.910824
66772.6,-0.501713,-0.480408,0.0911954,-0.857509,-0.581747,-0.113063,0.130095,-0.655049,-0.0581465,0.421,0.058,-0.004665,1.44947,0.610509,-0.315012,0.053822,-0.0515925,0.91943
66823,-0.510659,-0.541652,0.0869816,-0.854534,-0.645695,-0.105275,0.11093,-0.719414,-0.0524483,0.421,0.058,-0.004665,1.43208,0.572732,-0.307598,0.0559005,-0.0473334,0.901108
66873.4,-0.509789,-0.551195,0.0809421,-0.825365,-0.640999,-0.107883,0.163162,-0.720552,-0.0431986,0.421,0.058,-0.004665,1.44191,0.542515,-0.301508,0.0515097,-0.0383248,0.881047
66923.8,-0.52036,-0.541747,0.0770869,-0.8075,-0.597224,-0.0990703,0.16393,-0.622827,-0.0264931,0.421,0.058,-0.004665,1.4647,0.535823,-0.300818,0.0427518,-0.0368834,0.878882
66974.1,-0.563937,-0.520401,0.071247,-0.828433,-0.534867,-0.102177,0.0976412,-0.550801,-0.0313187,0.421,0.058,-0.004665,1.48996,0.551036,-0.30502,0.0393753,-0.0459302,0.899871
67024.5,-0.644846,-0.524715,0.0674095,-0.907292,-0.492022,-0.0948845,0.00473284,-0.578217,-0.0424118,0.421,0.058,-0.004665,1.5067,0.587932,-0.31304,0.0480949,-0.062134,0.942187
67074.9,-0.753813,-0.608216,0.0614346,-1.03146,-0.560087,-0.100027,0.00521666,-0.754627,-0.0644846,0.421,0.058,-0.004665,1.4919,0.613036,-0.319511,0.0649861,-0.0689951,0.986643
67125.3,-0.7985,-0.72486,0.0574709,-1.086,-0.685933,-0.0949828,0.159098,-0.888642,-0.0770884,0.421,0.058,-0.004665,1.46055,0.58643,-0.313344,0.0762109,-0.0544875,0.974677
67175.6,-0.791928,-0.765818,0.0551833,-1.06133,-0.734311,-0.0833396,0.332509,-0.868785,-0.0696392,0.421,0.058,-0.004665,1.45663,0.547993,-0.303405,0.0666778,-0.0302289,0.939309
67226,-0.803295,-0.76896,0.0541971,-1.03406,-0.718204,-0.0682971,0.377742,-0.618284,-0.0521631,0.421,0.058,-0.004665,1.46888,0.532174,-0.298974,0.0396454,-0.0275746,0.925694
67276.4,-0.815539,-0.752317,0.0577575,-1.01987,-0.652835,-0.0350211,0.169267,-0.465256,-0.0578537,0.421,0.058,-0.004665,1.48975,0.527484,-0.299462,0.0302944,-0.0452589,0.934513
67326.8,-0.886355,-0.694826,0.0610551,-1.07211,-0.540252,-0.00941619,-0.0267564,-0.531625,-0.0398245,0.421,0.058,-0.004665,1.51887,0.55252,-0.302689,0.0412468,-0.0662735,0.949221
67377.1,-1.03464,-0.725073,0.0638337,-1.21057,-0.527918,0.00737345,-0.061682,-0.741239,-0.0536184,0.421,0.058,-0.004665,1.52374,0.594931,-0.311648,0.0648428,-0.0758382,1.00127
67427.5,-1.14799,-0.88846,0.062378,-1.32169,-0.680438,0.000453922,0.113303,-0.943211,-0.0413628,0.421,0.058,-0.004665,1.49208,0.59307,-0.312233,0.0857184,-0.0665752,1.02154
67477.9,-1.14132,-0.994418,0.0612281,-1.30569,-0.805563,-0.0059505,0.373298,-0.989284,-0.0926933,0.421,0.058,-0.004665,1.47283,0.549708,-0.303628,0.0837843,-0.0363556,0.993095
67528.3,-1.14734,-0.978413,0.0604324,-1.26839,-0.799673,-0.00886346,0.506932,-0.754646,-0.0676422,0.421,0.058,-0.004665,1.4834,0.527228,-0.294472,0.0547032,-0.0183308,0.955135
67578.6,-1.16167,-0.962697,0.0599066,-1.22843,-0.770254,-0.00939325,0.347444,-0.466336,-0.0426159,0.421,0.058,-0.004665,1.49736,0.51769,-0.293118,0.0290155,-0.0329784,0.956328
67629,-1.21459,-0.878717,0.0632746,-1.24553,-0.651789,0.0101215,0.0519817,-0.432575,-0.035037,0.421,0.058,-0.004665,1.52357,0.525283,-0.293447,0.0292211,-0.0585989,0.959977
67679.4,-1.37939,-0.816353,0.0659288,-1.36418,-0.551541,0.0223748,-0.104843,-0.627788,-0.0360298,0.421,0.058,-0.004665,1.54497,0.567791,-0.29928,0.050424,-0.0797799,0.992863
67729.8,-1.55767,-0.987724,0.0641447,-1.50119,-0.680218,0.00975048,-0.0259391,-0.903234,-0.0570765,0.421,0.058,-0.004665,1.52517,0.592488,-0.308197,0.0793373,-0.0857135,1.05252
67780.2,-1.57486,-1.20719,0.0625778,-1.52873,-0.887026,-0.000342497,0.257754,-1.1094,-0.0918493,0.421,0.058,-0.004665,1.49084,0.550747,-0.302222,0.100663,-0.0560071,1.03826
67830.5,-1.55956,-1.17802,0.0614208,-1.48979,-0.895135,-0.00579067,0.577983,-0.975572,-0.0711241,0.421,0.058,-0.004665,1.49913,0.517386,-0.287354,0.0762134,-0.0145107,0.964806
67880.9,-1.59791,-1.13767,0.0606248,-1.4581,-0.861139,-0.00816579,0.533096,-0.555375,-0.035594,0.421,0.058,-0.004665,1.51322,0.511514,-0.282626,0.0366268,-0.0138693,0.94866
67931.3,-1.60732,-1.09808,0.060083,-1.40781,-0.806993,-0.0082488,0.226395,-0.330625,-0.0235195,0.421,0.058,-0.004665,1.5303,0.507199,-0.283705,0.0159112,-0.0456252,0.958879
67981.7,-1.72397,-0.974232,0.0559978,-1.44595,-0.677889,-0.0243967,-0.117177,-0.451908,-0.0364723,0.421,0.058,-0.004665,1.56004,0.537267,-0.284368,0.0310654,-0.0781474,0.961858
68032,-1.9709,-1.06386,0.052757,-1.60805,-0.704529,-0.0320552,-0.192345,-0.786725,-0.0488653,0.421,0.058,-0.004665,1.55826,0.58166,-0.294832,0.0680095,-0.0969634,1.02781
68082.4,-2.0964,-1.36766,0.0503657,-1.73085,-0.92444,-0.0355464,0.0753156,-1.13893,-0.0921268,0.421,0.058,-0.004665,1.51737,0.558534,-0.292098,0.102585,-0.0726352,1.02902
68132.8,-2.05188,-1.42731,0.0488175,-1.7018,-1.00504,-0.0352592,0.492045,-1.12173,-0.102308,0.421,0.058,-0.004665,1.51124,0.511713,-0.278739,0.0903033,-0.022667,0.961912
68183.2,-2.10449,-1.35261,0.0480296,-1.68775,-0.952471,-0.0309639,0.617968,-0.689401,-0.0591688,0.421,0.058,-0.004665,1.52509,0.501741,-0.269872,0.0416408,-0.00739814,0.917598
68233.5,-2.09433,-1.35331,0.0477252,-1.62485,-0.927359,-0.0250139,0.299275,-0.308757,-0.0347672,0.421,0.058,-0.004665,1.53507,0.489588,-0.271203,0.0119058,-0.0395441,0.931028
68283.9,-2.17004,-1.13774,0.0477482,-1.64623,-0.726923,-0.017383,-0.133564,-0.371053,-0.0432892,0.421,0.058,-0.004665,1.56767,0.501085,-0.267069,0.0257036,-0.0729082,0.901871
68334.3,-2.46929,-1.00752,0.0478763,-1.8232,-0.579665,-0.0101367,-0.240838,-0.707362,-0.0438757,0.421,0.058,-0.004665,1.58705,0.549794,-0.269448,0.0558891,-0.0810461,0.920031
68384.7,-2.76926,-1.22341,0.048042,-2.02449,-0.680474,-0.00577708,-0.068441,-0.955866,-0.0723467,0.421,0.058,-0.004665,1.56308,0.566674,-0.272277,0.0827104,-0.066906,0.952452
68435.1,-2.79885,-1.50336,0.0482905,-2.04765,-0.87353,-0.00260464,0.270991,-0.995797,-0.0597916,0.421,0.058,-0.004665,1.53524,0.531974,-0.270946,0.0805121,-0.0376958,0.960565
68485.4,-2.77475,-1.57359,0.048668,-2.0036,-0.929093,-0.000559201,0.443515,-0.73548,-0.0630827,0.421,0.058,-0.004665,1.53313,0.503136,-0.2663,0.0517364,-0.0260937,0.940849
68535.8,-2.7323,-1.59624,0.049042,-1.9362,-0.938574,0.00153799,0.278525,-0.507397,-0.04245,0.421,0.058,-0.004665,1.5401,0.483162,-0.265647,0.0285205,-0.0395705,0.94088
68586.2,-2.70816,-1.43678,0.0493831,-1.89372,-0.822431,0.00429295,0.0012262,-0.46859,-0.0365582,0.421,0.058,-0.004665,1.56502,0.475132,-0.262312,0.0313202,-0.0624503,0.917237
68636.6,-2.95361,-1.11763,0.0496514,-2.01354,-0.594743,0.00698709,-0.122222,-0.677207,-0.0395346,0.421,0.058,-0.004665,1.59741,0.508722,-0.2561,0.0482826,-0.0653,0.875878
68686.9,-3.31838,-1.07939,0.0497874,-2.18788,-0.537617,0.00714515,-0.0554953,-0.785363,-0.0570545,0.421,0.058,-0.004665,1.60194,0.547864,-0.257961,0.0590248,-0.0590467,0.896532
68737.3,-3.55333,-1.35969,0.0498237,-2.29027,-0.677668,0.00607368,0.0872503,-0.796169,-0.0581589,0.421,0.058,-0.004665,1.5796,0.55318,-0.263911,0.0611694,-0.0567624,0.948475
68787.7,-0.0555445,-0.0437742,0.0572583,-0.169731,-0.289295,0.0293524,0.158351,-0.783802,-0.0680866,0.421,0.058,-0.004665,1.55374,0.522275,-0.267901,0.0639082,-0.0556354,0.986753
68838.1,-0.0647301,-0.0578271,0.0590177,-0.251367,-0.297465,0.0319898,0.217252,-0.820231,-0.0521317,0.421,0.058,-0.004665,1.55272,0.484012,-0.264199,0.0628904,-0.0450796,0.968762
68888.5,-0.0355243,-0.0359547,0.0565533,-0.245427,-0.331145,0.0128013,0.274961,-0.699818,-0.0542459,0.421,0.058,-0.004665,1.57201,0.471468,-0.257847,0.0476131,-0.038346,0.927547
68938.9,-0.045193,-0.0568171,0.0544649,-0.243359,-0.375993,0.000463547,0.1537,-0.584714,-0.0440273,0.421,0.058,-0.004665,1.59645,0.478097,-0.256181,0.0344057,-0.0472551,0.915562
68989.2,-0.0327954,-0.0517779,0.0527255,-0.221187,-0.383422,-0.00625575,-0.0168076,-0.571521,-0.0320387,0.421,0.058,-0.004665,1.62012,0.511069,-0.254453,0.0393242,-0.0602118,0.904478
69039.6,-0.0385766,-0.0760677,0.0512997,-0.218121,-0.394463,-0.00998331,-0.0573409,-0.692685,-0.0400229,0.421,0.058,-0.004665,1.61875,0.546198,-0.25906,0.0524785,-0.0718554,0.944333
69090,-0.0365437,-0.0656005,0.0501675,-0.267802,-0.354406,-0.0119527,-0.00581619,-0.863025,-0.0634642,0.421,0.058,-0.004665,1.58716,0.537987,-0.26433,0.0710759,-0.0751093,0.995889
69140.4,-0.0571002,-0.0824458,0.0493998,-0.360561,-0.374839,-0.0128268,0.18794,-0.982858,-0.0866852,0.421,0.058,-0.004665,1.56713,0.490891,-0.264587,0.081954,-0.0591585,1.00468
69190.8,-0.0596077,-0.073645,0.0490567,-0.403664,-0.380754,-0.0121336,0.372623,-0.920388,-0.0858974,0.421,0.058,-0.004665,1.58304,0.465921,-0.253616,0.066805,-0.0284066,0.930042
69241.1,-0.0797089,-0.0954362,0.0489283,-0.41782,-0.40538,-0.00988043,0.357686,-0.626334,-0.0519466,0.421,0.058,-0.004665,1.60124,0.464429,-0.250766,0.0365585,-0.0272315,0.913124
69291.5,-0.0752379,-0.0887165,0.0489341,-0.404334,-0.365854,-0.00758732,0.130195,-0.412629,-0.0448971,0.421,0.058,-0.004665,1.62395,0.473803,-0.250702,0.021616,-0.0537827,0.910896
69341.9,-0.0891555,-0.109125,0.0490104,-0.420898,-0.33442,-0.00327997,-0.159268,-0.530671,-0.0410233,0.421,0.058,-0.004665,1.64636,0.515967,-0.248871,0.0385038,-0.0764338,0.899223
69392.3,-0.0810174,-0.0913084,0.0489774,-0.435607,-0.253799,-0.000834321,-0.19195,-0.826951,-0.0722389,0.421,0.058,-0.004665,1.631,0.542131,-0.251391,0.0670988,-0.0770143,0.930157
69442.7,-0.106753,-0.104444,0.0489941,-0.499429,-0.278511,-0.000380508,0.0786196,-0.970998,-0.0839739,0.421,0.058,-0.004665,1.59873,0.513447,-0.253731,0.0772635,-0.0617689,0.962128
69493,-0.139338,-0.123378,0.049092,-0.55935,-0.326505,-0.000139662,0.286707,-0.922096,-0.0831413,0.421,0.058,-0.004665,1.59224,0.47367,-0.250928,0.0682124,-0.0382881,0.946658
69543.4,-0.17177,-0.144604,0.049286,-0.59434,-0.354784,0.00118754,0.322873,-0.706536,-0.0562105,0.421,0.058,-0.004665,1.60471,0.454616,-0.246548,0.045818,-0.0315929,0.914176
69593.8,-0.201618,-0.168596,0.0494906,-0.612464,-0.366452,0.00209718,0.172049,-0.523255,-0.0508633,0.421,0.058,-0.004665,1.62416,0.450227,-0.245804,0.0297713,-0.0445651,0.907269
69644.2,-0.227058,-0.188245,0.0496741,-0.638192,-0.341079,0.0039267,-0.0550845,-0.523403,-0.0495005,0.421,0.058,-0.004665,1.65375,0.47195,-0.240869,0.0333786,-0.0606494,0.866811
69694.6,-0.151749,-0.125235,0.0495993,-0.533461,-0.177935,0.00608766,-0.144689,-0.656877,-0.0384512,0.421,0.058,-0.004665,1.66803,0.514755,-0.239301,0.0482038,-0.0665024,0.860569
69744.9,-0.173427,-0.129945,0.049674,-0.565884,-0.173583,0.006102,-0.068148,-0.7993,-0.0582752,0.421,0.058,-0.004665,1.6507,0.530717,-0.244649,0.0589953,-0.066646,0.914823
69795.3,-0.134363,-0.0971257,0.0496879,-0.479014,-0.137985,0.00563083,0.0662239,-0.873887,-0.0546198,0.421,0.058,-0.004665,1.62166,0.50258,-0.251107,0.0661125,-0.0614992,0.977747
69845.7,-0.164943,-0.112063,0.0497712,-0.5315,-0.179211,0.00564011,0.212532,-0.856731,-0.0551834,0.421,0.058,-0.004665,1.61498,0.462846,-0.249753,0.0638999,-0.049439,0.971641
69896.1,-0.131012,-0.0876058,0.049824,-0.469079,-0.171148,0.00267712,0.255269,-0.747156,-0.0672684,0.421,0.058,-0.004665,1.63098,0.444087,-0.243523,0.0502927,-0.0411633,0.922579
69946.5,-0.155095,-0.0983552,0.0498637,-0.499869,-0.173421,0.00273374,0.146963,-0.616525,-0.0559044,0.421,0.058,-0.004665,1.65508,0.446857,-0.239968,0.0382325,-0.0463984,0.892918
69996.9,-0.122675,-0.0766046,0.0497768,-0.454397,-0.119834,0.00295191,-0.00307696,-0.581059,-0.0425978,0.421,0.058,-0.004665,1.68111,0.474533,-0.235816,0.037467,-0.0553028,0.857996
70047.2,-0.140163,-0.080071,0.0497823,-0.47826,-0.101173,0.00394383,-0.0848552,-0.65557,-0.0476847,0.421,0.058,-0.004665,1.69084,0.513444,-0.238121,0.0439654,-0.0650963,0.882014
70097.6,-0.112666,-0.0642832,0.0496443,-0.426047,-0.0761289,0.00351038,-0.0679227,-0.75527,-0.0647898,0.421,0.058,-0.004665,1.67162,0.52457,-0.245741,0.0546007,-0.0759194,0.954482
70148,-0.136597,-0.0747799,0.049579,-0.486361,-0.107439,0.00297982,-0.000579645,-0.920217,-0.0787411,0.421,0.058,-0.004665,1.64081,0.486165,-0.249343,0.074613,-0.0718682,0.9969
70198.4,-0.118417,-0.0638411,0.0495445,-0.464084,-0.134386,0.00100691,0.252146,-0.986513,-0.0784378,0.421,0.058,-0.004665,1.64412,0.447143,-0.240757,0.071889,-0.0406638,0.930968
70248.8,-0.143553,-0.0723697,0.0496094,-0.49293,-0.155004,0.00127572,0.326761,-0.751445,-0.0596972,0.421,0.058,-0.004665,1.66113,0.437952,-0.234771,0.0433945,-0.0271305,0.884051
70299.1,-0.119992,-0.0637195,0.0495595,-0.430512,-0.15131,0.000328409,0.165669,-0.480024,-0.038518,0.421,0.058,-0.004665,1.68092,0.439413,-0.236413,0.0239276,-0.047488,0.896715
70349.5,-0.140558,-0.0696917,0.0496407,-0.462056,-0.113852,0.00204108,-0.116724,-0.501169,-0.0588961,0.421,0.058,-0.004665,1.71005,0.470852,-0.232715,0.0319788,-0.0689695,0.863502
70399.9,-0.113705,-0.0574574,0.0495008,-0.426071,-0.0754332,0.00262999,-0.195608,-0.706726,-0.0628748,0.421,0.058,-0.004665,1.71655,0.513117,-0.234941,0.0522564,-0.0790678,0.888833
70450.3,-0.133782,-0.0627624,0.0494785,-0.481674,-0.0807078,0.0034849,-0.0918888,-0.920833,-0.0691948,0.421,0.058,-0.004665,1.68894,0.510569,-0.23774,0.0709287,-0.072848,0.928389
70500.7,-0.11678,-0.0580228,0.0494146,-0.456659,-0.115822,0.00255259,0.12753,-0.984833,-0.0658064,0.421,0.058,-0.004665,1.66469,0.468067,-0.238468,0.0756293,-0.0528051,0.945219
70551,-0.143361,-0.0676135,0.0495401,-0.498518,-0.142888,0.00347366,0.301698,-0.842775,-0.0563211,0.421,0.058,-0.004665,1.66704,0.437628,-0.2329,0.0542637,-0.0347033,0.900785
70601.4,-0.122617,-0.0613202,0.0495799,-0.442797,-0.157357,0.00195941,0.203263,-0.594811,-0.0455456,0.421,0.058,-0.004665,1.67962,0.422673,-0.232013,0.0340049,-0.0411319,0.890623
70651.8,-0.146202,-0.0711005,0.0497137,-0.472126,-0.140546,0.00388434,-0.00423185,-0.515099,-0.0388966,0.421,0.058,-0.004665,1.70547,0.424792,-0.230442,0.0303805,-0.0607964,0.869434
70702.2,-0.122184,-0.0600397,0.049689,-0.444062,-0.0955469,0.00498956,-0.159751,-0.631168,-0.0470085,0.421,0.058,-0.004665,1.73457,0.461377,-0.224016,0.0406731,-0.0642892,0.811098
70752.6,-0.141511,-0.0626315,0.0497711,-0.480796,-0.0714741,0.0057338,-0.146485,-0.713914,-0.0625296,0.421,0.058,-0.004665,1.74037,0.498747,-0.223498,0.0492684,-0.0618358,0.815243
70803,-0.119072,-0.0556331,0.0496707,-0.43098,-0.0710679,0.00454445,-0.058583,-0.761321,-0.0651999,0.421,0.058,-0.004665,1.72184,0.505492,-0.230544,0.050807,-0.0670709,0.888566
70853.3,-0.143424,-0.0652865,0.0496594,-0.484926,-0.0875058,0.00478736,-0.0201874,-0.841458,-0.0615816,0.421,0.058,-0.004665,1.69327,0.470553,-0.234803,0.0622386,-0.0659853,0.938
70903.7,-0.125868,-0.0587853,0.0496505,-0.463091,-0.10724,0.00297866,0.109788,-0.891817,-0.0767136,0.421,0.058,-0.004665,1.68874,0.42982,-0.230459,0.0608659,-0.0482753,0.902708
70954.1,-0.152147,-0.0667164,0.0497365,-0.506494,-0.114135,0.00337333,0.165038,-0.731319,-0.0641203,0.421,0.058,-0.004665,1.70301,0.411287,-0.225277,0.0450009,-0.0413537,0.854928
71004.5,-0.129803,-0.0600513,0.0496837,-0.460217,-0.115091,0.00249122,0.0506419,-0.594223,-0.0435133,0.421,0.058,-0.004665,1.72562,0.411485,-0.226212,0.0333769,-0.0510726,0.854594
71054.9,-0.151971,-0.0656251,0.0497651,-0.492998,-0.0893051,0.00446673,-0.0911783,-0.583837,-0.0431881,0.421,0.058,-0.004665,1.75401,0.440389,-0.223519,0.0369891,-0.0601943,0.825347
71105.2,-0.126165,-0.0560834,0.049676,-0.446577,-0.0613308,0.0048985,-0.127907,-0.683798,-0.0500937,0.421,0.058,-0.004665,1.7674,0.481447,-0.226425,0.0428269,-0.069343,0.854113
71155.6,-0.14584,-0.0604543,0.0496766,-0.48593,-0.0535976,0.0048532,-0.129974,-0.797783,-0.0788374,0.421,0.058,-0.004665,1.75114,0.494986,-0.231205,0.0559988,-0.0750104,0.911795
71206,-0.127024,-0.0536389,0.0495955,-0.466244,-0.0602579,0.00387599,-0.0175038,-0.912788,-0.078064,0.421,0.058,-0.004665,1.72142,0.461142,-0.230797,0.0673194,-0.0652304,0.923765
71256.4,-0.154945,-0.0606937,0.0496334,-0.524471,-0.0815193,0.00314515,0.151094,-0.886342,-0.0867996,0.421,0.058,-0.004665,1.71403,0.421109,-0.225902,0.0599406,-0.0464584,0.882996
71306.8,-0.134047,-0.0544649,0.049613,-0.474934,-0.102847,0.00191714,0.162909,-0.722828,-0.0434017,0.421,0.058,-0.004665,1.7236,0.399295,-0.223816,0.0411939,-0.0422164,0.861905
71357.2,-0.159225,-0.0631965,0.049684,-0.500636,-0.101204,0.00320349,0.0286033,-0.582563,-0.0427284,0.421,0.058,-0.004665,1.74512,0.394192,-0.225924,0.0332861,-0.0566691,0.871333
71407.5,-0.134159,-0.0543469,0.0496456,-0.465193,-0.0681112,0.00355914,-0.103062,-0.624664,-0.0558538,0.421,0.058,-0.004665,1.77496,0.421163,-0.221314,0.0387246,-0.0604761,0.821495
71457.9,-0.154789,-0.0561553,0.0497322,-0.498755,-0.0402352,0.00436834,-0.112908,-0.688123,-0.0702581,0.421,0.058,-0.004665,1.79088,0.460769,-0.220338,0.0414378,-0.0612386,0.816926
71508.3,-0.129743,-0.0488895,0.0496291,-0.451007,-0.0315391,0.00482988,-0.108501,-0.734646,-0.0435047,0.421,0.058,-0.004665,1.78227,0.481687,-0.224364,0.0462897,-0.0676744,0.867183
71558.7,-0.154331,-0.0536604,0.0496863,-0.50234,-0.0295489,0.00620935,-0.0717322,-0.781989,-0.0468464,0.421,0.058,-0.004665,1.75449,0.461626,-0.225344,0.0547853,-0.070418,0.895035
71609.1,-0.134542,-0.0498414,0.0496606,-0.471621,-0.0560692,0.00515483,-0.00789323,-0.864116,-0.0535259,0.421,0.058,-0.004665,1.73636,0.417659,-0.225201,0.0595946,-0.0616707,0.901012
71659.4,-0.162084,-0.055709,0.0497818,-0.527338,-0.0612317,0.00657597,0.066999,-0.835771,-0.0512743,0.421,0.058,-0.004665,1.74396,0.387221,-0.219226,0.0532727,-0.0447537,0.841726
71709.8,-0.137945,-0.0509538,0.0497742,-0.472031,-0.0819119,0.00451526,0.0951992,-0.672513,-0.0489378,0.421,0.058,-0.004665,1.76151,0.37875,-0.220931,0.0348089,-0.0475222,0.849947
71760.2,-0.161455,-0.0565554,0.04989,-0.499072,-0.0641162,0.00634414,-0.0454803,-0.580335,-0.0326462,0.421,0.058,-0.004665,1.78892,0.393946,-0.221673,0.0316215,-0.0608948,0.847914
71810.6,-0.135024,-0.0481268,0.0498463,-0.462022,-0.0310241,0.00686442,-0.156402,-0.656998,-0.048667,0.421,0.058,-0.004665,1.81274,0.435561,-0.218299,0.040726,-0.0648973,0.813988
71861,-0.156594,-0.0489652,0.0499299,-0.504876,-0.00820995,0.00782025,-0.133267,-0.747526,-0.0548258,0.421,0.058,-0.004665,1.81132,0.464209,-0.216452,0.0464283,-0.0608926,0.810227
71911.3,-0.130038,-0.05177,0.042305,-0.43967,-0.0873722,-0.0308385,-0.0900528,-0.750525,-0.0545712,0.421,0.058,-0.004665,1.7887,0.458806,-0.218905,0.0495715,-0.0653882,0.851972
71961.7,-0.150526,-0.0728011,0.0326469,-0.462391,-0.18008,-0.0700582,-0.0577184,-0.79846,-0.0681715,0.421,0.058,-0.004665,1.7631,0.421198,-0.223039,0.054244,-0.0680786,0.901704
72012.1,-0.132324,-0.0625611,0.0292288,-0.449573,-0.158464,-0.069248,0.0095266,-0.856097,-0.0628595,0.421,0.058,-0.004665,1.76056,0.38158,-0.222037,0.0556069,-0.0566408,0.888145
72062.5,-0.158216,-0.0703927,0.0272172,-0.503303,-0.138832,-0.0602338,0.0708656,-0.771707,-0.0560713,0.421,0.058,-0.004665,1.77799,0.366248,-0.218563,0.0457915,-0.0478621,0.8452
72112.9,-0.139877,-0.0535739,0.0299676,-0.493102,-0.0517206,-0.0304126,0.0300808,-0.653101,-0.0471992,0.421,0.058,-0.004665,1.80262,0.374555,-0.218849,0.0347776,-0.0522884,0.83775
72163.3,-0.16783,-0.05011,0.0327166,-0.547747,0.024501,-0.00658777,-0.0913104,-0.606865,-0.0445995,0.421,0.058,-0.004665,1.82878,0.406606,-0.217072,0.033515,-0.0604033,0.814503
72213.6,-0.196217,-0.0435987,0.03512,-0.596272,0.090999,0.00974492,-0.161909,-0.646492,-0.0480537,0.421,0.058,-0.004665,1.83994,0.445633,-0.215863,0.040098,-0.0672767,0.808963
72264,-0.225775,-0.0376245,0.0370546,-0.641095,0.130741,0.0194022,-0.171994,-0.745662,-0.0553045,0.421,0.058,-0.004665,1.82448,0.45482,-0.215438,0.0487495,-0.0670158,0.821773
72314.4,-0.258371,-0.0359224,0.038513,-0.68098,0.133356,0.0229948,-0.0849041,-0.787905,-0.0674925,0.421,0.058,-0.004665,1.79801,0.427096,-0.217864,0.0509033,-0.0655915,0.86091
72364.8,-0.185662,-0.0427374,0.0430912,-0.547414,0.0624457,0.0402056,-0.0485654,-0.818111,-0.0496769,0.421,0.058,-0.004665,1.78348,0.383737,-0.219612,0.0534191,-0.0611026,0.879513
72415.1,-0.218385,-0.0383138,0.046783,-0.60742,0.088839,0.0505721,0.0212974,-0.806273,-0.0586243,0.421,0.058,-0.004665,1.79232,0.35537,-0.217556,0.046694,-0.0524828,0.852452
72465.5,-0.252875,-0.035026,0.0494327,-0.653231,0.100504,0.0531379,-0.00232322,-0.693577,-0.049942,0.421,0.058,-0.004665,1.81475,0.351213,-0.217223,0.0385356,-0.0546417,0.836979
72515.9,-0.180208,-0.040252,0.0508881,-0.523761,0.0251202,0.0480776,-0.0799087,-0.649078,-0.0371914,0.421,0.058,-0.004665,1.84289,0.374067,-0.21591,0.0347103,-0.059616,0.813351
72566.3,-0.14148,-0.0410501,0.04413,-0.443125,-0.0629805,0.00379244,-0.16258,-0.663242,-0.0491867,0.421,0.058,-0.004665,1.86361,0.416172,-0.213954,0.0401104,-0.063411,0.794035
72616.7,-0.161523,-0.0470684,0.0424621,-0.471479,-0.0621776,-0.00324011,-0.156582,-0.716198,-0.0528374,0.421,0.058,-0.004665,1.86104,0.44298,-0.215774,0.0448427,-0.0690467,0.825685
72667.1,-0.133108,-0.0422395,0.0410783,-0.432422,-0.0585143,-0.00717144,-0.137161,-0.793284,-0.0484753,0.421,0.058,-0.004665,1.83597,0.429618,-0.217806,0.0529743,-0.0712141,0.863907
72717.4,-0.156063,-0.0498032,0.0401942,-0.479978,-0.0665852,-0.00720579,-0.0533992,-0.858789,-0.0431595,0.421,0.058,-0.004665,1.81325,0.387103,-0.219875,0.0571902,-0.0671826,0.892491
72767.8,-0.134091,-0.0432756,0.0396235,-0.463323,-0.0644454,-0.00726385,0.0233375,-0.875092,-0.0645638,0.421,0.058,-0.004665,1.81418,0.349013,-0.216963,0.0548639,-0.0543866,0.857921
72818.2,-0.157712,-0.0545993,0.0355992,-0.491382,-0.111516,-0.0239204,0.0705513,-0.751854,-0.0444813,0.421,0.058,-0.004665,1.83182,0.337096,-0.213377,0.0410129,-0.046364,0.813223
72868.6,-0.135188,-0.0508342,0.0324926,-0.443246,-0.120913,-0.0329558,-0.022039,-0.604223,-0.044034,0.421,0.058,-0.004665,1.85585,0.344669,-0.217629,0.0299778,-0.0617376,0.845405
72919,-0.162162,-0.0514727,0.0342415,-0.507505,-0.0343585,-0.0119146,-0.189854,-0.653629,-0.0390072,0.421,0.058,-0.004665,1.88407,0.382953,-0.214758,0.0372268,-0.0669517,0.808008
72969.4,-0.139363,-0.039265,0.0357832,-0.487694,0.0274577,0.00149231,-0.184159,-0.717388,-0.0433741,0.421,0.058,-0.004665,1.8926,0.419857,-0.210605,0.0428107,-0.0627155,0.775033
73019.7,-0.164033,-0.0352425,0.0372403,-0.527274,0.0750323,0.0108922,-0.139664,-0.720174,-0.0528698,0.421,0.058,-0.004665,1.87822,0.426853,-0.209807,0.0439151,-0.0629765,0.783798
73070.1,-0.140198,-0.0316794,0.038234,-0.477952,0.0619443,0.014733,-0.141779,-0.745639,-0.0447807,0.421,0.058,-0.004665,1.85206,0.400073,-0.2139,0.0467992,-0.066481,0.840791
73120.5,-0.166821,-0.031604,0.0391245,-0.526111,0.0725058,0.0175703,-0.0932512,-0.802591,-0.0587435,0.421,0.058,-0.004665,1.83605,0.355552,-0.216099,0.0502595,-0.064632,0.865128
73170.9,-0.200934,-0.0222759,0.0436681,-0.60068,0.145019,0.0387128,-0.0297169,-0.805151,-0.0585604,0.421,0.058,-0.004665,1.84384,0.325574,-0.212723,0.045954,-0.0525676,0.817709
73221.2,-0.236473,-0.0173485,0.0471293,-0.647786,0.169518,0.0483287,-0.032269,-0.688748,-0.0496531,0.421,0.058,-0.004665,1.86309,0.317914,-0.21659,0.0344823,-0.0589099,0.845935
73271.6,-0.272814,-0.0120214,0.0496095,-0.701651,0.199238,0.0521002,-0.131503,-0.654747,-0.0381289,0.421,0.058,-0.004665,1.89282,0.341085,-0.213607,0.0366843,-0.0624587,0.800891
73322,-0.305845,-0.00684708,0.0511983,-0.739982,0.211187,0.0493866,-0.16219,-0.679455,-0.0603228,0.421,0.058,-0.004665,1.9146,0.382385,-0.210412,0.038132,-0.061908,0.766909
73372.4,-0.333058,-0.00722138,0.0520088,-0.751563,0.187456,0.0433379,-0.178847,-0.687615,-0.0511646,0.421,0.058,-0.004665,1.91692,0.413862,-0.213886,0.0397903,-0.07204,0.815021
73422.8,-0.359924,-0.0043477,0.052312,-0.77043,0.172235,0.0374128,-0.195098,-0.772775,-0.0377798,0.421,0.058,-0.004665,1.89479,0.406735,-0.214671,0.0492072,-0.0753545,0.842246
73473.1,-0.394354,-0.00296894,0.0523005,-0.807372,0.146069,0.0305645,-0.139669,-0.877138,-0.0556822,0.421,0.058,-0.004665,1.86933,0.364469,-0.215047,0.0559187,-0.0674395,0.857677
73523.5,-0.440305,0.00199568,0.0521909,-0.856835,0.134994,0.0250926,-0.0127569,-0.849332,-0.0421953,0.421,0.058,-0.004665,1.8647,0.325071,-0.210514,0.0481146,-0.051185,0.804801
73573.9,-0.488009,-0.00728995,0.0519544,-0.885866,0.095814,0.0198149,-0.00963848,-0.687358,-0.0294628,0.421,0.058,-0.004665,1.87423,0.301767,-0.212482,0.0346832,-0.0560404,0.815086
73624.3,-0.539791,-0.0167812,0.0516665,-0.92731,0.0835271,0.0162585,-0.137817,-0.638583,-0.0371389,0.421,0.058,-0.004665,1.89904,0.302985,-0.212265,0.0342635,-0.0609834,0.796988
73674.6,-0.591449,-0.0165152,0.0514082,-0.972428,0.107964,0.0140551,-0.178894,-0.659852,-0.0492487,0.421,0.058,-0.004665,1.92829,0.333795,-0.208145,0.034443,-0.0586159,0.740653
73725,-0.634071,-0.0169027,0.0511574,-0.996822,0.125772,0.0127032,-0.197719,-0.635081,-0.0379457,0.421,0.058,-0.004665,1.9473,0.375405,-0.207163,0.0348505,-0.0613649,0.731422
73775.4,-0.665142,-0.0248477,0.05089,-0.998839,0.114997,0.0110401,-0.206775,-0.65489,-0.0394335,0.421,0.058,-0.004665,1.94648,0.401384,-0.211617,0.0355149,-0.0714654,0.794224
73825.8,-0.699653,-0.0126801,0.0506578,-1.02385,0.147181,0.0102942,-0.236657,-0.733751,-0.0557518,0.421,0.058,-0.004665,1.92299,0.388406,-0.211037,0.0464989,-0.0739727,0.805364
73876.2,-0.749277,-0.000398914,0.0504754,-1.07376,0.163738,0.00995685,-0.167612,-0.843086,-0.0531235,0.421,0.058,-0.004665,1.89869,0.344111,-0.210115,0.0513172,-0.0647823,0.803864
73926.5,-0.804383,-0.0302235,0.042666,-1.09042,-0.0176225,-0.0305452,-0.0587373,-0.796475,-0.0479269,0.421,0.058,-0.004665,1.89317,0.305151,-0.207442,0.0412985,-0.0526356,0.769253
73976.9,-0.870702,-0.0484679,0.0405333,-1.12984,-0.0322876,-0.0318736,-0.0975008,-0.639444,-0.0567522,0.421,0.058,-0.004665,1.90127,0.27905,-0.209521,0.0326522,-0.0585608,0.781395
74027.3,-0.945648,-0.055075,0.0392371,-1.18304,0.00876233,-0.0271355,-0.176405,-0.622132,-0.0467234,0.421,0.058,-0.004665,1.92533,0.277014,-0.208947,0.0313218,-0.0637067,0.75814
74077.7,-1.02314,-0.025903,0.0386569,-1.24415,0.12314,-0.0183942,-0.222624,-0.644684,-0.0290642,0.421,0.058,-0.004665,1.95514,0.305742,-0.202452,0.0313751,-0.0539871,0.672715
74128,-1.08513,-0.00610353,0.0385482,-1.2711,0.20922,-0.00996876,-0.231786,-0.575351,-0.0249691,0.421,0.058,-0.004665,1.97715,0.345094,-0.200489,0.0280314,-0.0515991,0.649682
74178.4,-1.12332,-0.0133504,0.034791,-1.25526,0.1695,-0.0236293,-0.237797,-0.522549,-0.0421925,0.421,0.058,-0.004665,1.98623,0.380302,-0.201916,0.0267855,-0.0610775,0.673753
74228.8,-1.15708,0.0075137,0.0320687,-1.24745,0.209439,-0.0274439,-0.297613,-0.570723,-0.0365028,0.421,0.058,-0.004665,1.97482,0.389589,-0.201605,0.0326687,-0.0662239,0.68555
74279.2,-1.20831,0.0504414,0.0263904,-1.27535,0.223292,-0.0454544,-0.308377,-0.66251,-0.0526552,0.421,0.058,-0.004665,1.94897,0.360492,-0.197018,0.0396134,-0.0542503,0.649098
74329.5,-1.262,0.0439924,0.0262132,-1.2879,0.27541,-0.0326543,-0.195968,-0.619576,-0.0569515,0.421,0.058,-0.004665,1.92814,0.321366,-0.201319,0.0341305,-0.0581374,0.70728
74379.9,-1.33295,0.0281724,0.0265295,-1.32108,0.321202,-0.0187941,-0.217458,-0.623407,-0.0275908,0.421,0.058,-0.004665,1.91975,0.278257,-0.20566,0.0336,-0.0653607,0.751125
74430.3,-1.43043,0.0314212,0.0233026,-1.39235,0.316453,-0.026326,-0.251706,-0.668779,-0.0414286,0.421,0.058,-0.004665,1.93227,0.250672,-0.205028,0.0365219,-0.0614891,0.724622
74480.7,-1.53163,0.0669982,0.025017,-1.462,0.463197,-0.0066898,-0.208515,-0.672434,-0.0506926,0.421,0.058,-0.004665,1.9575,0.252888,-0.202167,0.0316514,-0.0505132,0.672006
74531.1,-1.61694,0.0647175,0.0266742,-1.50048,0.527709,0.00723166,-0.188071,-0.543142,-0.0322113,0.421,0.058,-0.004665,1.98344,0.274747,-0.204241,0.0240983,-0.056685,0.68526
74581.4,-1.69567,0.126499,0.0281322,-1.53521,0.657529,0.0177507,-0.296262,-0.531494,-0.0342398,0.421,0.058,-0.004665,2.00856,0.317388,-0.200751,0.0283615,-0.0565785,0.641344
74631.8,-1.75004,0.219199,0.0332172,-1.53298,0.870161,0.0438708,-0.273468,-0.560793,-0.035224,0.421,0.058,-0.004665,2.01863,0.353719,-0.198357,0.0264045,-0.0544599,0.622001
74682.2,-1.77754,0.287026,0.0370777,-1.50145,0.977542,0.0570078,-0.287024,-0.534127,-0.0240936,0.421,0.058,-0.004665,2.0112,0.368616,-0.19924,0.027333,-0.0603148,0.648972
74732.6,-1.81235,0.380753,0.0398245,-1.48222,1.07104,0.0613821,-0.32665,-0.581614,-0.0280304,0.421,0.058,-0.004665,1.9881,0.349967,-0.197911,0.0325724,-0.0584274,0.64859
74782.9,-1.87696,0.437175,0.0377614,-1.50262,1.01033,0.0398122,-0.265426,-0.599754,-0.0172729,0.421,0.058,-0.004665,1.96523,0.309616,-0.197032,0.03331,-0.0543207,0.647131
74833.3,-1.96057,0.407087,0.0319263,-1.54367,0.804507,0.00185476,-0.220945,-0.57249,-0.0546122,0.421,0.058,-0.004665,1.95249,0.265978,-0.20037,0.030122,-0.0595497,0.686637
74883.7,-2.06807,0.372184,0.0272162,-1.60664,0.683385,-0.0193395,-0.265656,-0.596601,-0.0371313,0.421,0.058,-0.004665,1.9568,0.230514,-0.203563,0.0312047,-0.0616682,0.708993
74934.1,-2.1907,0.317027,0.0197995,-1.6961,0.519617,-0.048698,-0.26105,-0.623902,-0.0387135,0.421,0.058,-0.004665,1.97756,0.21823,-0.206146,0.0310994,-0.0641362,0.720392
74984.5,-2.3156,0.309937,0.0105011,-1.79405,0.398713,-0.0798414,-0.272725,-0.641971,-0.0402012,0.421,0.058,-0.004665,2.00639,0.236971,-0.204222,0.0310246,-0.0561187,0.681608
75034.8,-2.42345,0.356633,0.00782444,-1.84811,0.516752,-0.0675637,-0.229759,-0.57588,-0.0149345,0.421,0.058,-0.004665,2.03208,0.274278,-0.202252,0.026587,-0.0562919,0.653738
75085.2,-2.50861,0.513302,0.0104683,-1.86635,0.83624,-0.0317143,-0.274575,-0.548108,-0.0445547,0.421,0.058,-0.004665,2.04692,0.315243,-0.198147,0.0266316,-0.0525246,0.611395
75135.6,-2.55546,0.667718,0.0170857,-1.82862,1.17422,0.0157876,-0.279205,-0.499914,-0.0220613,0.421,0.058,-0.004665,2.0464,0.340871,-0.197872,0.025384,-0.0574102,0.621531
75186,-0.103771,-0.0168481,0.0225819,-0.0943217,0.630828,0.0478107,-0.313978,-0.528206,-0.0346289,0.421,0.058,-0.004665,2.02874,0.33767,-0.198185,0.0273962,-0.0623288,0.646828
75236.3,-0.106707,0.0190212,0.0267916,-0.0883666,0.72303,0.0615994,-0.326982,-0.580654,-0.0380306,0.421,0.058,-0.004665,2.00281,0.303464,-0.197403,0.031438,-0.0613471,0.649337
75286.7,-0.113123,0.0668015,0.033679,-0.0834248,0.879107,0.0850451,-0.295492,-0.620511,-0.0494928,0.421,0.058,-0.004665,1.98539,0.256747,-0.198199,0.0321231,-0.0567891,0.659716
75337.1,-0.124761,0.116544,0.0386412,-0.0939158,0.964337,0.0926517,-0.248265,-0.588157,-0.0361633,0.421,0.058,-0.004665,1.98214,0.214989,-0.200594,0.0282722,-0.0590474,0.677814
75387.5,-0.142733,0.161636,0.0419156,-0.130047,1.00051,0.0895506,-0.27069,-0.570807,-0.0357246,0.421,0.058,-0.004665,1.99476,0.189313,-0.202744,0.025923,-0.0609707,0.686218
75437.9,-0.16795,0.199915,0.0438564,-0.194976,1.02158,0.0817509,-0.301683,-0.560065,-0.0259819,0.421,0.058,-0.004665,2.02157,0.190125,-0.200392,0.0275945,-0.0577178,0.635043
75488.2,-0.194892,0.25128,0.048683,-0.246303,1.11231,0.0899385,-0.288331,-0.545667,-0.0347939,0.421,0.058,-0.004665,2.04923,0.215258,-0.202067,0.0231588,-0.0589439,0.645488
75538.6,-0.220292,0.292046,0.0518886,-0.304382,1.14838,0.0883934,-0.318369,-0.521203,-0.0343914,0.421,0.058,-0.004665,2.0735,0.258863,-0.1983,0.0249683,-0.054905,0.595291
75589,-0.238115,0.323177,0.0537765,-0.344465,1.12546,0.0799948,-0.304121,-0.510955,-0.0333977,0.421,0.058,-0.004665,2.08443,0.297933,-0.194324,0.0234388,-0.0496036,0.555607
75639.4,-0.249253,0.342092,0.0546277,-0.360457,1.04262,0.0681233,-0.298892,-0.441918,-0.0198526,0.421,0.058,-0.004665,2.08116,0.32126,-0.197434,0.0217705,-0.0625595,0.612249
75689.8,-0.0847798,0.0632526,0.0539527,-0.294897,0.377415,0.0523877,-0.372264,-0.519531,-0.0362053,0.421,0.058,-0.004665,2.06043,0.309192,-0.189658,0.0264374,-0.0487832,0.530088
75740.1,-0.0966363,0.0626206,0.0461589,-0.327115,0.190961,0.00196732,-0.291516,-0.468621,-0.0308895,0.421,0.058,-0.004665,2.03597,0.279846,-0.194517,0.0231904,-0.0583846,0.606856
75790.5,-0.0632357,0.0312553,0.0436257,-0.287479,0.0951899,-0.00718206,-0.342142,-0.51187,-0.024684,0.421,0.058,-0.004665,2.01604,0.232984,-0.195222,0.0260395,-0.0586567,0.618313
75840.9,-0.080816,0.0388674,0.04196,-0.289012,0.146327,-0.00933604,-0.307936,-0.54183,-0.0351753,0.421,0.058,-0.004665,2.01116,0.18765,-0.193287,0.0240677,-0.0508581,0.579723
75891.3,-0.0678756,0.0271342,0.040823,-0.262982,0.129609,-0.00909391,-0.275712,-0.472122,-0.0205832,0.421,0.058,-0.004665,2.01818,0.154237,-0.194317,0.0184883,-0.050921,0.575631
75941.7,-0.0919583,0.0388975,0.0402333,-0.274598,0.204846,-0.00545856,-0.326934,-0.413721,-0.0295315,0.421,0.058,-0.004665,2.03633,0.136152,-0.198574,0.0176441,-0.059624,0.610458
75992.1,-0.0848201,0.0339544,0.0399352,-0.266567,0.236158,-0.00171986,-0.375325,-0.483241,-0.034462,0.421,0.058,-0.004665,2.06569,0.147625,-0.192689,0.019131,-0.0437614,0.513133
76042.4,-0.110907,0.0625317,0.0438605,-0.252815,0.409868,0.023242,-0.265703,-0.362491,-0.0256329,0.421,0.058,-0.004665,2.09201,0.17334,-0.194614,0.012545,-0.0517939,0.531148
76092.8,-0.10028,0.054294,0.0468055,-0.237707,0.409317,0.03596,-0.377585,-0.362292,-0.00929451,0.421,0.058,-0.004665,2.11702,0.217576,-0.189262,0.0163263,-0.042824,0.460954
76143.2,-0.122874,0.0856269,0.049239,-0.223028,0.530921,0.0437665,-0.30171,-0.337309,-0.0257921,0.421,0.058,-0.004665,2.13243,0.259901,-0.187045,0.0128834,-0.0424087,0.442612
76193.6,-0.106908,0.0658427,0.0506579,-0.20195,0.446103,0.0422649,-0.291551,-0.286682,-0.0238276,0.421,0.058,-0.004665,2.13701,0.29251,-0.18583,0.0112475,-0.047285,0.44246
76244,-0.122902,0.0795036,0.0441456,-0.227592,0.416018,0.00377409,-0.382356,-0.30097,-0.0174103,0.421,0.058,-0.004665,2.12727,0.304329,-0.182659,0.0156688,-0.042103,0.420043
76294.3,-0.105631,0.0521908,0.0349667,-0.227601,0.262724,-0.0404381,-0.311121,-0.315618,-0.0353737,0.421,0.058,-0.004665,2.1082,0.295848,-0.183764,0.0133432,-0.0470104,0.454594
76344.7,-0.119531,0.0585127,0.024346,-0.233689,0.241408,-0.0794462,-0.361923,-0.308841,-0.0369015,0.421,0.058,-0.004665,2.08274,0.263089,-0.178456,0.0167595,-0.0379277,0.397942
76395.1,-0.0952617,0.0507969,0.0203112,-0.114198,0.241835,-0.0771975,-0.289345,-0.29734,-0.0341282,0.421,0.058,-0.004665,2.0597,0.225197,-0.184494,0.0128057,-0.0493514,0.487981
76445.5,-0.101579,0.0676343,0.0141628,-0.069633,0.309001,-0.0838835,-0.370145,-0.336351,-0.0180988,0.421,0.058,-0.004665,2.04457,0.17438,-0.182851,0.0163403,-0.044407,0.458828
76495.9,-0.0760417,0.0646314,0.0138947,0.0689529,0.366458,-0.0609826,-0.320361,-0.334345,-0.0362988,0.421,0.058,-0.004665,2.04059,0.12827,-0.181454,0.01356,-0.0378899,0.424326
76546.2,-0.0716996,0.100175,0.014535,0.176577,0.507731,-0.0385706,-0.289271,-0.263254,-0.0231409,0.421,0.058,-0.004665,2.04337,0.0874466,-0.186502,0.00994296,-0.0476285,0.472823
76596.6,-0.0535779,0.0909662,0.0192039,0.269844,0.520361,-0.00346982,-0.358389,-0.301474,-0.0465527,0.421,0.058,-0.004665,2.0615,0.0602367,-0.182343,0.0110888,-0.03473,0.387663
76647,-0.0445476,0.138419,0.0234188,0.373688,0.663401,0.021772,-0.256964,-0.220079,-0.0211611,0.421,0.058,-0.004665,2.08001,0.0437142,-0.191113,0.00503531,-0.0536057,0.485582
76697.4,-0.0386232,0.114114,0.0301993,0.370025,0.582248,0.0519669,-0.451307,-0.291614,-0.0400934,0.421,0.058,-0.004665,2.11234,0.0555558,-0.18279,0.0120525,-0.0281856,0.347568
76747.8,-0.0298624,0.163879,0.0357325,0.447593,0.700517,0.0691074,-0.217287,-0.212653,-0.030057,0.421,0.058,-0.004665,2.13679,0.0734562,-0.192331,0.00217636,-0.0505962,0.472384
76798.2,-0.0317018,0.119183,0.0391859,0.335466,0.496877,0.0693167,-0.418886,-0.246911,-0.0474291,0.421,0.058,-0.004665,2.16551,0.11596,-0.178443,0.00798208,-0.0190943,0.27573
76848.5,-0.0262516,0.158609,0.0418801,0.384645,0.543745,0.0674347,-0.150381,-0.121637,-0.0272427,0.421,0.058,-0.004665,2.18705,0.156246,-0.185877,-0.000336156,-0.0457603,0.385735
76898.9,-0.0300056,0.110923,0.0430422,0.267521,0.361586,0.0584439,-0.418046,-0.164047,-0.0256357,0.421,0.058,-0.004665,2.20366,0.202109,-0.168977,0.00438108,-0.00506859,0.163894
76949.3,-0.0283417,0.132387,0.0401829,0.262823,0.302947,0.0315578,-0.0432907,-0.0486261,-0.0155516,0.421,0.058,-0.004665,2.21538,0.245913,-0.176233,-0.00136509,-0.0366948,0.285502
76999.7,-0.0310726,0.0890434,0.0336286,0.17144,0.137608,-0.00525219,-0.357203,-0.0992352,-0.0123377,0.421,0.058,-0.004665,2.21743,0.274884,-0.153537,-0.00648086,0.0207563,-0.0126033
77050.1,-0.0353321,0.0870345,0.0247835,0.093789,-0.057596,-0.0458792,0.223085,0.0626708,-0.0180578,0.421,0.058,-0.004665,2.21966,0.320067,-0.173325,-0.0119212,-0.053255,0.299833
77100.4,-0.0215592,0.0657865,0.0144384,0.216561,-0.0506931,-0.080809,-0.524019,-0.0378195,-0.0394468,0.421,0.058,-0.004665,2.21023,0.319081,-0.11805,-0.0696372,0.0941246,-0.469038
77150.8,-0.0277098,0.0277439,0.0099347,-0.0196614,-0.385925,-0.0750981,1.12722,0.195045,-0.0823689,0.421,0.058,-0.004665,2.21457,0.390618,-0.177567,-0.0710832,-0.148207,0.413731
77201.2,0.0107294,0.0331068,0.00377254,0.409952,-0.153909,-0.0753379,-1.59677,0.049161,-0.156626,0.421,0.058,-0.004665,2.20567,0.3511,-0.0738399,-0.37069,0.188276,-1.06176
77251.6,-0.036997,-0.0301436,-0.00256332,-0.19109,-0.158292,-0.0966124,3.92989,0.216443,-0.85181,0.421,0.058,-0.004665,2.24153,0.42934,-0.172157,0.0196687,-0.434574,0.166443
77302,0.00348502,-0.0267968,-0.0028077,0.127958,-0.249127,-0.0276403,-4.04428,-0.872737,-0.932067,0.421,0.058,-0.004665,2.24481,0.423591,-0.0778658,-0.730013,-0.106635,-0.864126
77352.4,-0.0113296,-0.0453506,-0.00750622,-0.0788688,0.0607591,-0.101298,4.46575,4.82108,-2.56058,0.421,0.058,-0.004665,2.25113,0.419434,-0.174341,0.304062,-0.332189,-0.247838
77402.7,0.00107822,-0.0695245,-0.0101992,-0.0145378,-0.305168,0.00344795,-3.67592,-2.10265,-0.978128,0.421,0.058,-0.004665,2.23641,0.525528,-0.139201,-0.180196,-0.165608,-0.416669
77453.1,0.0155571,-0.117036,-0.00229059,0.140419,-0.421098,0.10567,-0.742977,2.25261,-0.296578,0.421,0.058,-0.004665,2.22059,0.572671,-0.159171,-0.0547315,0.0587015,-0.294938
77503.5,0.0266324,-0.067705,-0.000674759,0.17406,-0.132713,0.0708197,0.697901,0.328612,-0.0557728,0.421,0.058,-0.004665,2.2278,0.534743,-0.171198,0.000306439,0.0341714,-0.228832
77553.9,0.0323211,-0.0485656,-0.00512581,0.0960177,0.107201,0.0140609,0.324708,-0.0766568,-0.021018,0.421,0.058,-0.004665,2.23176,0.50604,-0.17902,-0.000598226,0.0185258,-0.179731
77604.3,0.025326,-0.0242192,-0.00271378,0.00718147,0.0453058,0.0271986,0.171076,-0.0129251,-0.00682259,0.421,0.058,-0.004665,2.23382,0.476744,-0.186374,-0.000998665,0.0142174,-0.131579
77654.6,0.0227834,-0.0315846,-0.000877055,-0.0640862,-0.232079,0.0319422,0.147344,-0.0176928,-0.00645065,0.421,0.058,-0.004665,2.23329,0.445718,-0.19279,-0.00246707,0.00692896,-0.0844172
77705,0.00608593,-0.00959725,-0.00405676,-0.318546,-0.0555661,0.0125611,0.0580981,0.0113305,-0.00550365,0.421,0.058,-0.004665,2.22946,0.415047,-0.198696,-0.00212419,0.00405174,-0.0397085
77755.4,-0.0174051,-0.0251887,-0.00608956,-0.397242,-0.308274,0.0018045,0.0499491,0.0308471,-0.0155001,0.421,0.058,-0.004665,2.22186,0.384404,-0.204027,0.000546744,-0.00248403,0.000144308
77805.8,-0.0207695,-0.0200781,-0.0114197,-0.348175,-0.403833,-0.0227366,-0.0253049,-0.00335336,-0.0253687,0.421,0.058,-0.004665,2.21144,0.357684,-0.208985,0.00046541,-0.00608202,0.0430719
77856.2,-0.0572186,-0.055666,-0.00779272,-0.498134,-0.634236,-0.00085539,-0.0804463,-0.00603269,-0.00564384,0.421,0.058,-0.004665,2.19802,0.333322,-0.213916,0.00116627,-0.00912433,0.0864918
77906.5,-0.039676,-0.0484356,-0.00868449,-0.192097,-0.744244,-0.00466339,-0.0991788,-0.0180581,-0.0158482,0.421,0.058,-0.004665,2.18318,0.313389,-0.219035,0.00199905,-0.0151024,0.130774
77956.9,-0.0540035,-0.101661,-0.0092796,-0.176783,-0.958252,-0.00704197,-0.145206,-0.0368094,-0.0264826,0.421,0.058,-0.004665,2.16952,0.299666,-0.224882,0.00372353,-0.0216269,0.179528
78007.3,-0.0327398,-0.0750972,-0.00621074,0.0516855,-0.855925,0.0102076,-0.20344,-0.0719924,-0.00771046,0.421,0.058,-0.004665,2.1598,0.292533,-0.231628,0.00542861,-0.0273669,0.232391
78057.7,-0.00543015,-0.135513,0.000197502,0.483406,-1.18367,0.0422623,-0.22849,-0.116993,-0.00867462,0.421,0.058,-0.004665,2.15767,0.291918,-0.239231,0.00651759,-0.0344534,0.285771
78108.1,-0.0182887,-0.0676513,0.00109426,-0.0386891,-0.326403,0.0331938,-0.304097,-0.164153,-0.0314369,0.421,0.058,-0.004665,2.16643,0.29636,-0.24779,0.0097623,-0.0393297,0.341207
78158.5,-0.00813425,-0.0617205,0.00183362,0.0877672,-0.189619,0.0302576,-0.338248,-0.229962,-0.0338793,0.421,0.058,-0.004665,2.18567,0.302476,-0.255897,0.0124509,-0.0423991,0.388049
78208.8,-0.00223931,-0.00375469,-0.00146332,0.0849645,0.315251,0.0116855,-0.343591,-0.259233,-0.0247879,0.421,0.058,-0.004665,2.21086,0.307169,-0.262408,0.0146702,-0.0476651,0.421097
78259.2,0.0276883,0.033696,-0.00398247,0.346429,0.298879,-0.00155314,-0.374267,-0.333993,-0.0181665,0.421,0.058,-0.004665,2.23538,0.309699,-0.264749,0.0166474,-0.0446463,0.43155
78309.6,0.0375855,0.0125915,-0.0103315,0.313221,-0.508768,-0.0534482,-0.321153,-0.325011,-0.036005,0.421,0.058,-0.004665,2.2531,0.311285,-0.263405,0.0143448,-0.0437103,0.420884
78360,0.0697207,-0.0340666,-0.0159996,0.312673,-0.979329,-0.0811741,-0.334927,-0.301665,-0.025712,0.421,0.058,-0.004665,2.2634,0.313435,-0.258354,0.0140027,-0.039007,0.390744
78410.4,0.0515098,-0.000370875,-0.0152491,0.637421,-0.372745,-0.0391244,-0.293042,-0.266725,-0.0333586,0.421,0.058,-0.004665,2.26798,0.315679,-0.251122,0.0120486,-0.0355379,0.351699
78460.8,0.111255,0.00776804,-0.0135676,1.20299,-0.188728,-0.00784144,-0.293299,-0.241724,-0.0327101,0.421,0.058,-0.004665,2.26926,0.315871,-0.242949,0.00941208,-0.0294857,0.309804
78511.1,0.0569268,-0.000821246,-0.0135206,0.35007,-0.0253528,-0.0152426,-0.245407,-0.183752,-0.0201311,0.421,0.058,-0.004665,2.26874,0.311906,-0.23506,0.00687273,-0.0262586,0.268304
78561.5,0.0202999,0.000946801,-0.0169312,-0.124498,0.213054,-0.0311147,-0.231373,-0.13128,-0.0289526,0.421,0.058,-0.004665,2.26651,0.301788,-0.227733,0.00635879,-0.0233358,0.231334
78611.9,0.0138504,0.0205844,-0.0187522,-0.023992,0.27375,-0.0301005,-0.207311,-0.121037,-0.0182734,0.421,0.058,-0.004665,2.26209,0.285145,-0.221537,0.00415821,-0.0199077,0.199502
78662.3,0.0128828,0.0197507,-0.0198569,0.141502,0.0849301,-0.0264005,-0.18243,-0.0866,-0.0174141,0.421,0.058,-0.004665,2.25499,0.262564,-0.216013,0.00254896,-0.0178161,0.173471
78712.6,0.0341501,0.0309605,-0.0203423,0.349628,0.0335314,-0.0210687,-0.149198,-0.0494604,-0.0165777,0.421,0.058,-0.004665,2.24483,0.235553,-0.211131,0.00222632,-0.0179692,0.153823
78763,0.0328762,0.0144826,-0.0206764,0.390761,-0.257978,-0.0167535,-0.172042,-0.04674,-0.00695515,0.421,0.058,-0.004665,2.23074,0.203955,-0.207071,0.00202868,-0.0148179,0.141213
78813.4,0.0776975,0.0141422,-0.0168615,0.71204,-0.191107,0.00849142,-0.142449,-0.0383414,0.00355625,0.421,0.058,-0.004665,2.21295,0.169736,-0.203468,0.00128312,-0.0138521,0.131444
78863.8,0.0636308,0.00393528,-0.0102754,0.6329,-0.375248,0.0379056,-0.122749,-0.0369619,-0.0261679,0.421,0.058,-0.004665,2.19167,0.134338,-0.200404,-0.000114628,-0.0142613,0.126761
